%time,field.linear.x,field.linear.y,field.linear.z,field.angular.x,field.angular.y,field.angular.z
1565341597521012078,-0.0,-0.0,0.0,0.0,0.0,0.0
1565341597569730463,-0.0,-0.0,0.0,0.0,0.0,0.0
1565341597619856401,-0.0,-0.0,0.0,0.0,0.0,0.0
1565341597670623224,-0.0,-0.0,0.0,0.0,0.0,0.0
1565341597722089682,-0.0,-0.0,0.0,0.0,0.0,0.0
1565341597770237911,-0.0,-0.0,0.0,0.0,0.0,0.0
1565341597827803328,-0.0,-0.0,0.0,0.0,0.0,0.0
1565341597896569005,-0.0,-0.0,0.0,0.0,0.0,0.0
1565341597972052182,-0.0,-0.0,0.0,0.0,0.0,0.0
1565341597982408901,-0.0,-0.0,0.0,0.0,0.0,0.0
1565341598035941661,-0.0,-0.0,0.0,0.0,0.0,0.0
1565341598072388172,-0.0,-0.0,0.0,0.0,0.0,0.0
1565341598122414994,-0.0,-0.0,0.0,0.0,0.0,0.0
1565341598172708015,-0.0,-0.0,0.0,0.0,0.0,0.0
1565341598222847286,-0.0,-0.0,0.0,0.0,0.0,0.0
1565341598272986869,-0.0,-0.0,0.0,0.0,0.0,0.0
1565341598323337859,-0.0,-0.0,0.0,0.0,0.0,0.0
1565341598373165724,-0.0,-0.0,0.0,0.0,0.0,0.0
1565341598423568796,-0.0,-0.0,0.0,0.0,0.0,0.0
1565341598473540880,-0.0,-0.0,0.0,0.0,0.0,0.0
1565341598523678119,-0.0,-0.0,0.0,0.0,0.0,0.0
1565341598666053119,0.0559179410338,-0.0,0.0,0.0,0.0,0.0
1565341598769437911,0.0667439773679,-0.0,0.0,0.0,0.0,0.0
1565341598877639369,0.142719000578,-0.0,0.0,0.0,0.0,0.0
1565341598990082859,0.164435341954,-0.0,0.0,0.0,0.0,0.0
1565341599093852077,0.164435341954,-0.0,0.0,0.0,0.0,0.0
1565341599197316765,0.153577163815,-0.0,0.0,0.0,0.0,0.0
1565341599341766088,0.511703848839,-0.0,0.0,0.0,0.0,0.0
1565341599453892650,0.631079435349,-0.0,0.0,0.0,0.0,0.0
1565341599565576088,0.674479961395,-0.0,0.0,0.0,0.0,0.0
1565341599697064994,0.815571844578,-0.0,0.0,0.0,0.0,0.0
1565341599840904421,0.91323107481,-0.0,0.0,0.0,0.0,0.0
1565341599941564838,0.934947371483,-0.0,0.0,0.0,0.0,0.0
1565341599993406296,0.934947371483,-0.0,0.0,0.0,0.0,0.0
1565341600130187702,0.934947371483,-0.0,0.0,0.0,0.0,0.0
1565341600179632650,0.934947371483,-0.0,0.0,0.0,0.0,0.0
1565341600331767598,0.924089252949,-0.0,0.0,0.0,0.0,0.0
1565341600379446296,0.924089252949,-0.0,0.0,0.0,0.0,0.0
1565341600509572181,0.902372896671,-0.0,0.0,0.0,0.0,0.0
1565341600629654004,0.848114192486,-0.0,0.0,0.0,0.0,0.0
1565341600741734889,0.848114192486,-0.0,0.0,0.0,0.0,0.0
1565341600792987441,0.848114192486,-0.0,0.0,0.0,0.0,0.0
1565341600921548483,0.848114192486,-0.0,0.0,0.0,0.0,0.0
1565341601037687858,0.848114192486,-0.0,0.0,0.0,0.0,0.0
1565341601141650566,0.848114192486,-0.0,0.0,0.0,0.0,0.0
1565341601249346191,0.848114192486,-0.0,0.0,0.0,0.0,0.0
1565341601355083899,0.848114192486,-0.0,0.0,0.0,0.0,0.0
1565341601403443170,0.848114192486,-0.0,0.0,0.0,0.0,0.0
1565341601550035306,0.848114192486,-0.0,0.0,0.0,0.0,0.0
1565341601599797285,0.848114192486,-0.0,0.0,0.0,0.0,0.0
1565341601701965358,-0.0,-0.0,0.0,0.0,0.0,0.0
1565341601752135722,-0.0,-0.0,0.0,0.0,0.0,0.0
1565341601804437649,-0.0,-0.0,0.0,0.0,0.0,0.0
1565341601915812701,-0.0,-0.0,0.0,0.0,0.0,0.0
1565341601926841503,-0.0,-0.0,0.0,0.0,0.0,0.0
1565341601953613743,-0.0,-0.0,0.0,0.0,0.0,0.0
1565341602002643014,-0.0,-0.0,0.0,0.0,0.0,0.0
1565341602052885201,-0.0,-0.0,0.0,0.0,0.0,0.0
1565341602102838743,-0.0,-0.0,0.0,0.0,0.0,0.0
1565341602153163535,-0.0,-0.0,0.0,0.0,0.0,0.0
1565341602203608691,-0.0,-0.0,0.0,0.0,0.0,0.0
1565341602253611555,-0.0,-0.0,0.0,0.0,0.0,0.0
1565341602303686816,-0.0,-0.0,0.0,0.0,0.0,0.0
1565341602354270514,-0.0,-0.0,0.0,0.0,0.0,0.0
1565341602403832753,-0.0,-0.0,0.0,0.0,0.0,0.0
1565341602454594941,-0.0,-0.0,0.0,0.0,0.0,0.0
1565341602504793795,-0.0,-0.0,0.0,0.0,0.0,0.0
1565341602554821087,-0.0,-0.0,0.0,0.0,0.0,0.0
1565341602604986399,-0.0,-0.0,0.0,0.0,0.0,0.0
1565341602655237441,-0.0,-0.0,0.0,0.0,0.0,0.0
1565341602705638534,-0.0,-0.0,0.0,0.0,0.0,0.0
1565341602755427753,-0.0,-0.0,0.0,0.0,0.0,0.0
1565341602805897441,-0.0,-0.0,0.0,0.0,0.0,0.0
1565341602856200826,-0.0,-0.0,0.0,0.0,0.0,0.0
1565341602906185045,-0.0,-0.0,0.0,0.0,0.0,0.0
1565341603045691763,0.121034801006,-0.0,0.0,0.0,0.0,0.0
1565341603150950878,0.272952735424,-0.0,0.0,0.0,0.0,0.0
1565341603259769055,0.403186440468,-0.0,0.0,0.0,0.0,0.0
1565341603378513899,0.403186440468,-0.0,0.0,0.0,0.0,0.0
1565341603473364732,0.403186440468,-0.0,0.0,0.0,0.0,0.0
1565341603577280201,0.403186440468,-0.0,0.0,0.0,0.0,0.0
1565341603721700565,0.663621783257,-0.0,0.0,0.0,0.0,0.0
1565341603858388169,0.717880487442,-0.0,0.0,0.0,0.0,0.0
1565341603969324211,0.826397895813,-0.0,0.0,0.0,0.0,0.0
1565341604117939940,0.902372896671,-0.0,0.0,0.0,0.0,0.0
1565341604233404211,0.945773422718,-0.0,0.0,0.0,0.0,0.0
1565341604353520669,0.945773422718,-0.0,0.0,0.0,0.0,0.0
1565341604457446659,0.956631600857,-0.0,0.0,0.0,0.0,0.0
1565341604579119627,0.967489778996,-0.0,0.0,0.0,0.0,0.0
1565341604681638117,0.967489778996,-0.0,0.0,0.0,0.0,0.0
1565341604797610773,1.0,-0.0,0.0,0.0,0.0,0.0
1565341604921663534,-0.0,-0.0,0.0,0.0,0.0,0.0
1565341604971585669,-0.0,-0.0,0.0,0.0,0.0,0.0
1565341605022487127,-0.0,-0.0,0.0,0.0,0.0,0.0
1565341605072623273,-0.0,-0.0,0.0,0.0,0.0,0.0
1565341605122886086,-0.0,-0.0,0.0,0.0,0.0,0.0
1565341605173457648,-0.0,-0.0,0.0,0.0,0.0,0.0
1565341605222980981,-0.0,-0.0,0.0,0.0,0.0,0.0
1565341605272812231,-0.0,-0.0,0.0,0.0,0.0,0.0
1565341605323099471,-0.0,-0.0,0.0,0.0,0.0,0.0
1565341605373492752,-0.0,-0.0,0.0,0.0,0.0,0.0
1565341605425151294,-0.0,-0.0,0.0,0.0,0.0,0.0
1565341605473840617,-0.0,-0.0,0.0,0.0,0.0,0.0
1565341605524407440,-0.0,-0.0,0.0,0.0,0.0,0.0
1565341605574362856,-0.0,-0.0,0.0,0.0,0.0,0.0
1565341605625462127,-0.0,-0.0,0.0,0.0,0.0,0.0
1565341605674472596,-0.0,-0.0,0.0,0.0,0.0,0.0
1565341605725614939,-0.0,-0.0,0.0,0.0,0.0,0.0
1565341605774559627,-0.0,-0.0,0.0,0.0,0.0,0.0
1565341605826782179,-0.0,-0.0,0.0,0.0,0.0,0.0
1565341605895026658,-0.0,-0.0,0.0,0.0,0.0,0.0
1565341605947563221,-0.0,-0.0,0.0,0.0,0.0,0.0
1565341605982756502,-0.0,-0.0,0.0,0.0,0.0,0.0
1565341606025650044,-0.0,-0.0,0.0,0.0,0.0,0.0
1565341606075583533,-0.0,-0.0,0.0,0.0,0.0,0.0
1565341606126342596,-0.0,-0.0,0.0,0.0,0.0,0.0
1565341606175914210,-0.0,-0.0,0.0,0.0,0.0,0.0
1565341606226306762,-0.0,-0.0,0.0,0.0,0.0,0.0
1565341606293710408,-0.0,-0.0,0.0,0.0,0.0,0.0
1565341606328296502,-0.0,-0.0,0.0,0.0,0.0,0.0
1565341606377599783,-0.0,-0.0,0.0,0.0,0.0,0.0
1565341606431022543,-0.0,-0.0,0.0,0.0,0.0,0.0
1565341606477185773,-0.0,-0.0,0.0,0.0,0.0,0.0
1565341606529085043,-0.0,-0.0,0.0,0.0,0.0,0.0
1565341606577580825,-0.0,-0.0,0.0,0.0,0.0,0.0
1565341606627888064,-0.0,-0.0,0.0,0.0,0.0,0.0
1565341606678134991,-0.0,-0.0,0.0,0.0,0.0,0.0
1565341606782214158,-0.131828710437,-0.0,0.0,0.0,0.0,0.0
1565341606831871918,-0.131828710437,-0.0,0.0,0.0,0.0,0.0
1565341606894236345,-0.131828710437,-0.0,0.0,0.0,0.0,0.0
1565341606951798845,-0.131828710437,-0.0,0.0,0.0,0.0,0.0
1565341607077575460,-0.272920608521,-0.0,0.0,0.0,0.0,0.0
1565341607209348793,-0.316321134567,-0.0,0.0,0.0,0.0,0.0
1565341607313493689,-0.370579838753,-0.0,0.0,0.0,0.0,0.0
1565341607421682178,-0.414012491703,-0.0,0.0,0.0,0.0,0.0
1565341607569498585,-0.424838542938,-0.0,0.0,0.0,0.0,0.0
1565341607685451814,-0.48995539546,-0.0,0.0,0.0,0.0,0.0
1565341607789423532,-0.576788604259,-0.0,0.0,0.0,0.0,0.0
1565341607847184210,-0.576788604259,-0.0,0.0,0.0,0.0,0.0
1565341607908674001,-0.576788604259,-0.0,0.0,0.0,0.0,0.0
1565341608017650616,-0.620189130306,-0.0,0.0,0.0,0.0,0.0
1565341608162216761,-0.663589656353,-0.0,0.0,0.0,0.0,0.0
1565341608173993793,-0.663589656353,-0.0,0.0,0.0,0.0,0.0
1565341608221869366,-0.663589656353,-0.0,0.0,0.0,0.0,0.0
1565341608351238584,-0.663589656353,-0.0,0.0,0.0,0.0,0.0
1565341608358964261,-0.663589656353,-0.0,0.0,0.0,0.0,0.0
1565341608425528532,-0.728706538677,-0.0,0.0,0.0,0.0,0.0
1565341608557268584,-0.739564657211,-0.0,0.0,0.0,0.0,0.0
1565341608587936449,-0.739564657211,-0.0,0.0,0.0,0.0,0.0
1565341608638058168,-0.739564657211,-0.0,0.0,0.0,0.0,0.0
1565341608757490980,-0.815539717674,-0.0,0.0,0.0,0.0,0.0
1565341608947179470,-0.913198947906,-0.0,0.0,0.0,0.0,0.0
1565341608966570199,-1.0,-0.0,0.0,0.0,0.0,0.0
1565341609016119886,-1.0,-0.0,0.0,0.0,0.0,0.0
1565341609175011397,-1.0,-0.0,0.0,0.0,0.0,0.0
1565341609179704886,-1.0,-0.0,0.0,0.0,0.0,0.0
1565341609179889157,-1.0,-0.0,0.0,0.0,0.0,0.0
1565341609217111657,-1.0,-0.0,0.0,0.0,0.0,0.0
1565341609267031709,-1.0,-0.0,0.0,0.0,0.0,0.0
1565341609369629105,-1.0,-0.0,0.0,0.0,0.0,0.0
1565341609373070980,-1.0,-0.0,0.0,0.0,0.0,0.0
1565341609418145719,-1.0,-0.0,0.0,0.0,0.0,0.0
1565341609467927959,-1.0,-0.0,0.0,0.0,0.0,0.0
1565341609564689001,-1.0,-0.0,0.0,0.0,0.0,0.0
1565341609568504573,-1.0,-0.0,0.0,0.0,0.0,0.0
1565341609618372751,-1.0,-0.0,0.0,0.0,0.0,0.0
1565341609759769834,-1.0,-0.0,0.0,0.0,0.0,0.0
1565341609762658063,-1.0,-0.0,0.0,0.0,0.0,0.0
1565341609768599834,-1.0,-0.0,0.0,0.0,0.0,0.0
1565341609819431761,-1.0,-0.0,0.0,0.0,0.0,0.0
1565341609967563584,-1.0,-0.0,0.0,0.0,0.0,0.0
1565341609974854052,-1.0,-0.0,0.0,0.0,0.0,0.0
1565341609974923167,-1.0,-0.0,0.0,0.0,0.0,0.0
1565341610019338948,-1.0,-0.0,0.0,0.0,0.0,0.0
1565341610159666396,-1.0,-0.0,0.0,0.0,0.0,0.0
1565341610162328375,-1.0,-0.0,0.0,0.0,0.0,0.0
1565341610170201657,-1.0,-0.0,0.0,0.0,0.0,0.0
1565341610220527542,-1.0,-0.0,0.0,0.0,0.0,0.0
1565341610353864990,-1.0,-0.0,0.0,0.0,0.0,0.0
1565341610361546136,-1.0,-0.0,0.0,0.0,0.0,0.0
1565341610370587594,-1.0,-0.0,0.0,0.0,0.0,0.0
1565341610421428375,-1.0,-0.0,0.0,0.0,0.0,0.0
1565341610549479990,-1.0,-0.0,0.0,0.0,0.0,0.0
1565341610555437177,-1.0,-0.0,0.0,0.0,0.0,0.0
1565341610571627125,-1.0,-0.0,0.0,0.0,0.0,0.0
1565341610621689261,-1.0,-0.0,0.0,0.0,0.0,0.0
1565341610744337542,-1.0,-0.0,0.0,0.0,0.0,0.0
1565341610748157698,-1.0,-0.0,0.0,0.0,0.0,0.0
1565341610772168063,-1.0,-0.0,0.0,0.0,0.0,0.0
1565341610834332177,-1.0,-0.0,0.0,0.0,0.0,0.0
1565341611032175562,-1.0,-0.0,0.0,0.0,0.0,0.0
1565341611042380927,-1.0,-0.0,0.0,0.0,0.0,0.0
1565341611042562281,-1.0,-0.0,0.0,0.0,0.0,0.0
1565341611042605458,-1.0,-0.0,0.0,0.0,0.0,0.0
1565341611073147437,-1.0,-0.0,0.0,0.0,0.0,0.0
1565341611126346031,-1.0,-0.0,0.0,0.0,0.0,0.0
1565341611226454781,-1.0,-0.0,0.0,0.0,0.0,0.0
1565341611226604260,-1.0,-0.0,0.0,0.0,0.0,0.0
1565341611274063219,-1.0,-0.0,0.0,0.0,0.0,0.0
1565341611324585250,-1.0,-0.0,0.0,0.0,0.0,0.0
1565341611421196291,-1.0,-0.0,0.0,0.0,0.0,0.0
1565341611425391552,-1.0,-0.0,0.0,0.0,0.0,0.0
1565341611474995094,-1.0,-0.0,0.0,0.0,0.0,0.0
1565341611616101708,-1.0,-0.0,0.0,0.0,0.0,0.0
1565341611620388062,-1.0,-0.0,0.0,0.0,0.0,0.0
1565341611693224937,-0.0,-0.0,0.0,0.0,0.0,0.0
1565341611817059468,-0.0,-0.0,0.0,0.0,0.0,0.0
1565341611822906760,-0.0,-0.0,0.0,0.0,0.0,0.0
1565341611847545302,-0.0,-0.0,0.0,0.0,0.0,0.0
1565341611907715927,-0.0,-0.0,0.0,0.0,0.0,0.0
1565341612044645302,-0.0,-0.0,0.0,0.0,0.0,0.0
1565341612056650458,-0.0,-0.0,0.0,0.0,0.0,0.255835860968
1565341612213044416,-0.0,-0.0,0.0,0.0,0.0,0.402340769768
1565341612262246499,-0.0,-0.0,0.0,0.0,0.0,0.407769858837
1565341612410205406,-0.0,-0.0,0.0,0.0,0.0,0.402340769768
1565341612605290041,-0.0,-0.0,0.0,0.0,0.0,0.348082065582
1565341612617547437,-0.0,-0.0,0.0,0.0,0.0,0.0
1565341612667585822,-0.0,-0.0,0.0,0.0,0.0,0.0
1565341612800249937,-0.0,-0.0,0.0,0.0,0.0,0.0
1565341612837281708,-0.0,-0.0,0.0,0.0,0.0,0.0
1565341612839878999,-0.0,-0.0,0.0,0.0,0.0,0.0
1565341612868880093,-0.0,-0.0,0.0,0.0,0.0,0.0
1565341612919143739,-0.0,-0.0,0.0,0.0,0.0,0.0
1565341612970390978,-0.0,-0.0,0.0,0.0,0.0,0.0
1565341613021287853,-0.0,-0.0,0.0,0.0,0.0,0.0
1565341613068972645,-0.0,-0.0,0.0,0.0,0.0,0.0
1565341613119862593,-0.0,-0.0,0.0,0.0,0.0,0.0
1565341613245708114,-0.142686888576,-0.0,0.0,0.0,0.0,0.0
1565341613350255770,-0.587646722794,-0.0,0.0,0.0,0.0,0.0
1565341613454374312,-0.837223887444,-0.0,0.0,0.0,0.0,0.0
1565341613504298114,-0.837223887444,-0.0,0.0,0.0,0.0,0.0
1565341613554490614,-0.837223887444,-0.0,0.0,0.0,0.0,0.0
1565341613604253530,-0.837223887444,-0.0,0.0,0.0,0.0,0.0
1565341613729910926,-0.848082065582,-0.0,0.0,0.0,0.0,0.0
1565341613845382593,-0.848082065582,-0.0,0.0,0.0,0.0,0.0
1565341613977759207,-0.837223887444,-0.0,0.0,0.0,0.0,0.0
1565341614042157853,-0.837223887444,-0.0,0.0,0.0,0.0,0.0
1565341614150596811,-0.848082065582,-0.0,0.0,0.0,0.0,0.0
1565341614273613842,-0.858940243721,-0.0,0.0,0.0,0.0,0.0
1565341614398239207,-0.913198947906,-0.0,0.0,0.0,0.0,0.0
1565341614448105665,-0.913198947906,-0.0,0.0,0.0,0.0,0.0
1565341614498227749,-0.913198947906,-0.0,0.0,0.0,0.0,0.0
1565341614548354832,-0.913198947906,-0.0,0.0,0.0,0.0,0.0
1565341614598621811,-0.913198947906,-0.0,0.0,0.0,0.0,0.0
1565341614665258894,-0.913198947906,-0.0,0.0,0.0,0.0,0.0
1565341614750102019,-0.0,-0.0,0.0,0.0,0.0,0.0
1565341614799648582,-0.0,-0.0,0.0,0.0,0.0,0.0
1565341614850249571,-0.0,-0.0,0.0,0.0,0.0,0.0
1565341614900227280,-0.0,-0.0,0.0,0.0,0.0,0.0
1565341615014068478,-0.0,-0.0,0.0,0.0,0.0,0.13646030426
1565341615119099311,-0.0,-0.0,0.0,0.0,0.0,0.228706508875
1565341615222385196,-0.0,-0.0,0.0,0.0,0.0,0.28839430213
1565341615329477592,-0.0,-0.0,0.0,0.0,0.0,0.331794828176
1565341615463735509,-0.0,-0.0,0.0,0.0,0.0,0.353511154652
1565341615516742436,-0.0,-0.0,0.0,0.0,0.0,0.353511154652
1565341615662776602,-0.0,-0.0,0.0,0.0,0.0,0.358924180269
1565341615711915300,-0.0,-0.0,0.0,0.0,0.0,0.358924180269
1565341615762805665,-0.0,-0.0,0.0,0.0,0.0,0.358924180269
1565341615822778217,-0.0,-0.0,0.0,0.0,0.0,0.358924180269
1565341615968936654,-0.0,-0.0,0.0,0.0,0.0,0.0
1565341616007978633,-0.0,-0.0,0.0,0.0,0.0,0.0
1565341616058367644,-0.0,-0.0,0.0,0.0,0.0,0.0
1565341616107991706,-0.0,-0.0,0.0,0.0,0.0,0.0
1565341616159531550,-0.0,-0.0,0.0,0.0,0.0,0.0
1565341616208841915,-0.0,-0.0,0.0,0.0,0.0,0.0
1565341616261585196,-0.0,-0.0,0.0,0.0,0.0,0.0
1565341616309097071,-0.0,-0.0,0.0,0.0,0.0,0.0
1565341616358918269,-0.0,-0.0,0.0,0.0,0.0,0.0
1565341616409572852,-0.0,-0.0,0.0,0.0,0.0,0.0
1565341616460807748,-0.0,-0.0,0.0,0.0,0.0,0.0
1565341616509831081,-0.0,-0.0,0.0,0.0,0.0,0.0
1565341616634440196,-0.207803741097,-0.0,0.0,0.0,0.0,0.0
1565341616737626498,-0.305462986231,-0.0,0.0,0.0,0.0,0.0
1565341616787976185,-0.305462986231,-0.0,0.0,0.0,0.0,0.0
1565341616927757331,-0.403154343367,-0.0,0.0,0.0,0.0,0.0
1565341617053552956,-0.435696691275,-0.0,0.0,0.0,0.0,0.0
1565341617103569623,-0.435696691275,-0.0,0.0,0.0,0.0,0.0
1565341617222626706,-0.446554869413,-0.0,0.0,0.0,0.0,0.0
1565341617325614102,-0.576788604259,-0.0,0.0,0.0,0.0,0.0
1565341617445643841,-0.598472774029,-0.0,0.0,0.0,0.0,0.0
1565341617496012331,-0.598472774029,-0.0,0.0,0.0,0.0,0.0
1565341617546134206,-0.598472774029,-0.0,0.0,0.0,0.0,0.0
1565341617596543789,-0.598472774029,-0.0,0.0,0.0,0.0,0.0
1565341617646504362,-0.598472774029,-0.0,0.0,0.0,0.0,0.0
1565341617780282487,-0.609330952168,-0.0,0.0,0.0,0.0,0.0
1565341617838134674,-0.609330952168,-0.0,0.0,0.0,0.0,0.0
1565341617887536029,-0.609330952168,-0.0,0.0,0.0,0.0,0.0
1565341617928910716,-0.609330952168,-0.0,0.0,0.0,0.0,0.0
1565341618068406914,-0.685305953026,-0.0,0.0,0.0,0.0,0.0
1565341618161938476,-0.75042283535,-0.0,0.0,0.0,0.0,0.0
1565341618273765403,-0.793823361397,-0.0,0.0,0.0,0.0,0.0
1565341618324162956,-0.793823361397,-0.0,0.0,0.0,0.0,0.0
1565341618373882903,-0.793823361397,-0.0,0.0,0.0,0.0,0.0
1565341618424269726,-0.793823361397,-0.0,0.0,0.0,0.0,0.0
1565341618537666028,-0.793823361397,-0.0,0.0,0.0,0.0,0.0
1565341618587641185,-0.793823361397,-0.0,0.0,0.0,0.0,0.0
1565341618637918737,-0.793823361397,-0.0,0.0,0.0,0.0,0.0
1565341618741889362,-0.804681539536,-0.0,0.0,0.0,0.0,0.0
1565341618846162330,-0.804681539536,-0.0,0.0,0.0,0.0,0.0
1565341618896199987,-0.804681539536,-0.0,0.0,0.0,0.0,0.0
1565341619038115143,-0.826365768909,-0.0,0.0,0.0,0.0,0.0
1565341619142353528,-1.0,-0.0,0.0,0.0,0.0,0.0
1565341619194344570,-1.0,-0.0,0.0,0.0,0.0,0.0
1565341619242537278,-1.0,-0.0,0.0,0.0,0.0,0.0
1565341619292503111,-1.0,-0.0,0.0,0.0,0.0,0.0
1565341619343020455,-1.0,-0.0,0.0,0.0,0.0,0.0
1565341619395098476,-1.0,-0.0,0.0,0.0,0.0,0.0
1565341619443315611,-1.0,-0.0,0.0,0.0,0.0,0.0
1565341619493752486,-1.0,-0.0,0.0,0.0,0.0,0.0
1565341619543750611,-1.0,-0.0,0.0,0.0,0.0,0.0
1565341619594814518,-1.0,-0.0,0.0,0.0,0.0,0.0
1565341619643829934,-1.0,-0.0,0.0,0.0,0.0,0.0
1565341619694500507,-1.0,-0.0,0.0,0.0,0.0,0.0
1565341619745739778,-1.0,-0.0,0.0,0.0,0.0,0.0
1565341619796295455,-1.0,-0.0,0.0,0.0,0.0,0.0
1565341619858846601,-1.0,-0.0,0.0,0.0,0.0,0.0
1565341619894659778,-1.0,-0.0,0.0,0.0,0.0,0.0
1565341620001741861,-0.0,-0.0,0.0,0.0,0.0,0.0
1565341620052874153,-0.0,-0.0,0.0,0.0,0.0,0.0
1565341620102405767,-0.0,-0.0,0.0,0.0,0.0,0.0
1565341620155253580,-0.0,-0.0,0.0,0.0,0.0,0.0
1565341620202803580,-0.0,-0.0,0.0,0.0,0.0,0.0
1565341620255835924,-0.0,-0.0,0.0,0.0,0.0,0.0
1565341620303357017,-0.0,-0.0,0.0,0.0,0.0,0.0
1565341620353466809,-0.0,-0.0,0.0,0.0,0.0,0.0
1565341620403309986,-0.0,-0.0,0.0,0.0,0.0,0.0
1565341620454047382,-0.0,-0.0,0.0,0.0,0.0,0.0
1565341620503822798,-0.0,-0.0,0.0,0.0,0.0,0.0
1565341620554025715,-0.0,-0.0,0.0,0.0,0.0,0.0
1565341620604186132,-0.0,-0.0,0.0,0.0,0.0,0.0
1565341620654458892,-0.0,-0.0,0.0,0.0,0.0,0.0
1565341620704459830,-0.0,-0.0,0.0,0.0,0.0,0.0
1565341620754898267,-0.0,-0.0,0.0,0.0,0.0,0.0
1565341620805161132,-0.0,-0.0,0.0,0.0,0.0,0.0
1565341620855733684,-0.0,-0.0,0.0,0.0,0.0,0.0
1565341620905504517,-0.0,-0.0,0.0,0.0,0.0,0.0
1565341620955431600,-0.0,-0.0,0.0,0.0,0.0,0.0
1565341621005878059,-0.0,-0.0,0.0,0.0,0.0,0.0
1565341621058850975,-0.0,-0.0,0.0,0.0,0.0,0.0
1565341621106676913,-0.0,-0.0,0.0,0.0,0.0,0.0
1565341621157291288,-0.0,-0.0,0.0,0.0,0.0,0.0
1565341621208115090,-0.0,-0.0,0.0,0.0,0.0,0.0
1565341621259207225,-0.0,-0.0,0.0,0.0,0.0,0.0
1565341621307038319,-0.0,-0.0,0.0,0.0,0.0,0.0
1565341621357419204,-0.0,-0.0,0.0,0.0,0.0,0.0
1565341621407013684,-0.0,-0.0,0.0,0.0,0.0,0.0
1565341621457566704,-0.0,-0.0,0.0,0.0,0.0,0.0
1565341621507903527,-0.0,-0.0,0.0,0.0,0.0,0.0
1565341621558022746,-0.0,-0.0,0.0,0.0,0.0,0.0
1565341621608215350,-0.0,-0.0,0.0,0.0,0.0,0.0
1565341621659063423,-0.0,-0.0,0.0,0.0,0.0,0.0
1565341621708932902,-0.0,-0.0,0.0,0.0,0.0,0.0
1565341621758815298,-0.0,-0.0,0.0,0.0,0.0,0.0
1565341621817584204,-0.0,-0.0,0.0,0.0,0.0,0.0
1565341621867079673,-0.0,-0.0,0.0,0.0,0.0,0.0
1565341621926243319,-0.0,-0.0,0.0,0.0,0.0,0.0
1565341621959304152,-0.0,-0.0,0.0,0.0,0.0,0.0
1565341622009184777,-0.0,-0.0,0.0,0.0,0.0,0.0
1565341622066432381,-0.0,-0.0,0.0,0.0,0.0,0.0
1565341622109624517,-0.0,-0.0,0.0,0.0,0.0,0.0
1565341622160248110,-0.0,-0.0,0.0,0.0,0.0,0.0
1565341622210081756,-0.0,-0.0,0.0,0.0,0.0,0.0
1565341622260725298,-0.0,-0.0,0.0,0.0,0.0,0.0
1565341622310405037,-0.0,-0.0,0.0,0.0,0.0,0.0
1565341622361176912,-0.0,-0.0,0.0,0.0,0.0,0.0
1565341622410375506,-0.0,-0.0,0.0,0.0,0.0,0.0
1565341622460950766,-0.0,-0.0,0.0,0.0,0.0,0.0
1565341622597917746,-0.0,-0.0,0.0,0.0,0.0,-0.234151661396
1565341622718095141,-0.0,-0.0,0.0,0.0,0.0,-0.293839424849
1565341622822223162,-0.0,-0.0,0.0,0.0,0.0,-0.407785922289
1565341622929245662,-0.0,-0.0,0.0,0.0,0.0,-0.445757359266
1565341623033758891,-0.0,-0.0,0.0,0.0,0.0,0.0
1565341623079883058,-0.0,-0.0,0.0,0.0,0.0,0.0
1565341623130442850,-0.0,-0.0,0.0,0.0,0.0,0.0
1565341623179864256,-0.0,-0.0,0.0,0.0,0.0,0.0
1565341623286689620,-0.0,-0.0,0.0,0.0,0.0,-0.348098129034
1565341623390287068,-0.0,-0.0,0.0,0.0,0.0,-0.234151661396
1565341623493824204,-0.0,-0.0,0.0,0.0,0.0,0.0
1565341623544403787,-0.0,-0.0,0.0,0.0,0.0,0.0
1565341623593872849,-0.0,-0.0,0.0,0.0,0.0,0.0
1565341623644465558,-0.0,-0.0,0.0,0.0,0.0,0.0
1565341623694756131,-0.0,-0.0,0.0,0.0,0.0,0.0
1565341623745200766,-0.0,-0.0,0.0,0.0,0.0,0.0
1565341623796819724,-0.0,-0.0,0.0,0.0,0.0,0.0
1565341623851812901,-0.0,-0.0,0.0,0.0,0.0,0.0
1565341623895559412,-0.0,-0.0,0.0,0.0,0.0,0.0
1565341623945889776,-0.0,-0.0,0.0,0.0,0.0,0.0
1565341623996057016,-0.0,-0.0,0.0,0.0,0.0,0.0
1565341624046300401,-0.0,-0.0,0.0,0.0,0.0,0.0
1565341624096360505,-0.0,-0.0,0.0,0.0,0.0,0.0
1565341624146189828,-0.0,-0.0,0.0,0.0,0.0,0.0
1565341624196249255,-0.0,-0.0,0.0,0.0,0.0,0.0
1565341624248550297,-0.0,-0.0,0.0,0.0,0.0,0.0
1565341624296830974,-0.0,-0.0,0.0,0.0,0.0,0.0
1565341624347021964,-0.0,-0.0,0.0,0.0,0.0,0.0
1565341624454345141,-0.0,0.641937553883,0.0,0.0,0.0,0.0
1565341624558355974,-0.0,0.739596784115,0.0,0.0,0.0,0.0
1565341624608317797,-0.0,0.739596784115,0.0,0.0,0.0,0.0
1565341624722472953,-0.0,0.696196258068,0.0,0.0,0.0,0.0
1565341624772511599,-0.0,0.696196258068,0.0,0.0,0.0,0.0
1565341624822685453,-0.0,0.696196258068,0.0,0.0,0.0,0.0
1565341624950759984,-0.0,0.728738665581,0.0,0.0,0.0,0.0
1565341625070351547,-0.0,0.739596784115,0.0,0.0,0.0,0.0
1565341625186249828,-0.0,0.739596784115,0.0,0.0,0.0,0.0
1565341625306309776,-0.0,-0.0,0.0,0.0,0.0,0.0
1565341625357064099,-0.0,-0.0,0.0,0.0,0.0,0.0
1565341625406769463,-0.0,-0.0,0.0,0.0,0.0,0.0
1565341625457638578,-0.0,-0.0,0.0,0.0,0.0,0.0
1565341625507364151,-0.0,-0.0,0.0,0.0,0.0,0.0
1565341625557533838,-0.0,-0.0,0.0,0.0,0.0,0.0
1565341625607926390,-0.0,-0.0,0.0,0.0,0.0,0.0
1565341625659425453,-0.0,-0.0,0.0,0.0,0.0,0.0
1565341625707234515,-0.0,-0.0,0.0,0.0,0.0,0.0
1565341625757254151,-0.0,-0.0,0.0,0.0,0.0,0.0
1565341625831358838,-0.0,-0.0,0.0,0.0,0.0,0.0
1565341625930803838,-0.0,-0.0,0.0,0.0,0.0,0.0
1565341625951905296,-0.0,-0.0,0.0,0.0,0.0,0.0
1565341625958212484,-0.0,-0.0,0.0,0.0,0.0,0.0
1565341626008512588,-0.0,-0.0,0.0,0.0,0.0,0.0
1565341626059590557,-0.0,-0.0,0.0,0.0,0.0,0.0
1565341626109152953,-0.0,-0.0,0.0,0.0,0.0,0.0
1565341626159476911,-0.0,-0.0,0.0,0.0,0.0,0.0
1565341626209682848,-0.0,-0.0,0.0,0.0,0.0,0.0
1565341626268538109,-0.0,-0.0,0.0,0.0,0.0,0.0
1565341626311405296,-0.0,-0.0,0.0,0.0,0.0,0.0
1565341626359925609,-0.0,-0.0,0.0,0.0,0.0,0.0
1565341626410112067,-0.0,-0.0,0.0,0.0,0.0,0.0
1565341626461448994,-0.0,-0.0,0.0,0.0,0.0,0.0
1565341626510651182,-0.0,-0.0,0.0,0.0,0.0,0.0
1565341626561160817,-0.0,-0.0,0.0,0.0,0.0,0.0
1565341626610973004,-0.0,-0.0,0.0,0.0,0.0,0.0
1565341626661478525,-0.0,-0.0,0.0,0.0,0.0,0.0
1565341626711340869,-0.0,-0.0,0.0,0.0,0.0,0.0
1565341626761499723,-0.0,-0.0,0.0,0.0,0.0,0.0
1565341626818795192,-0.0,-0.0,0.0,0.0,0.0,0.0
1565341626864349150,-0.0,-0.0,0.0,0.0,0.0,0.0
1565341626929612588,-0.0,-0.0,0.0,0.0,0.0,0.0
1565341626962277275,-0.0,-0.0,0.0,0.0,0.0,0.0
1565341627013373317,-0.0,-0.0,0.0,0.0,0.0,0.0
1565341627062497431,-0.0,-0.0,0.0,0.0,0.0,0.0
1565341627112609671,-0.0,-0.0,0.0,0.0,0.0,0.0
1565341627162564358,-0.0,-0.0,0.0,0.0,0.0,0.0
1565341627294013838,0.164435341954,-0.0,0.0,0.0,0.0,0.0
1565341627418863837,0.186119541526,-0.0,0.0,0.0,0.0,0.0
1565341627547022744,0.359753787518,-0.0,0.0,0.0,0.0,0.0
1565341627650593369,0.5008456707,-0.0,0.0,0.0,0.0,0.0
1565341627754248160,0.685338079929,-0.0,0.0,0.0,0.0,0.0
1565341627928252379,0.815571844578,-0.0,0.0,0.0,0.0,0.0
1565341627979796598,0.815571844578,-0.0,0.0,0.0,0.0,0.0
1565341628081820504,0.804713666439,-0.0,0.0,0.0,0.0,0.0
1565341628186069723,0.815571844578,-0.0,0.0,0.0,0.0,0.0
1565341628235911806,0.815571844578,-0.0,0.0,0.0,0.0,0.0
1565341628344657900,1.0,-0.0,0.0,0.0,0.0,0.0
1565341628395803837,1.0,-0.0,0.0,0.0,0.0,0.0
1565341628443188264,1.0,-0.0,0.0,0.0,0.0,0.0
1565341628492950504,1.0,-0.0,0.0,0.0,0.0,0.0
1565341628543411545,1.0,-0.0,0.0,0.0,0.0,0.0
1565341628595295764,1.0,-0.0,0.0,0.0,0.0,0.0
1565341628643775243,1.0,-0.0,0.0,0.0,0.0,0.0
1565341628693788420,1.0,-0.0,0.0,0.0,0.0,0.0
1565341628756953004,1.0,-0.0,0.0,0.0,0.0,0.0
1565341628794255035,1.0,-0.0,0.0,0.0,0.0,0.0
1565341628845337743,1.0,-0.0,0.0,0.0,0.0,0.0
1565341628894316337,1.0,-0.0,0.0,0.0,0.0,0.0
1565341628944789254,1.0,-0.0,0.0,0.0,0.0,0.0
1565341628994992014,1.0,-0.0,0.0,0.0,0.0,0.0
1565341629045303941,1.0,-0.0,0.0,0.0,0.0,0.0
1565341629095329722,1.0,-0.0,0.0,0.0,0.0,0.0
1565341629145417795,1.0,-0.0,0.0,0.0,0.0,0.0
1565341629195935712,1.0,-0.0,0.0,0.0,0.0,0.0
1565341629245633524,1.0,-0.0,0.0,0.0,0.0,0.0
1565341629295923889,1.0,-0.0,0.0,0.0,0.0,0.0
1565341629346691753,1.0,-0.0,0.0,0.0,0.0,0.0
1565341629396478733,1.0,-0.0,0.0,0.0,0.0,0.0
1565341629446967743,1.0,-0.0,0.0,0.0,0.0,0.0
1565341629578472743,0.0667439773679,-0.142686888576,0.0,0.0,0.0,0.0
1565341629683402274,-0.0,-0.0,0.0,0.0,0.0,0.0
1565341629731993264,-0.0,-0.0,0.0,0.0,0.0,0.0
1565341629782880139,-0.0,-0.0,0.0,0.0,0.0,0.0
1565341629841690764,-0.0,-0.0,0.0,0.0,0.0,0.0
1565341629883047587,-0.0,-0.0,0.0,0.0,0.0,0.0
1565341629932788576,-0.0,-0.0,0.0,0.0,0.0,0.0
1565341629985429774,-0.0,-0.0,0.0,0.0,0.0,0.0
1565341630033792482,-0.0,-0.0,0.0,0.0,0.0,0.0
1565341630083814201,-0.0,-0.0,0.0,0.0,0.0,0.0
1565341630134398784,-0.0,-0.0,0.0,0.0,0.0,0.0
1565341630184284409,-0.0,-0.0,0.0,0.0,0.0,0.0
1565341630235176753,-0.0,-0.0,0.0,0.0,0.0,0.0
1565341630284638888,-0.0,-0.0,0.0,0.0,0.0,0.0
1565341630334347951,-0.0,-0.0,0.0,0.0,0.0,0.0
1565341630384728420,-0.0,-0.0,0.0,0.0,0.0,0.0
1565341630435458472,-0.0,-0.0,0.0,0.0,0.0,0.0
1565341630485444357,-0.0,-0.0,0.0,0.0,0.0,0.0
1565341630535388888,-0.0,-0.0,0.0,0.0,0.0,0.0
1565341630586006857,-0.0,-0.0,0.0,0.0,0.0,0.0
1565341630635848992,-0.0,-0.0,0.0,0.0,0.0,0.0
1565341630686064670,-0.0,-0.0,0.0,0.0,0.0,0.0
1565341630736361388,-0.0,-0.0,0.0,0.0,0.0,0.0
1565341630786803940,-0.0,-0.0,0.0,0.0,0.0,0.0
1565341630836843836,-0.0,-0.0,0.0,0.0,0.0,0.0
1565341630886828784,-0.0,-0.0,0.0,0.0,0.0,0.0
1565341630937045294,-0.0,-0.0,0.0,0.0,0.0,0.0
1565341630987104149,-0.0,-0.0,0.0,0.0,0.0,0.0
1565341631122180503,0.24037823081,-0.0,0.0,0.0,0.0,0.0
1565341631229822117,0.316353261471,-0.0,0.0,0.0,0.0,0.0
1565341631335477273,0.511703848839,-0.0,0.0,0.0,0.0,0.0
1565341631450980451,0.826397895813,-0.0,0.0,0.0,0.0,0.0
1565341631557765190,0.880688667297,-0.0,0.0,0.0,0.0,0.0
1565341631661676023,0.891514718533,-0.0,0.0,0.0,0.0,0.0
1565341631773877430,0.989206075668,-0.0,0.0,0.0,0.0,0.0
1565341631925557898,1.0,-0.0,0.0,0.0,0.0,0.0
1565341631967264461,1.0,-0.0,0.0,0.0,0.0,0.0
1565341631995161127,1.0,-0.0,0.0,0.0,0.0,0.0
1565341632033701388,1.0,-0.0,0.0,0.0,0.0,0.0
1565341632083353732,1.0,-0.0,0.0,0.0,0.0,0.0
1565341632133469617,1.0,-0.0,0.0,0.0,0.0,0.0
1565341632184193054,1.0,-0.0,0.0,0.0,0.0,0.0
1565341632233870502,1.0,-0.0,0.0,0.0,0.0,0.0
1565341632284212117,1.0,-0.0,0.0,0.0,0.0,0.0
1565341632334217690,1.0,-0.0,0.0,0.0,0.0,0.0
1565341632384688783,1.0,-0.0,0.0,0.0,0.0,0.0
1565341632434898002,1.0,-0.0,0.0,0.0,0.0,0.0
1565341632484765033,1.0,-0.0,0.0,0.0,0.0,0.0
1565341632534609461,1.0,-0.0,0.0,0.0,0.0,0.0
1565341632584670606,1.0,-0.0,0.0,0.0,0.0,0.0
1565341632635397846,1.0,-0.0,0.0,0.0,0.0,0.0
1565341632685460971,1.0,-0.0,0.0,0.0,0.0,0.0
1565341632735119513,1.0,-0.0,0.0,0.0,0.0,0.0
1565341632785726179,1.0,-0.0,0.0,0.0,0.0,0.0
1565341632835589408,1.0,-0.0,0.0,0.0,0.0,0.0
1565341632886024512,1.0,-0.0,0.0,0.0,0.0,0.0
1565341632994920971,1.0,-0.0,0.0,0.0,0.0,0.0
1565341633106010814,-0.0,-0.0,0.0,0.0,0.0,0.0
1565341633159792064,-0.0,-0.0,0.0,0.0,0.0,0.0
1565341633207080919,-0.0,-0.0,0.0,0.0,0.0,0.0
1565341633266272325,-0.0,-0.0,0.0,0.0,0.0,0.0
1565341633307162794,-0.0,-0.0,0.0,0.0,0.0,0.0
1565341633357329044,-0.0,-0.0,0.0,0.0,0.0,0.0
1565341633407280606,-0.0,-0.0,0.0,0.0,0.0,0.0
1565341633458540658,-0.0,-0.0,0.0,0.0,0.0,0.0
1565341633508084668,-0.0,-0.0,0.0,0.0,0.0,0.0
1565341633558443471,-0.0,-0.0,0.0,0.0,0.0,0.0
1565341633608563731,-0.0,-0.0,0.0,0.0,0.0,0.0
1565341633659600762,-0.0,-0.0,0.0,0.0,0.0,0.0
1565341633708756179,-0.0,-0.0,0.0,0.0,0.0,0.0
1565341633759227429,-0.0,-0.0,0.0,0.0,0.0,0.0
1565341633811513835,-0.0,-0.0,0.0,0.0,0.0,0.0
1565341633859238783,-0.0,-0.0,0.0,0.0,0.0,0.0
1565341633913046387,-0.0,-0.0,0.0,0.0,0.0,0.0
1565341633959617012,-0.0,-0.0,0.0,0.0,0.0,0.0
1565341634009694512,-0.0,-0.0,0.0,0.0,0.0,0.0
1565341634060852116,-0.0,-0.0,0.0,0.0,0.0,0.0
1565341634110002897,-0.0,-0.0,0.0,0.0,0.0,0.0
1565341634160517741,-0.0,-0.0,0.0,0.0,0.0,0.0
1565341634210661491,-0.0,-0.0,0.0,0.0,0.0,0.0
1565341634261070762,-0.0,-0.0,0.0,0.0,0.0,0.0
1565341634311050449,-0.0,-0.0,0.0,0.0,0.0,0.0
1565341634415253626,0.077602148056,-0.0,0.0,0.0,0.0,0.0
1565341634518721335,0.392328292131,-0.0,0.0,0.0,0.0,0.0
1565341634626226647,0.511703848839,-0.0,0.0,0.0,0.0,0.0
1565341634761919616,0.62022125721,-0.0,0.0,0.0,0.0,0.0
1565341634878550345,0.674479961395,-0.0,0.0,0.0,0.0,0.0
1565341634982214355,0.804713666439,-0.0,0.0,0.0,0.0,0.0
1565341635127921439,0.924089252949,-0.0,0.0,0.0,0.0,0.0
1565341635176513887,0.924089252949,-0.0,0.0,0.0,0.0,0.0
1565341635294243262,0.934947371483,-0.0,0.0,0.0,0.0,0.0
1565341635344761178,0.934947371483,-0.0,0.0,0.0,0.0,0.0
1565341635394660241,0.934947371483,-0.0,0.0,0.0,0.0,0.0
1565341635527705136,1.0,-0.0,0.0,0.0,0.0,0.0
1565341635576582428,1.0,-0.0,0.0,0.0,0.0,0.0
1565341635627397845,1.0,-0.0,0.0,0.0,0.0,0.0
1565341635740093678,-0.0,-0.0,0.0,0.0,0.0,0.0
1565341635791051386,-0.0,-0.0,0.0,0.0,0.0,0.0
1565341635839248782,-0.0,-0.0,0.0,0.0,0.0,0.0
1565341635915204459,-0.0,-0.0,0.0,0.0,0.0,0.0
1565341635947183990,-0.0,-0.0,0.0,0.0,0.0,0.0
1565341635989471647,-0.0,-0.0,0.0,0.0,0.0,0.0
1565341636039381334,-0.0,-0.0,0.0,0.0,0.0,0.0
1565341636089880397,-0.0,-0.0,0.0,0.0,0.0,0.0
1565341636139911438,-0.0,-0.0,0.0,0.0,0.0,0.0
1565341636189787220,-0.0,-0.0,0.0,0.0,0.0,0.0
1565341636239841074,-0.0,-0.0,0.0,0.0,0.0,0.0
1565341636290619147,-0.0,-0.0,0.0,0.0,0.0,0.0
1565341636340538990,-0.0,-0.0,0.0,0.0,0.0,0.0
1565341636391314251,-0.0,-0.0,0.0,0.0,0.0,0.0
1565341636514674615,-0.0,-0.0,0.0,0.0,0.0,-0.136476367712
1565341636622434719,-0.0,-0.0,0.0,0.0,0.0,-0.152747556567
1565341636672731021,-0.0,-0.0,0.0,0.0,0.0,-0.152747556567
1565341636819916855,-0.0,-0.0,0.0,0.0,0.0,-0.223293498158
1565341636922082376,-0.0,-0.0,0.0,0.0,0.0,-0.234151661396
1565341637063231959,-0.0,-0.0,0.0,0.0,0.0,0.0
1565341637114776438,-0.0,-0.0,0.0,0.0,0.0,0.0
1565341637162684823,-0.0,-0.0,0.0,0.0,0.0,0.0
1565341637213424198,-0.0,-0.0,0.0,0.0,0.0,0.0
1565341637263816021,-0.0,-0.0,0.0,0.0,0.0,0.0
1565341637313163782,-0.0,-0.0,0.0,0.0,0.0,0.0
1565341637365416177,-0.0,-0.0,0.0,0.0,0.0,0.0
1565341637413702323,-0.0,-0.0,0.0,0.0,0.0,0.0
1565341637463934198,-0.0,-0.0,0.0,0.0,0.0,0.0
1565341637514125813,-0.0,-0.0,0.0,0.0,0.0,0.0
1565341637565092584,-0.0,-0.0,0.0,0.0,0.0,0.0
1565341637614390709,-0.0,-0.0,0.0,0.0,0.0,0.0
1565341637666252531,-0.0,-0.0,0.0,0.0,0.0,0.0
1565341637714843000,-0.0,-0.0,0.0,0.0,0.0,0.0
1565341637765808469,-0.0,-0.0,0.0,0.0,0.0,0.0
1565341637818641021,-0.0,-0.0,0.0,0.0,0.0,0.0
1565341637893105396,-0.0,-0.0,0.0,0.0,0.0,0.0
1565341637953231438,-0.0,-0.0,0.0,0.0,0.0,0.0
1565341637966056386,-0.0,-0.0,0.0,0.0,0.0,0.0
1565341638031403104,-0.0,-0.0,0.0,0.0,0.0,0.0
1565341638066449615,-0.0,-0.0,0.0,0.0,0.0,0.0
1565341638116552844,-0.0,-0.0,0.0,0.0,0.0,0.0
1565341638166358729,-0.0,-0.0,0.0,0.0,0.0,0.0
1565341638216741438,-0.0,-0.0,0.0,0.0,0.0,0.0
1565341638266659771,-0.0,-0.0,0.0,0.0,0.0,0.0
1565341638317461333,-0.0,-0.0,0.0,0.0,0.0,0.0
1565341638367141281,-0.0,-0.0,0.0,0.0,0.0,0.0
1565341638417808417,-0.0,-0.0,0.0,0.0,0.0,0.0
1565341638467501489,-0.0,-0.0,0.0,0.0,0.0,0.0
1565341638518882948,-0.0,-0.0,0.0,0.0,0.0,0.0
1565341638567935448,-0.0,-0.0,0.0,0.0,0.0,0.0
1565341638618220448,-0.0,-0.0,0.0,0.0,0.0,0.0
1565341638668348573,-0.0,-0.0,0.0,0.0,0.0,0.0
1565341638718880604,-0.0,-0.0,0.0,0.0,0.0,0.0
1565341638768786281,-0.0,-0.0,0.0,0.0,0.0,0.0
1565341638818925864,-0.0,-0.0,0.0,0.0,0.0,0.0
1565341638869070552,-0.0,-0.0,0.0,0.0,0.0,0.0
1565341638919359510,-0.0,-0.0,0.0,0.0,0.0,0.0
1565341638992172062,-0.0,-0.0,0.0,0.0,0.0,0.0
1565341639019592114,-0.0,-0.0,0.0,0.0,0.0,0.0
1565341639069345396,-0.0,-0.0,0.0,0.0,0.0,0.0
1565341639119549875,-0.0,-0.0,0.0,0.0,0.0,0.0
1565341639169736750,-0.0,-0.0,0.0,0.0,0.0,0.0
1565341639220019041,-0.0,-0.0,0.0,0.0,0.0,0.0
1565341639272389198,-0.0,-0.0,0.0,0.0,0.0,0.0
1565341639321269927,-0.0,-0.0,0.0,0.0,0.0,0.0
1565341639372398729,-0.0,-0.0,0.0,0.0,0.0,0.0
1565341639423247218,-0.0,-0.0,0.0,0.0,0.0,0.0
1565341639522863208,-0.19694557786,-0.0,0.0,0.0,0.0,0.0
1565341639627790708,-0.576788604259,-0.0,0.0,0.0,0.0,0.0
1565341639735101177,-0.739564657211,-0.0,0.0,0.0,0.0,0.0
1565341639866831906,-0.739564657211,-0.0,0.0,0.0,0.0,0.0
1565341639904103572,-0.739564657211,-0.0,0.0,0.0,0.0,0.0
1565341639954357791,-0.739564657211,-0.0,0.0,0.0,0.0,0.0
1565341640004851489,-0.739564657211,-0.0,0.0,0.0,0.0,0.0
1565341640055850447,-0.739564657211,-0.0,0.0,0.0,0.0,0.0
1565341640178444197,-0.75042283535,-0.0,0.0,0.0,0.0,0.0
1565341640228767635,-0.75042283535,-0.0,0.0,0.0,0.0,0.0
1565341640279174405,-0.75042283535,-0.0,0.0,0.0,0.0,0.0
1565341640400195187,-0.75042283535,-0.0,0.0,0.0,0.0,0.0
1565341640448900603,-0.75042283535,-0.0,0.0,0.0,0.0,0.0
1565341640578896905,-0.761281013489,-0.0,0.0,0.0,0.0,0.0
1565341640686842582,-0.761281013489,-0.0,0.0,0.0,0.0,0.0
1565341640736515187,-0.761281013489,-0.0,0.0,0.0,0.0,0.0
1565341640870427009,-0.761281013489,-0.0,0.0,0.0,0.0,0.0
1565341640920880916,-0.761281013489,-0.0,0.0,0.0,0.0,0.0
1565341640971044770,-0.761281013489,-0.0,0.0,0.0,0.0,0.0
1565341641020974197,-0.761281013489,-0.0,0.0,0.0,0.0,0.0
1565341641071162530,-0.761281013489,-0.0,0.0,0.0,0.0,0.0
1565341641121980863,-0.761281013489,-0.0,0.0,0.0,0.0,0.0
1565341641171526853,-0.761281013489,-0.0,0.0,0.0,0.0,0.0
1565341641230946697,-0.761281013489,-0.0,0.0,0.0,0.0,0.0
1565341641272210707,-0.761281013489,-0.0,0.0,0.0,0.0,0.0
1565341641322321124,-0.761281013489,-0.0,0.0,0.0,0.0,0.0
1565341641372739561,-0.761281013489,-0.0,0.0,0.0,0.0,0.0
1565341641422768624,-0.761281013489,-0.0,0.0,0.0,0.0,0.0
1565341641472810551,-0.761281013489,-0.0,0.0,0.0,0.0,0.0
1565341641522791072,-0.761281013489,-0.0,0.0,0.0,0.0,0.0
1565341641573257582,-0.761281013489,-0.0,0.0,0.0,0.0,0.0
1565341641623594613,-0.761281013489,-0.0,0.0,0.0,0.0,0.0
1565341641674923259,-0.761281013489,-0.0,0.0,0.0,0.0,0.0
1565341641783043936,-0.772107064724,-0.0,0.0,0.0,0.0,0.0
1565341641910190603,-0.782965183258,-0.0,0.0,0.0,0.0,0.0
1565341642025081696,-0.837223887444,-0.0,0.0,0.0,0.0,0.0
1565341642130857374,-0.891482591629,-0.0,0.0,0.0,0.0,0.0
1565341642258089196,-0.913198947906,-0.0,0.0,0.0,0.0,0.0
1565341642376333571,-0.924057126045,-0.0,0.0,0.0,0.0,0.0
1565341642482386592,-0.934915244579,-0.0,0.0,0.0,0.0,0.0
1565341642533327425,-0.934915244579,-0.0,0.0,0.0,0.0,0.0
1565341642655174196,-0.945741295815,-0.0,0.0,0.0,0.0,0.0
1565341642704492946,-0.945741295815,-0.0,0.0,0.0,0.0,0.0
1565341642754894196,-0.945741295815,-0.0,0.0,0.0,0.0,0.0
1565341642804706905,-0.945741295815,-0.0,0.0,0.0,0.0,0.0
1565341642855320707,-0.945741295815,-0.0,0.0,0.0,0.0,0.0
1565341642905333884,-0.945741295815,-0.0,0.0,0.0,0.0,0.0
1565341642955771071,-0.945741295815,-0.0,0.0,0.0,0.0,0.0
1565341643006217321,-0.945741295815,-0.0,0.0,0.0,0.0,0.0
1565341643056940550,-0.945741295815,-0.0,0.0,0.0,0.0,0.0
1565341643107649040,-0.945741295815,-0.0,0.0,0.0,0.0,0.0
1565341643158926696,-0.945741295815,-0.0,0.0,0.0,0.0,0.0
1565341643295351592,-0.956599473953,-0.0,0.0,0.0,0.0,0.0
1565341643438247738,-0.967457652092,-0.0,0.0,0.0,0.0,0.0
1565341643542177790,-1.0,-0.0,0.0,0.0,0.0,0.0
1565341643593359404,-1.0,-0.0,0.0,0.0,0.0,0.0
1565341643642765810,-1.0,-0.0,0.0,0.0,0.0,0.0
1565341643692629560,-1.0,-0.0,0.0,0.0,0.0,0.0
1565341643742860237,-1.0,-0.0,0.0,0.0,0.0,0.0
1565341643796987060,-1.0,-0.0,0.0,0.0,0.0,0.0
1565341643884546956,-1.0,-0.0,0.0,0.0,0.0,0.0
1565341643903601904,-1.0,-0.0,0.0,0.0,0.0,0.0
1565341643943366852,-1.0,-0.0,0.0,0.0,0.0,0.0
1565341643994944248,-1.0,-0.0,0.0,0.0,0.0,0.0
1565341644043881748,-1.0,-0.0,0.0,0.0,0.0,0.0
1565341644117901279,-1.0,-0.0,0.0,0.0,0.0,0.0
1565341644144471071,-1.0,-0.0,0.0,0.0,0.0,0.0
1565341644262339196,-0.0,-0.0,0.0,0.0,0.0,0.0
1565341644312517269,-0.0,-0.0,0.0,0.0,0.0,0.0
1565341644362726800,-0.0,-0.0,0.0,0.0,0.0,0.0
1565341644413024196,-0.0,-0.0,0.0,0.0,0.0,0.0
1565341644463581123,-0.0,-0.0,0.0,0.0,0.0,0.0
1565341644513319560,-0.0,-0.0,0.0,0.0,0.0,0.0
1565341644563329612,-0.0,-0.0,0.0,0.0,0.0,0.0
1565341644613607685,-0.0,-0.0,0.0,0.0,0.0,0.0
1565341644664462112,-0.0,-0.0,0.0,0.0,0.0,0.0
1565341644713981956,-0.0,-0.0,0.0,0.0,0.0,0.0
1565341644763857112,-0.0,-0.0,0.0,0.0,0.0,0.0
1565341644814712320,-0.0,-0.0,0.0,0.0,0.0,0.0
1565341644864908987,-0.0,-0.0,0.0,0.0,0.0,0.0
1565341644914775497,-0.0,-0.0,0.0,0.0,0.0,0.0
1565341644964905497,-0.0,-0.0,0.0,0.0,0.0,0.0
1565341645015966279,-0.0,-0.0,0.0,0.0,0.0,0.0
1565341645066244404,-0.0,-0.0,0.0,0.0,0.0,0.0
1565341645115719612,-0.0,-0.0,0.0,0.0,0.0,0.0
1565341645165758362,-0.0,-0.0,0.0,0.0,0.0,0.0
1565341645215454820,-0.0,-0.0,0.0,0.0,0.0,0.0
1565341645266352529,-0.0,-0.0,0.0,0.0,0.0,0.0
1565341645316362320,-0.0,-0.0,0.0,0.0,0.0,0.0
1565341645366595966,-0.0,-0.0,0.0,0.0,0.0,0.0
1565341645416741799,-0.0,-0.0,0.0,0.0,0.0,0.0
1565341645466636174,-0.0,-0.0,0.0,0.0,0.0,0.0
1565341645517013987,-0.0,-0.0,0.0,0.0,0.0,0.0
1565341645567096070,-0.0,-0.0,0.0,0.0,0.0,0.0
1565341645618301747,-0.0,-0.0,0.0,0.0,0.0,0.0
1565341645667942841,-0.0,-0.0,0.0,0.0,0.0,0.0
1565341645717991851,-0.0,-0.0,0.0,0.0,0.0,0.0
1565341645767833466,-0.0,-0.0,0.0,0.0,0.0,0.0
1565341645950693570,-0.229520067573,-0.0,0.0,0.0,0.0,0.0
1565341646017984195,-0.370579838753,-0.0,0.0,0.0,0.0,0.0
1565341646126980080,-0.533355951309,-0.0,0.0,0.0,0.0,0.0
1565341646230762112,-0.717848360538,-0.0,0.0,0.0,0.0,0.0
1565341646346540341,-0.739564657211,-0.0,0.0,0.0,0.0,0.0
1565341646396479299,-0.739564657211,-0.0,0.0,0.0,0.0,0.0
1565341646446704872,-0.739564657211,-0.0,0.0,0.0,0.0,0.0
1565341646575249299,-0.761281013489,-0.0,0.0,0.0,0.0,0.0
1565341646678935809,-0.761281013489,-0.0,0.0,0.0,0.0,0.0
1565341646817331538,-0.891482591629,-0.0,0.0,0.0,0.0,0.0
1565341646916437632,-0.989173948765,-0.0,0.0,0.0,0.0,0.0
1565341646956546330,-0.989173948765,-0.0,0.0,0.0,0.0,0.0
1565341647007148153,-0.989173948765,-0.0,0.0,0.0,0.0,0.0
1565341647057393674,-0.989173948765,-0.0,0.0,0.0,0.0,0.0
1565341647107778465,-0.989173948765,-0.0,0.0,0.0,0.0,0.0
1565341647157745549,-0.989173948765,-0.0,0.0,0.0,0.0,0.0
1565341647207738101,-0.989173948765,-0.0,0.0,0.0,0.0,0.0
1565341647258620392,-0.989173948765,-0.0,0.0,0.0,0.0,0.0
1565341647308374090,-0.989173948765,-0.0,0.0,0.0,0.0,0.0
1565341647358143361,-0.989173948765,-0.0,0.0,0.0,0.0,0.0
1565341647408713153,-0.989173948765,-0.0,0.0,0.0,0.0,0.0
1565341647459360549,-0.989173948765,-0.0,0.0,0.0,0.0,0.0
1565341647509286174,-0.989173948765,-0.0,0.0,0.0,0.0,0.0
1565341647631086434,-0.0,-0.0,0.0,0.0,0.0,0.0
1565341647681399351,-0.0,-0.0,0.0,0.0,0.0,0.0
1565341647731619871,-0.0,-0.0,0.0,0.0,0.0,0.0
1565341647781281434,-0.0,-0.0,0.0,0.0,0.0,0.0
1565341647837977423,-0.0,-0.0,0.0,0.0,0.0,0.0
1565341647899716121,-0.0,-0.0,0.0,0.0,0.0,0.0
1565341647965537996,-0.0,-0.0,0.0,0.0,0.0,0.0
1565341647981619611,-0.0,-0.0,0.0,0.0,0.0,0.0
1565341648032515809,-0.0,-0.0,0.0,0.0,0.0,0.0
1565341648082358725,-0.0,-0.0,0.0,0.0,0.0,0.0
1565341648133329507,-0.0,-0.0,0.0,0.0,0.0,0.0
1565341648183126225,-0.0,-0.0,0.0,0.0,0.0,0.0
1565341648233574871,-0.0,-0.0,0.0,0.0,0.0,0.0
1565341648283838100,-0.0,-0.0,0.0,0.0,0.0,0.0
1565341648349147059,-0.0,-0.0,0.0,0.0,0.0,0.0
1565341648384133725,-0.0,-0.0,0.0,0.0,0.0,0.0
1565341648433928413,-0.0,-0.0,0.0,0.0,0.0,0.0
1565341648483865652,-0.0,-0.0,0.0,0.0,0.0,0.0
1565341648535175861,-0.0,-0.0,0.0,0.0,0.0,0.0
1565341648584629402,-0.0,-0.0,0.0,0.0,0.0,0.0
1565341648634165236,-0.0,-0.0,0.0,0.0,0.0,0.0
1565341648684412788,-0.0,-0.0,0.0,0.0,0.0,0.0
1565341648735876381,-0.0,-0.0,0.0,0.0,0.0,0.0
1565341648787367683,-0.0,-0.0,0.0,0.0,0.0,0.0
1565341648931846798,-0.0,0.24037823081,0.0,0.0,0.0,0.0
1565341649035537788,-0.0,0.272952735424,0.0,0.0,0.0,0.0
1565341649138497163,-0.0,0.522562026978,0.0,0.0,0.0,0.0
1565341649242687579,-0.0,0.728738665581,0.0,0.0,0.0,0.0
1565341649362449819,-0.0,0.739596784115,0.0,0.0,0.0,0.0
1565341649412617006,-0.0,0.739596784115,0.0,0.0,0.0,0.0
1565341649463090756,-0.0,0.739596784115,0.0,0.0,0.0,0.0
1565341649513369246,-0.0,0.739596784115,0.0,0.0,0.0,0.0
1565341649563247892,-0.0,0.739596784115,0.0,0.0,0.0,0.0
1565341649687385339,-0.0,0.728738665581,0.0,0.0,0.0,0.0
1565341649737217996,-0.0,0.728738665581,0.0,0.0,0.0,0.0
1565341649856864246,-0.0,0.804713666439,0.0,0.0,0.0,0.0
1565341649946229141,-0.0,1.0,0.0,0.0,0.0,0.0
1565341649997047318,-0.0,1.0,0.0,0.0,0.0,0.0
1565341650047200443,-0.0,1.0,0.0,0.0,0.0,0.0
1565341650097037006,-0.0,1.0,0.0,0.0,0.0,0.0
1565341650147397735,-0.0,1.0,0.0,0.0,0.0,0.0
1565341650197850756,-0.0,1.0,0.0,0.0,0.0,0.0
1565341650247700600,-0.0,1.0,0.0,0.0,0.0,0.0
1565341650298854818,-0.0,1.0,0.0,0.0,0.0,0.0
1565341650418761850,-0.0,-0.0,0.0,0.0,0.0,0.0
1565341650468748152,-0.0,-0.0,0.0,0.0,0.0,0.0
1565341650520249818,-0.0,-0.0,0.0,0.0,0.0,0.0
1565341650569265183,-0.0,-0.0,0.0,0.0,0.0,0.0
1565341650619363985,-0.0,-0.0,0.0,0.0,0.0,0.0
1565341650669868152,-0.0,-0.0,0.0,0.0,0.0,0.0
1565341650720291693,-0.0,-0.0,0.0,0.0,0.0,0.0
1565341650771251433,-0.0,-0.0,0.0,0.0,0.0,0.0
1565341650820733256,-0.0,-0.0,0.0,0.0,0.0,0.0
1565341650873073776,-0.0,-0.0,0.0,0.0,0.0,0.0
1565341650921558256,-0.0,-0.0,0.0,0.0,0.0,0.0
1565341650971424922,-0.0,-0.0,0.0,0.0,0.0,0.0
1565341651028561276,-0.0,-0.0,0.0,0.0,0.0,0.0
1565341651071532474,-0.0,-0.0,0.0,0.0,0.0,0.0
1565341651121346068,-0.0,-0.0,0.0,0.0,0.0,0.0
1565341651171624974,-0.0,-0.0,0.0,0.0,0.0,0.0
1565341651221742839,-0.0,-0.0,0.0,0.0,0.0,0.0
1565341651271680599,-0.0,-0.0,0.0,0.0,0.0,0.0
1565341651322917526,-0.0,-0.0,0.0,0.0,0.0,0.0
1565341651372379714,-0.0,-0.0,0.0,0.0,0.0,0.0
1565341651422722891,-0.0,-0.0,0.0,0.0,0.0,0.0
1565341651472830964,-0.0,-0.0,0.0,0.0,0.0,0.0
1565341651523056953,-0.0,-0.0,0.0,0.0,0.0,0.0
1565341651573410547,-0.0,-0.0,0.0,0.0,0.0,0.0
1565341651623378516,-0.0,-0.0,0.0,0.0,0.0,0.0
1565341651736078880,-0.0,-0.0,0.0,0.0,0.0,0.13646030426
1565341651797678255,-0.0,-0.0,0.0,0.0,0.0,0.13646030426
1565341651844990807,-0.0,-0.0,0.0,0.0,0.0,0.13646030426
1565341651963448880,-0.0,-0.0,0.0,0.0,0.0,0.391482591629
1565341652066881224,-0.0,-0.0,0.0,0.0,0.0,0.413182884455
1565341652195753672,-0.0,-0.0,0.0,0.0,0.0,0.0
1565341652245923047,-0.0,-0.0,0.0,0.0,0.0,0.0
1565341652295063099,-0.0,-0.0,0.0,0.0,0.0,0.0
1565341652346056640,-0.0,-0.0,0.0,0.0,0.0,0.0
1565341652403544505,-0.0,-0.0,0.0,0.0,0.0,0.0
1565341652446110338,-0.0,-0.0,0.0,0.0,0.0,0.0
1565341652496036536,-0.0,-0.0,0.0,0.0,0.0,0.0
1565341652546538880,-0.0,-0.0,0.0,0.0,0.0,0.0
1565341652596667213,-0.0,-0.0,0.0,0.0,0.0,0.0
1565341652646699401,-0.0,-0.0,0.0,0.0,0.0,0.0
1565341652697137422,-0.0,-0.0,0.0,0.0,0.0,0.0
1565341652747199453,-0.0,-0.0,0.0,0.0,0.0,0.0
1565341652797069088,-0.0,-0.0,0.0,0.0,0.0,0.0
1565341652847264974,-0.0,-0.0,0.0,0.0,0.0,0.0
1565341652897402838,-0.0,-0.0,0.0,0.0,0.0,0.0
1565341652948056276,-0.0,-0.0,0.0,0.0,0.0,0.0
1565341652998361901,-0.0,-0.0,0.0,0.0,0.0,0.0
1565341653103540911,0.663621783257,-0.0,0.0,0.0,0.0,0.0
1565341653210548359,0.7938554883,-0.0,0.0,0.0,0.0,0.0
1565341653310942786,0.7938554883,-0.0,0.0,0.0,0.0,0.0
1565341653361313411,0.7938554883,-0.0,0.0,0.0,0.0,0.0
1565341653495094869,0.804713666439,-0.0,0.0,0.0,0.0,0.0
1565341653640148098,0.511703848839,-0.0,0.0,0.0,0.0,0.0
1565341653743826536,0.229552194476,-0.0,0.0,0.0,0.0,0.0
1565341653887593046,0.370611965656,-0.0,0.0,0.0,0.0,0.0
1565341653947167161,0.370611965656,-0.0,0.0,0.0,0.0,0.0
1565341654066805754,0.598504900932,-0.0,0.0,0.0,0.0,0.0
1565341654215738619,0.609363079071,-0.0,0.0,0.0,0.0,0.0
1565341654323250806,0.609363079071,-0.0,0.0,0.0,0.0,0.0
1565341654462548046,0.609363079071,-0.0,0.0,0.0,0.0,0.0
1565341654512776015,0.609363079071,-0.0,0.0,0.0,0.0,0.0
1565341654620242108,0.826397895813,-0.0,0.0,0.0,0.0,0.0
1565341654734834140,0.945773422718,-0.0,0.0,0.0,0.0,0.0
1565341654785570337,0.945773422718,-0.0,0.0,0.0,0.0,0.0
1565341654835161327,0.945773422718,-0.0,0.0,0.0,0.0,0.0
1565341654885388254,0.945773422718,-0.0,0.0,0.0,0.0,0.0
1565341654936118931,0.945773422718,-0.0,0.0,0.0,0.0,0.0
1565341654985680494,0.945773422718,-0.0,0.0,0.0,0.0,0.0
1565341655036083202,0.945773422718,-0.0,0.0,0.0,0.0,0.0
1565341655085949660,0.945773422718,-0.0,0.0,0.0,0.0,0.0
1565341655135868566,0.945773422718,-0.0,0.0,0.0,0.0,0.0
1565341655186210337,0.945773422718,-0.0,0.0,0.0,0.0,0.0
1565341655237116119,0.945773422718,-0.0,0.0,0.0,0.0,0.0
1565341655287240077,0.945773422718,-0.0,0.0,0.0,0.0,0.0
1565341655337123150,0.945773422718,-0.0,0.0,0.0,0.0,0.0
1565341655388709921,0.945773422718,-0.0,0.0,0.0,0.0,0.0
1565341655439627681,0.945773422718,-0.0,0.0,0.0,0.0,0.0
1565341655489579035,0.945773422718,-0.0,0.0,0.0,0.0,0.0
1565341655537577368,0.945773422718,-0.0,0.0,0.0,0.0,0.0
1565341655587725650,0.945773422718,-0.0,0.0,0.0,0.0,0.0
1565341655638042993,0.945773422718,-0.0,0.0,0.0,0.0,0.0
1565341655688141066,0.945773422718,-0.0,0.0,0.0,0.0,0.0
1565341655738085389,0.945773422718,-0.0,0.0,0.0,0.0,0.0
1565341655792236327,0.945773422718,-0.0,0.0,0.0,0.0,0.0
1565341655852646014,0.945773422718,-0.0,0.0,0.0,0.0,0.0
1565341655895455233,0.945773422718,-0.0,0.0,0.0,0.0,0.0
1565341655974324660,0.945773422718,-0.0,0.0,0.0,0.0,0.0
1565341655999443514,0.945773422718,-0.0,0.0,0.0,0.0,0.0
1565341656039854452,0.945773422718,-0.0,0.0,0.0,0.0,0.0
1565341656147161431,0.956631600857,-0.0,0.0,0.0,0.0,0.0
1565341656257315545,0.956631600857,-0.0,0.0,0.0,0.0,0.0
1565341656363070129,0.956631600857,-0.0,0.0,0.0,0.0,0.0
1565341656412837160,0.956631600857,-0.0,0.0,0.0,0.0,0.0
1565341656464088878,0.956631600857,-0.0,0.0,0.0,0.0,0.0
1565341656514211795,0.956631600857,-0.0,0.0,0.0,0.0,0.0
1565341656565149451,0.956631600857,-0.0,0.0,0.0,0.0,0.0
1565341656616488774,0.956631600857,-0.0,0.0,0.0,0.0,0.0
1565341656667089243,0.956631600857,-0.0,0.0,0.0,0.0,0.0
1565341656714234555,0.956631600857,-0.0,0.0,0.0,0.0,0.0
1565341656764045753,0.956631600857,-0.0,0.0,0.0,0.0,0.0
1565341656824310232,0.956631600857,-0.0,0.0,0.0,0.0,0.0
1565341656890574816,0.956631600857,-0.0,0.0,0.0,0.0,0.0
1565341656928062055,0.956631600857,-0.0,0.0,0.0,0.0,0.0
1565341656965102941,0.956631600857,-0.0,0.0,0.0,0.0,0.0
1565341657015994035,0.956631600857,-0.0,0.0,0.0,0.0,0.0
1565341657066567784,0.956631600857,-0.0,0.0,0.0,0.0,0.0
1565341657116417837,0.956631600857,-0.0,0.0,0.0,0.0,0.0
1565341657166159816,0.956631600857,-0.0,0.0,0.0,0.0,0.0
1565341657216019816,0.956631600857,-0.0,0.0,0.0,0.0,0.0
1565341657266392264,0.956631600857,-0.0,0.0,0.0,0.0,0.0
1565341657316509347,0.956631600857,-0.0,0.0,0.0,0.0,0.0
1565341657366384816,0.956631600857,-0.0,0.0,0.0,0.0,0.0
1565341657416415336,0.956631600857,-0.0,0.0,0.0,0.0,0.0
1565341657538266430,0.956631600857,-0.0,0.0,0.0,0.0,0.0
1565341657687537263,0.956631600857,-0.0,0.0,0.0,0.0,0.0
1565341657825483045,0.967489778996,-0.0,0.0,0.0,0.0,0.0
1565341657911228357,0.967489778996,-0.0,0.0,0.0,0.0,0.0
1565341657937799451,0.967489778996,-0.0,0.0,0.0,0.0,0.0
1565341658051456065,1.0,-0.0,0.0,0.0,0.0,0.0
1565341658100837940,1.0,-0.0,0.0,0.0,0.0,0.0
1565341658151047628,1.0,-0.0,0.0,0.0,0.0,0.0
1565341658202058565,1.0,-0.0,0.0,0.0,0.0,0.0
1565341658253202472,1.0,-0.0,0.0,0.0,0.0,0.0
1565341658363555596,0.077602148056,-0.0,0.0,0.0,0.0,0.0
1565341658466477992,-0.0,-0.0,0.0,0.0,0.0,0.0
1565341658516624815,-0.0,-0.0,0.0,0.0,0.0,0.0
1565341658566909867,-0.0,-0.0,0.0,0.0,0.0,0.0
1565341658617716013,-0.0,-0.0,0.0,0.0,0.0,0.0
1565341658667202419,-0.0,-0.0,0.0,0.0,0.0,0.0
1565341658718159815,-0.0,-0.0,0.0,0.0,0.0,0.0
1565341658768150388,-0.0,-0.0,0.0,0.0,0.0,0.0
1565341658818177575,-0.0,-0.0,0.0,0.0,0.0,0.0
1565341658868242263,-0.0,-0.0,0.0,0.0,0.0,0.0
1565341658919372628,-0.0,-0.0,0.0,0.0,0.0,0.0
1565341658969423096,-0.0,-0.0,0.0,0.0,0.0,0.0
1565341659111336325,0.121034801006,-0.0,0.0,0.0,0.0,0.0
1565341659215572107,0.28381088376,-0.0,0.0,0.0,0.0,0.0
1565341659323193669,0.414044618607,-0.0124531583861,0.0,0.0,0.0,0.0
1565341659427226742,0.609363079071,-0.0124531583861,0.0,0.0,0.0,0.0
1565341659535204763,0.641937553883,-0.0124531583861,0.0,0.0,0.0,0.0
1565341659585491273,0.641937553883,-0.0124531583861,0.0,0.0,0.0,0.0
1565341659635703721,0.641937553883,-0.0124531583861,0.0,0.0,0.0,0.0
1565341659775156273,0.663621783257,-0.0,0.0,0.0,0.0,0.0
1565341659887350960,0.717880487442,-0.0,0.0,0.0,0.0,0.0
1565341659989507731,0.815571844578,-0.0,0.0,0.0,0.0,0.0
1565341660037822419,0.815571844578,-0.0,0.0,0.0,0.0,0.0
1565341660087921117,0.815571844578,-0.0,0.0,0.0,0.0,0.0
1565341660137851481,0.815571844578,-0.0,0.0,0.0,0.0,0.0
1565341660188112158,0.815571844578,-0.0,0.0,0.0,0.0,0.0
1565341660238197262,0.815571844578,-0.0,0.0,0.0,0.0,0.0
1565341660288086637,0.815571844578,-0.0,0.0,0.0,0.0,0.0
1565341660404154554,0.815571844578,-0.0,0.0,0.0,0.0,0.0
1565341660531556481,0.815571844578,-0.0,0.0,0.0,0.0,0.0
1565341660679313669,0.815571844578,-0.0,0.0,0.0,0.0,0.0
1565341660744497314,0.815571844578,-0.0,0.0,0.0,0.0,0.0
1565341660852597991,0.815571844578,-0.0,0.0,0.0,0.0,0.0
1565341660987410179,0.848114192486,-0.0,0.0,0.0,0.0,0.0
1565341661091470543,0.891514718533,-0.0,0.0,0.0,0.0,0.0
1565341661220295022,0.902372896671,-0.0,0.0,0.0,0.0,0.0
1565341661268724762,0.902372896671,-0.0,0.0,0.0,0.0,0.0
1565341661414800647,0.924089252949,-0.0,0.0,0.0,0.0,0.0
1565341661465652314,0.924089252949,-0.0,0.0,0.0,0.0,0.0
1565341661515505804,0.924089252949,-0.0,0.0,0.0,0.0,0.0
1565341661638596897,0.934947371483,-0.0,0.0,0.0,0.0,0.0
1565341661766945179,0.934947371483,-0.0,0.0,0.0,0.0,0.0
1565341661821395595,0.934947371483,-0.0,0.0,0.0,0.0,0.0
1565341661947126845,0.934947371483,-0.0,0.0,0.0,0.0,0.0
1565341661969058356,0.934947371483,-0.0,0.0,0.0,0.0,0.0
1565341662020427678,0.934947371483,-0.0,0.0,0.0,0.0,0.0
1565341662070028668,0.934947371483,-0.0,0.0,0.0,0.0,0.0
1565341662171194866,0.934947371483,-0.0,0.0,0.0,0.0,0.0
1565341662315019241,1.0,-0.0,0.0,0.0,0.0,0.0
1565341662364984970,1.0,-0.0,0.0,0.0,0.0,0.0
1565341662415816012,1.0,-0.0,0.0,0.0,0.0,0.0
1565341662465775074,1.0,-0.0,0.0,0.0,0.0,0.0
1565341662515788876,1.0,-0.0,0.0,0.0,0.0,0.0
1565341662565847418,1.0,-0.0,0.0,0.0,0.0,0.0
1565341662616937157,1.0,-0.0,0.0,0.0,0.0,0.0
1565341662666690387,1.0,-0.0,0.0,0.0,0.0,0.0
1565341662716857105,1.0,-0.0,0.0,0.0,0.0,0.0
1565341662766853720,1.0,-0.0,0.0,0.0,0.0,0.0
1565341662816791949,1.0,-0.0,0.0,0.0,0.0,0.0
1565341662867047886,1.0,-0.0,0.0,0.0,0.0,0.0
1565341662987636584,-0.0,-0.0,0.0,0.0,0.0,0.0
1565341663037707782,-0.0,-0.0,0.0,0.0,0.0,0.0
1565341663088107105,-0.0,-0.0,0.0,0.0,0.0,0.0
1565341663137882782,-0.0,-0.0,0.0,0.0,0.0,0.0
1565341663188179918,-0.0,-0.0,0.0,0.0,0.0,0.0
1565341663238355438,-0.0,-0.0,0.0,0.0,0.0,0.0
1565341663299555438,-0.0,-0.0,0.0,0.0,0.0,0.0
1565341663338911115,-0.0,-0.0,0.0,0.0,0.0,0.0
1565341663389166220,-0.0,-0.0,0.0,0.0,0.0,0.0
1565341663439681897,-0.0,-0.0,0.0,0.0,0.0,0.0
1565341663489663147,-0.0,-0.0,0.0,0.0,0.0,0.0
1565341663539633772,-0.0,-0.0,0.0,0.0,0.0,0.0
1565341663589939969,-0.0,-0.0,0.0,0.0,0.0,0.0
1565341663640067782,-0.0,-0.0,0.0,0.0,0.0,0.0
1565341663690458303,-0.0,-0.0,0.0,0.0,0.0,0.0
1565341663740626897,-0.0,-0.0,0.0,0.0,0.0,0.0
1565341663791709501,-0.0,-0.0,0.0,0.0,0.0,0.0
1565341663859843459,-0.0,-0.0,0.0,0.0,0.0,0.0
1565341663893765959,-0.0,-0.0,0.0,0.0,0.0,0.0
1565341663941255646,-0.0,-0.0,0.0,0.0,0.0,0.0
1565341663991814240,-0.0,-0.0,0.0,0.0,0.0,0.0
1565341664041319448,-0.0,-0.0,0.0,0.0,0.0,0.0
1565341664092263511,-0.0,-0.0,0.0,0.0,0.0,0.0
1565341664141663876,-0.0,-0.0,0.0,0.0,0.0,0.0
1565341664192293407,-0.0,-0.0,0.0,0.0,0.0,0.0
1565341664242165334,-0.0,-0.0,0.0,0.0,0.0,0.0
1565341664292506428,-0.0,-0.0,0.0,0.0,0.0,0.0
1565341664342639553,-0.0,-0.0,0.0,0.0,0.0,0.0
1565341664393865230,-0.0,-0.0,0.0,0.0,0.0,0.0
1565341664444601948,-0.0,-0.0,0.0,0.0,0.0,0.0
1565341664495023355,-0.0,-0.0,0.0,0.0,0.0,0.0
1565341664543603615,-0.0,-0.0,0.0,0.0,0.0,0.0
1565341664593879500,-0.0,-0.0,0.0,0.0,0.0,0.0
1565341664644742834,-0.0,-0.0,0.0,0.0,0.0,0.0
1565341664693853823,-0.0,-0.0,0.0,0.0,0.0,0.0
1565341664745576479,-0.0,-0.0,0.0,0.0,0.0,0.0
1565341664816516688,-0.0,-0.0,0.0,0.0,0.0,0.0
1565341664943858459,-0.0,-0.283778756857,0.0,0.0,0.0,0.0
1565341665047660073,-0.0,-0.609330952168,0.0,0.0,0.0,0.0
1565341665151239656,-0.0,-0.609330952168,0.0,0.0,0.0,0.0
1565341665201341219,-0.0,-0.609330952168,0.0,0.0,0.0,0.0
1565341665343320385,-0.0,-0.609330952168,0.0,0.0,0.0,0.0
1565341665447435802,-0.0,-0.609330952168,0.0,0.0,0.0,0.0
1565341665555617937,-0.0,-0.609330952168,0.0,0.0,0.0,0.0
1565341665605727000,-0.0,-0.609330952168,0.0,0.0,0.0,0.0
1565341665656604292,-0.0,-0.609330952168,0.0,0.0,0.0,0.0
1565341665706086531,-0.0,-0.609330952168,0.0,0.0,0.0,0.0
1565341665902413979,-0.0,-0.565930426121,0.0,0.0,0.0,0.0
1565341665967135125,-0.0,-0.0,0.0,0.0,0.0,0.0
1565341666013467104,-0.0,-0.0,0.0,0.0,0.0,0.0
1565341666066508614,-0.0,-0.0,0.0,0.0,0.0,0.0
1565341666114256687,-0.0,-0.0,0.0,0.0,0.0,0.0
1565341666164207729,-0.0,-0.0,0.0,0.0,0.0,0.0
1565341666228250698,-0.0,-0.0,0.0,0.0,0.0,0.0
1565341666266857625,-0.0,-0.0,0.0,0.0,0.0,0.0
1565341666315859604,-0.0,-0.0,0.0,0.0,0.0,0.0
1565341666364794291,-0.0,-0.0,0.0,0.0,0.0,0.0
1565341666415278458,-0.0,-0.0,0.0,0.0,0.0,0.0
1565341666464846531,-0.0,-0.0,0.0,0.0,0.0,0.0
1565341666515680854,-0.0,-0.0,0.0,0.0,0.0,0.0
1565341666565819083,-0.0,-0.0,0.0,0.0,0.0,0.0
1565341666616644187,-0.0,-0.0,0.0,0.0,0.0,0.0
1565341666666912572,-0.0,-0.0,0.0,0.0,0.0,0.0
1565341666716449239,-0.0,-0.0,0.0,0.0,0.0,0.0
1565341666766651583,-0.0,-0.0,0.0,0.0,0.0,0.0
1565341666820286739,-0.0,-0.0,0.0,0.0,0.0,0.0
1565341666883151739,-0.0,-0.0,0.0,0.0,0.0,0.0
1565341666916521166,-0.0,-0.0,0.0,0.0,0.0,0.0
1565341666967270333,-0.0,-0.0,0.0,0.0,0.0,0.0
1565341667017337572,-0.0,-0.0,0.0,0.0,0.0,0.0
1565341667068106843,-0.0,-0.0,0.0,0.0,0.0,0.0
1565341667117289864,-0.0,-0.0,0.0,0.0,0.0,0.0
1565341667167193041,-0.0,-0.0,0.0,0.0,0.0,0.0
1565341667217953041,-0.0,-0.0,0.0,0.0,0.0,0.0
1565341667339859968,-0.0,-0.0,0.0,0.0,0.0,-0.255851924419
1565341667443354291,-0.0,-0.0,0.0,0.0,0.0,-0.434915274382
1565341667547147937,-0.0,-0.0,0.0,0.0,0.0,-0.440344333649
1565341667652037572,-0.0,-0.0,0.0,0.0,0.0,-0.445757359266
1565341667774914707,-0.0,-0.0,0.0,0.0,0.0,0.0
1565341667831872312,-0.0,-0.0,0.0,0.0,0.0,0.0
1565341667896980541,-0.0,-0.0,0.0,0.0,0.0,0.0
1565341667936993353,-0.0,-0.0,0.0,0.0,0.0,0.0
1565341667976680228,-0.0,-0.0,0.0,0.0,0.0,0.0
1565341668026564603,-0.0,-0.0,0.0,0.0,0.0,0.0
1565341668079130697,-0.0,-0.0,0.0,0.0,0.0,0.0
1565341668128717103,-0.0,-0.0,0.0,0.0,0.0,0.0
1565341668181539291,-0.0,-0.0,0.0,0.0,0.0,0.0
1565341668227080905,-0.0,-0.0,0.0,0.0,0.0,0.0
1565341668277289916,-0.0,-0.0,0.0,0.0,0.0,0.0
1565341668327938301,-0.0,-0.0,0.0,0.0,0.0,0.0
1565341668377581686,-0.0,-0.0,0.0,0.0,0.0,0.0
1565341668427782051,-0.0,-0.0,0.0,0.0,0.0,0.0
1565341668477898666,-0.0,-0.0,0.0,0.0,0.0,0.0
1565341668528370697,-0.0,-0.0,0.0,0.0,0.0,0.0
1565341668578196061,-0.0,-0.0,0.0,0.0,0.0,0.0
1565341668628376426,-0.0,-0.0,0.0,0.0,0.0,0.0
1565341668678664863,-0.0,-0.0,0.0,0.0,0.0,0.0
1565341668728723457,-0.0,-0.0,0.0,0.0,0.0,0.0
1565341668778930124,-0.0,-0.0,0.0,0.0,0.0,0.0
1565341668828835280,-0.0,-0.0,0.0,0.0,0.0,0.0
1565341668879778717,-0.0,-0.0,0.0,0.0,0.0,0.0
1565341668930062988,-0.0,-0.0,0.0,0.0,0.0,0.0
1565341668979721582,-0.0,-0.0,0.0,0.0,0.0,0.0
1565341669030967155,-0.0,-0.0,0.0,0.0,0.0,0.0
1565341669079987884,-0.0,-0.0,0.0,0.0,0.0,0.0
1565341669212328926,-0.359721660614,-0.0,0.0,0.0,0.0,0.0
1565341669315115592,-0.381437987089,-0.0,0.0,0.0,0.0,0.0
1565341669364990071,-0.381437987089,-0.0,0.0,0.0,0.0,0.0
1565341669479832259,-0.576788604259,-0.0,0.0,0.0,0.0,0.0
1565341669587151061,-0.696164131165,-0.0,0.0,0.0,0.0,0.0
1565341669719177467,-0.696164131165,-0.0,0.0,0.0,0.0,0.0
1565341669757050540,-0.696164131165,-0.0,0.0,0.0,0.0,0.0
1565341669808699655,-0.696164131165,-0.0,0.0,0.0,0.0,0.0
1565341669875384446,-0.696164131165,-0.0,0.0,0.0,0.0,0.0
1565341669907261634,-0.696164131165,-0.0,0.0,0.0,0.0,0.0
1565341670032075800,-0.696164131165,-0.0,0.0,0.0,0.0,0.0
1565341670154775696,-0.696164131165,-0.0,0.0,0.0,0.0,0.0
1565341670204893925,-0.696164131165,-0.0,0.0,0.0,0.0,0.0
1565341670255678613,-0.696164131165,-0.0,0.0,0.0,0.0,0.0
1565341670305334290,-0.696164131165,-0.0,0.0,0.0,0.0,0.0
1565341670406909967,-0.696164131165,-0.0,0.0,0.0,0.0,0.0
1565341670524931738,-0.707022309303,-0.0,0.0,0.0,0.0,0.0
1565341670631069081,-0.696164131165,-0.0,0.0,0.0,0.0,0.0
1565341670681617467,-0.696164131165,-0.0,0.0,0.0,0.0,0.0
1565341670731768352,-0.696164131165,-0.0,0.0,0.0,0.0,0.0
1565341670781363352,-0.696164131165,-0.0,0.0,0.0,0.0,0.0
1565341670831785227,-0.696164131165,-0.0,0.0,0.0,0.0,0.0
1565341670881506165,-0.696164131165,-0.0,0.0,0.0,0.0,0.0
1565341671024333040,-0.696164131165,-0.0,0.0,0.0,0.0,0.0
1565341671129337206,-0.696164131165,-0.0,0.0,0.0,0.0,0.0
1565341671177532362,-0.696164131165,-0.0,0.0,0.0,0.0,0.0
1565341671227954706,-0.696164131165,-0.0,0.0,0.0,0.0,0.0
1565341671277808821,-0.696164131165,-0.0,0.0,0.0,0.0,0.0
1565341671329024967,-0.696164131165,-0.0,0.0,0.0,0.0,0.0
1565341671378229758,-0.696164131165,-0.0,0.0,0.0,0.0,0.0
1565341671506227102,-0.696164131165,-0.0,0.0,0.0,0.0,0.0
1565341671608538873,-0.696164131165,-0.0,0.0,0.0,0.0,0.0
1565341671728576112,-0.696164131165,-0.0,0.0,0.0,0.0,0.0
1565341671845903039,-0.696164131165,-0.0,0.0,0.0,0.0,0.0
1565341671882596373,-0.696164131165,-0.0,0.0,0.0,0.0,0.0
1565341671932064185,-0.696164131165,-0.0,0.0,0.0,0.0,0.0
1565341672051725695,-1.0,-0.0,0.0,0.0,0.0,0.0
1565341672185207622,-1.0,-0.0,0.0,0.0,0.0,0.0
1565341672315553352,-1.0,-0.0,0.0,0.0,0.0,0.0
1565341672365986789,-1.0,-0.0,0.0,0.0,0.0,0.0
1565341672415298091,-1.0,-0.0,0.0,0.0,0.0,0.0
1565341672465950904,-1.0,-0.0,0.0,0.0,0.0,0.0
1565341672516280852,-1.0,-0.0,0.0,0.0,0.0,0.0
1565341672566114393,-1.0,-0.0,0.0,0.0,0.0,0.0
1565341672616147258,-1.0,-0.0,0.0,0.0,0.0,0.0
1565341672764083299,-1.0,-0.0,0.0,0.0,0.0,0.0
1565341672812957987,-1.0,-0.0,0.0,0.0,0.0,0.0
1565341672865097153,-1.0,-0.0,0.0,0.0,0.0,0.0
1565341672914389653,-1.0,-0.0,0.0,0.0,0.0,0.0
1565341672963555226,-1.0,-0.0,0.0,0.0,0.0,0.0
1565341673014066789,-1.0,-0.0,0.0,0.0,0.0,0.0
1565341673064433768,-1.0,-0.0,0.0,0.0,0.0,0.0
1565341673114752830,-1.0,-0.0,0.0,0.0,0.0,0.0
1565341673164779028,-1.0,-0.0,0.0,0.0,0.0,0.0
1565341673275790643,-1.0,-0.0,0.0,0.0,0.0,0.0
1565341673326990330,-1.0,-0.0,0.0,0.0,0.0,0.0
1565341673375950591,-1.0,-0.0,0.0,0.0,0.0,0.0
1565341673426051632,-1.0,-0.0,0.0,0.0,0.0,0.0
1565341673475810695,-1.0,-0.0,0.0,0.0,0.0,0.0
1565341673527012205,-1.0,-0.0,0.0,0.0,0.0,0.0
1565341673576432830,-1.0,-0.0,0.0,0.0,0.0,0.0
1565341673626464289,-1.0,-0.0,0.0,0.0,0.0,0.0
1565341673746890278,-1.0,-0.0,0.0,0.0,0.0,0.0
1565341673800273559,-1.0,-0.0,0.0,0.0,0.0,0.0
1565341673916331841,-1.0,-0.0,0.0,0.0,0.0,0.0
1565341673966494601,-1.0,-0.0,0.0,0.0,0.0,0.0
1565341674016134705,-1.0,-0.0,0.0,0.0,0.0,0.0
1565341674067383820,-1.0,-0.0,0.0,0.0,0.0,0.0
1565341674210993455,-1.0,-0.0,0.0,0.0,0.0,0.0
1565341674315474705,-1.0,0.00165924313478,0.0,0.0,0.0,0.0
1565341674438039861,-1.0,-0.0,0.0,0.0,0.0,0.0
1565341674469671059,-1.0,-0.0,0.0,0.0,0.0,0.0
1565341674520201997,-1.0,-0.0,0.0,0.0,0.0,0.0
1565341674569778715,-1.0,-0.0,0.0,0.0,0.0,0.0
1565341674619543663,-1.0,-0.0,0.0,0.0,0.0,0.0
1565341674670310642,-1.0,-0.0,0.0,0.0,0.0,0.0
1565341674722207101,-1.0,-0.0,0.0,0.0,0.0,0.0
1565341674840146424,-0.0,-0.0,0.0,0.0,0.0,0.0
1565341674873418455,-0.0,-0.0,0.0,0.0,0.0,0.0
1565341674924223351,-0.0,-0.0,0.0,0.0,0.0,0.0
1565341674973887101,-0.0,-0.0,0.0,0.0,0.0,0.0
1565341675024667413,-0.0,-0.0,0.0,0.0,0.0,0.0
1565341675073960590,-0.0,-0.0,0.0,0.0,0.0,0.0
1565341675125015590,-0.0,-0.0,0.0,0.0,0.0,0.0
1565341675174395955,-0.0,-0.0,0.0,0.0,0.0,0.0
1565341675224580069,-0.0,-0.0,0.0,0.0,0.0,0.0
1565341675274962361,-0.0,-0.0,0.0,0.0,0.0,0.0
1565341675325444184,-0.0,-0.0,0.0,0.0,0.0,0.0
1565341675375078038,-0.0,-0.0,0.0,0.0,0.0,0.0
1565341675425840694,-0.0,-0.0,0.0,0.0,0.0,0.0
1565341675476124392,-0.0,-0.0,0.0,0.0,0.0,0.0
1565341675529410225,-0.0,-0.0,0.0,0.0,0.0,0.0
1565341675576246371,-0.0,-0.0,0.0,0.0,0.0,0.0
1565341675626367309,-0.0,-0.0,0.0,0.0,0.0,0.0
1565341675676887725,-0.0,-0.0,0.0,0.0,0.0,0.0
1565341675728595173,-0.0,-0.0,0.0,0.0,0.0,0.0
1565341675776749236,-0.0,-0.0,0.0,0.0,0.0,0.0
1565341675831233715,-0.0,-0.0,0.0,0.0,0.0,0.0
1565341675901582569,-0.0,-0.0,0.0,0.0,0.0,0.0
1565341675949301475,-0.0,-0.0,0.0,0.0,0.0,0.0
1565341675977026215,-0.0,-0.0,0.0,0.0,0.0,0.0
1565341676027265277,-0.0,-0.0,0.0,0.0,0.0,0.0
1565341676077473611,-0.0,-0.0,0.0,0.0,0.0,0.0
1565341676127538090,-0.0,-0.0,0.0,0.0,0.0,0.0
1565341676177875954,-0.0,-0.0,0.0,0.0,0.0,0.0
1565341676227962204,-0.0,-0.0,0.0,0.0,0.0,0.0
1565341676278337725,-0.0,-0.0,0.0,0.0,0.0,0.0
1565341676329291163,-0.0,-0.0,0.0,0.0,0.0,0.0
1565341676378671631,-0.0,-0.0,0.0,0.0,0.0,0.0
1565341676428851058,-0.0,-0.0,0.0,0.0,0.0,0.0
1565341676478948142,-0.0,-0.0,0.0,0.0,0.0,0.0
