%time,field.header.seq,field.header.stamp,field.header.frame_id,field.pose.position.x,field.pose.position.y,field.pose.position.z,field.pose.orientation.x,field.pose.orientation.y,field.pose.orientation.z,field.pose.orientation.w
1565341597522324005,49764,1565341597466998735,map,1.31492328644,0.182685852051,0.0,0.0,0.0,-0.0149398568983,0.99988839411
1565341597588599109,49765,1565341597533473058,map,1.31932544708,0.181408882141,0.0,0.0,0.0,-0.0172236110172,0.99985166261
1565341597655029161,49766,1565341597600099048,map,1.32081127167,0.18009185791,0.0,0.0,0.0,-0.0197213339778,0.999805515581
1565341597722110620,49767,1565341597666761340,map,1.32415485382,0.180425643921,0.0,0.0,0.0,-0.022463728627,0.99974765861
1565341597788553276,49768,1565341597733656444,map,1.32739830017,0.178148269653,0.0,0.0,0.0,-0.0249237553478,0.99968935496
1565341597861151453,49769,1565341597801318631,map,1.33029651642,0.177671432495,0.0,0.0,0.0,-0.0273860144436,0.999624932769
1565341597928078224,49770,1565341597868726444,map,1.33327674866,0.176470756531,0.0,0.0,0.0,-0.0297975851355,0.999555953371
1565341597995355567,49771,1565341597935394517,map,1.33565235138,0.176054000854,0.0,0.0,0.0,-0.0315586707631,0.999501901099
1565341598062820359,49772,1565341598002027954,map,1.34042072296,0.174339294434,0.0,0.0,0.0,-0.0335753365555,0.999436189446
1565341598128624265,49773,1565341598068688214,map,1.34169006348,0.173269271851,0.0,0.0,0.0,-0.0353207159105,0.999376028844
1565341598194691088,49774,1565341598135279516,map,1.34463214874,0.171917915344,0.0,0.0,0.0,-0.0373521299609,0.999302165707
1565341598263192130,49775,1565341598202670714,map,1.3468837738,0.171297073364,0.0,0.0,0.0,-0.039449618525,0.999221560815
1565341598329526140,49776,1565341598268746600,map,1.34996032715,0.17036151886,0.0,0.0,0.0,-0.0412589323784,0.999148487713
1565341598395479942,49777,1565341598335378214,map,1.35290813446,0.169813156128,0.0,0.0,0.0,-0.0434647061457,0.999054963112
1565341598462257963,49778,1565341598401997225,map,1.35380077362,0.168971061707,0.0,0.0,0.0,-0.0449719430858,0.998988250349
1565341598530213901,49779,1565341598468883110,map,1.35727214813,0.168226242065,0.0,0.0,0.0,-0.0466417409456,0.998911681783
1565341598595397911,49780,1565341598535248839,map,1.35916137695,0.167184829712,0.0,0.0,0.0,-0.0482897377164,0.998833370103
1565341598662668796,49781,1565341598602216183,map,1.36304950714,0.166975021362,0.0,0.0,0.0,-0.0504419371716,0.998726995217
1565341598728591869,49782,1565341598669264568,map,1.36411762238,0.166717529297,0.0,0.0,0.0,-0.0517886697428,0.99865806645
1565341598796681244,49783,1565341598736542433,map,1.36797523499,0.164560317993,0.0,0.0,0.0,-0.0533895777448,0.998573759413
1565341598862833119,49784,1565341598802843891,map,1.37091636658,0.163604736328,0.0,0.0,0.0,-0.0546273067256,0.998506813878
1565341598929201036,49785,1565341598868754516,map,1.37230873108,0.162233352661,0.0,0.0,0.0,-0.0558397188538,0.998439745702
1565341598996599057,49786,1565341598935560558,map,1.37630176544,0.162220954895,0.0,0.0,0.0,-0.0573224489111,0.998355716591
1565341599061946036,49787,1565341599002028110,map,1.37811756134,0.161138534546,0.0,0.0,0.0,-0.0584592263125,0.998289797032
1565341599128115411,49788,1565341599068686912,map,1.38180732727,0.160586357117,0.0,0.0,0.0,-0.0597108790129,0.998215713625
1565341599194867963,49789,1565341599135344881,map,1.38393688202,0.159978866577,0.0,0.0,0.0,-0.0608410700712,0.998147466155
1565341599262234421,49790,1565341599202597120,map,1.38691902161,0.158983230591,0.0,0.0,0.0,-0.062030197184,0.998074273107
1565341599329909942,49791,1565341599269402120,map,1.38982200623,0.158338546753,0.0,0.0,0.0,-0.0629265615763,0.998018160079
1565341599394792181,49792,1565341599335326391,map,1.39150238037,0.158613204956,0.0,0.0,0.0,-0.064082699054,0.997944591489
1565341599462694994,49793,1565341599402831703,map,1.39416694641,0.157742500305,0.0,0.0,0.0,-0.0649025790531,0.997891604951
1565341599528398015,49794,1565341599468732433,map,1.39756774902,0.156740188599,0.0,0.0,0.0,-0.065306792829,0.99786523279
1565341599595239890,49795,1565341599535368735,map,1.40052318573,0.156234741211,0.0,0.0,0.0,-0.0662419866903,0.997803587486
1565341599661963275,49796,1565341599602096287,map,1.40612506866,0.155840873718,0.0,0.0,0.0,-0.0671528585849,0.997742699088
1565341599728869681,49797,1565341599669074985,map,1.40934753418,0.155934333801,0.0,0.0,0.0,-0.0676271844893,0.997710661423
1565341599796432025,49798,1565341599735450089,map,1.41333580017,0.154508590698,0.0,0.0,0.0,-0.0683027275683,0.997664641754
1565341599862082754,49799,1565341599802255610,map,1.41994285583,0.154243469238,0.0,0.0,0.0,-0.0688012773232,0.997630384581
1565341599928788015,49800,1565341599868789203,map,1.4245300293,0.153673171997,0.0,0.0,0.0,-0.0691720863536,0.997604742606
1565341599995802285,49801,1565341599935514672,map,1.43021583557,0.15355682373,0.0,0.0,0.0,-0.0691544856275,0.997605962852
1565341600061577650,49802,1565341600002116078,map,1.43830871582,0.153126716614,0.0,0.0,0.0,-0.0693911422366,0.997589529506
1565341600128913744,49803,1565341600069263839,map,1.44556903839,0.153015136719,0.0,0.0,0.0,-0.0692603275074,0.997598620204
1565341600195546192,49804,1565341600136082172,map,1.45406532288,0.152056694031,0.0,0.0,0.0,-0.0693369137299,0.997593300095
1565341600262829577,49805,1565341600203139516,map,1.46350669861,0.15124797821,0.0,0.0,0.0,-0.0689537406888,0.997619858285
1565341600328857494,49806,1565341600268766286,map,1.47284221649,0.150957107544,0.0,0.0,0.0,-0.0688243491058,0.997628793174
1565341600394911817,49807,1565341600335501339,map,1.48228168488,0.150134086609,0.0,0.0,0.0,-0.0686095660373,0.997643587384
1565341600461872598,49808,1565341600402288318,map,1.49588298798,0.149492263794,0.0,0.0,0.0,-0.0681362233675,0.997676027108
1565341600528482962,49809,1565341600468817068,map,1.50542926788,0.148864746094,0.0,0.0,0.0,-0.0676293253439,0.997710516309
1565341600596501348,49810,1565341600536022588,map,1.51686668396,0.147909164429,0.0,0.0,0.0,-0.0670669835131,0.997748475179
1565341600661458223,49811,1565341600602132641,map,1.52883911133,0.14771270752,0.0,0.0,0.0,-0.0670812564127,0.997747515676
1565341600728619889,49812,1565341600669121338,map,1.53888988495,0.1474609375,0.0,0.0,0.0,-0.0665619519377,0.997782294168
1565341600795448223,49813,1565341600735435401,map,1.55141639709,0.146420478821,0.0,0.0,0.0,-0.0666468783682,0.997776625104
1565341600861879316,49814,1565341600802071390,map,1.5634431839,0.145886421204,0.0,0.0,0.0,-0.0656698385649,0.997841406388
1565341600929917910,49815,1565341600868849724,map,1.57659626007,0.145317077637,0.0,0.0,0.0,-0.0653634152112,0.997861525439
1565341600995360827,49816,1565341600935376963,map,1.58917045593,0.144937515259,0.0,0.0,0.0,-0.0644395877457,0.997921609913
1565341601062319785,49817,1565341601002104307,map,1.60184764862,0.143895149231,0.0,0.0,0.0,-0.0636301524137,0.997973548599
1565341601129048535,49818,1565341601068741442,map,1.61410522461,0.143712997437,0.0,0.0,0.0,-0.0625901022615,0.998039317411
1565341601197750150,49819,1565341601135541599,map,1.6285276413,0.143046379089,0.0,0.0,0.0,-0.0617648702085,0.998090727744
1565341601263098275,49820,1565341601202457432,map,1.64256286621,0.142033576965,0.0,0.0,0.0,-0.0609624378405,0.9981400609
1565341601328529941,49821,1565341601268791338,map,1.65448570251,0.141761779785,0.0,0.0,0.0,-0.0601918562634,0.998186826421
1565341601395122806,49822,1565341601335463109,map,1.66805076599,0.140478134155,0.0,0.0,0.0,-0.0592593998737,0.998242617567
1565341601462115462,49823,1565341601402471807,map,1.68084526062,0.140858650208,0.0,0.0,0.0,-0.0580943518059,0.998311096947
1565341601530270097,49824,1565341601469287328,map,1.69400024414,0.140582084656,0.0,0.0,0.0,-0.0569856380852,0.998374998211
1565341601595889524,49825,1565341601536000921,map,1.70781421661,0.140008926392,0.0,0.0,0.0,-0.0562103535314,0.998418948216
1565341601662298431,49826,1565341601602550401,map,1.72091960907,0.139617919922,0.0,0.0,0.0,-0.0552448305606,0.998472838237
1565341601729223326,49827,1565341601668738682,map,1.73415660858,0.140187263489,0.0,0.0,0.0,-0.0544749460417,0.998515137719
1565341601795267597,49828,1565341601735372484,map,1.74734783173,0.13996887207,0.0,0.0,0.0,-0.0536219409492,0.998561308808
1565341601861721608,49829,1565341601802201494,map,1.76031780243,0.139516830444,0.0,0.0,0.0,-0.0527922291792,0.998605517979
1565341601929051816,49830,1565341601869044098,map,1.77377414703,0.13991355896,0.0,0.0,0.0,-0.0521760523194,0.998637902127
1565341601994973066,49831,1565341601935399775,map,1.78700065613,0.140536308289,0.0,0.0,0.0,-0.0516962872501,0.998662852961
1565341602063104368,49832,1565341602002265973,map,1.79789447784,0.140993118286,0.0,0.0,0.0,-0.0508545862724,0.998706068398
1565341602128370201,49833,1565341602068713838,map,1.80927085876,0.140832901001,0.0,0.0,0.0,-0.0504636056312,0.998725900589
1565341602195407545,49834,1565341602135542327,map,1.82154941559,0.141342163086,0.0,0.0,0.0,-0.0503571680247,0.99873127298
1565341602262596347,49835,1565341602202539879,map,1.83084201813,0.141596794128,0.0,0.0,0.0,-0.0497213879015,0.998763126865
1565341602328224732,49836,1565341602268719254,map,1.84051609039,0.141876220703,0.0,0.0,0.0,-0.049613993832,0.998768467472
1565341602396121868,49837,1565341602335322119,map,1.85026550293,0.141983032227,0.0,0.0,0.0,-0.0493803918925,0.998780044302
1565341602462388170,49838,1565341602402046390,map,1.86029338837,0.142651557922,0.0,0.0,0.0,-0.0488286424611,0.998807170416
1565341602528991972,49839,1565341602468730713,map,1.8689956665,0.143076896667,0.0,0.0,0.0,-0.0484983476808,0.998823262781
1565341602595766034,49840,1565341602535347796,map,1.8766708374,0.143342971802,0.0,0.0,0.0,-0.0479137105598,0.99885147862
1565341602662959055,49841,1565341602602331129,map,1.88690948486,0.143574714661,0.0,0.0,0.0,-0.047640794891,0.998864532688
1565341602728855305,49842,1565341602668780192,map,1.89545536041,0.144132614136,0.0,0.0,0.0,-0.047370257175,0.998877399251
1565341602796195982,49843,1565341602735481963,map,1.90237236023,0.144459724426,0.0,0.0,0.0,-0.0469025235719,0.998899471059
1565341602862601607,49844,1565341602802193317,map,1.91156291962,0.145266532898,0.0,0.0,0.0,-0.0467653451631,0.998905902721
1565341602930063378,49845,1565341602869540296,map,1.91935539246,0.146067619324,0.0,0.0,0.0,-0.0465359980424,0.99891661358
1565341602996497753,49846,1565341602936025452,map,1.92769432068,0.146408081055,0.0,0.0,0.0,-0.0462730674847,0.998928827908
1565341603062778847,49847,1565341603002586129,map,1.93402194977,0.147308349609,0.0,0.0,0.0,-0.0455800015153,0.99896069165
1565341603128592753,49848,1565341603068838265,map,1.94270420074,0.147260665894,0.0,0.0,0.0,-0.0456907506517,0.9989556323
1565341603195302232,49849,1565341603135628577,map,1.94971561432,0.147857666016,0.0,0.0,0.0,-0.0450481597097,0.998984816354
1565341603262924993,49850,1565341603202588212,map,1.95687389374,0.148510932922,0.0,0.0,0.0,-0.0446696939632,0.99900181103
1565341603329881451,49851,1565341603268788264,map,1.96291923523,0.148529052734,0.0,0.0,0.0,-0.0444229375095,0.999012814043
1565341603395234003,49852,1565341603335411494,map,1.97087669373,0.149175643921,0.0,0.0,0.0,-0.0439889635129,0.999032017049
1565341603461952388,49853,1565341603402139931,map,1.97907543182,0.149889945984,0.0,0.0,0.0,-0.0440068275904,0.999031230305
1565341603529344159,49854,1565341603468831441,map,1.98463249207,0.150822639465,0.0,0.0,0.0,-0.0436778881265,0.999045665667
1565341603595066711,49855,1565341603535402744,map,1.99302005768,0.150705337524,0.0,0.0,0.0,-0.0437341011447,0.999043206472
1565341603661968065,49856,1565341603602559046,map,2.00137329102,0.151556015015,0.0,0.0,0.0,-0.0435687963663,0.999050429149
1565341603729367909,49857,1565341603668812535,map,2.00974845886,0.152552604675,0.0,0.0,0.0,-0.0435737984016,0.999050210997
1565341603796953534,49858,1565341603735477691,map,2.01607227325,0.153582572937,0.0,0.0,0.0,-0.0429028013893,0.999079250927
1565341603862877440,49859,1565341603802444879,map,2.02471446991,0.153671264648,0.0,0.0,0.0,-0.0429359110344,0.999077828572
1565341603930770044,49860,1565341603868965868,map,2.0332365036,0.154377937317,0.0,0.0,0.0,-0.0426202955982,0.999091342372
1565341603996682284,49861,1565341603935506233,map,2.04255771637,0.154855728149,0.0,0.0,0.0,-0.0425107224505,0.99909601064
1565341604063947492,49862,1565341604002141650,map,2.05086040497,0.155586242676,0.0,0.0,0.0,-0.0422072498068,0.999108876982
1565341604129399055,49863,1565341604068778212,map,2.06026172638,0.155720710754,0.0,0.0,0.0,-0.0415662284981,0.999135750861
1565341604196421190,49864,1565341604135425608,map,2.07036304474,0.156809806824,0.0,0.0,0.0,-0.0419237828305,0.999120811731
1565341604262905305,49865,1565341604202701910,map,2.08018493652,0.157190322876,0.0,0.0,0.0,-0.0413954295105,0.999142841848
1565341604329206867,49866,1565341604269288108,map,2.09078502655,0.157661437988,0.0,0.0,0.0,-0.0408677792727,0.999164563331
1565341604396158377,49867,1565341604336275191,map,2.10192871094,0.157635688782,0.0,0.0,0.0,-0.0407055513265,0.999171185579
1565341604462739315,49868,1565341604402717952,map,2.11323070526,0.158230781555,0.0,0.0,0.0,-0.0397212026671,0.999210801612
1565341604528472180,49869,1565341604468967222,map,2.12491703033,0.158632278442,0.0,0.0,0.0,-0.039249502028,0.999229441415
1565341604595286502,49870,1565341604535583212,map,2.13791370392,0.159039497375,0.0,0.0,0.0,-0.0384623619423,0.999260049594
1565341604661984888,49871,1565341604602340035,map,2.15078258514,0.159088134766,0.0,0.0,0.0,-0.0380859366076,0.999274467518
1565341604728265252,49872,1565341604668743629,map,2.16460704803,0.159379959106,0.0,0.0,0.0,-0.0376685270082,0.999290289192
1565341604795389054,49873,1565341604735843889,map,2.17724609375,0.1598072052,0.0,0.0,0.0,-0.0367016935821,0.999326265885
1565341604862557284,49874,1565341604802851806,map,2.19135570526,0.159936904907,0.0,0.0,0.0,-0.0358444280851,0.999357382009
1565341604929882075,49875,1565341604869386024,map,2.2045879364,0.160814285278,0.0,0.0,0.0,-0.0349013579427,0.999390762021
1565341604995753898,49876,1565341604935723003,map,2.21881580353,0.16153717041,0.0,0.0,0.0,-0.0335505549929,0.999437021658
1565341605061811450,49877,1565341605002199410,map,2.23320293427,0.162043571472,0.0,0.0,0.0,-0.0327620617043,0.999463179568
1565341605129115929,49878,1565341605069029722,map,2.24792003632,0.162631034851,0.0,0.0,0.0,-0.0325623735364,0.999469705309
1565341605194990513,49879,1565341605135573160,map,2.26132678986,0.163551330566,0.0,0.0,0.0,-0.0314502441581,0.999505318716
1565341605262111138,49880,1565341605202574722,map,2.27432060242,0.164074897766,0.0,0.0,0.0,-0.0306471590814,0.999530265495
1565341605329098533,49881,1565341605268967795,map,2.28699970245,0.163968086243,0.0,0.0,0.0,-0.0294546513987,0.999566117629
1565341605395484992,49882,1565341605335693785,map,2.29946422577,0.164024353027,0.0,0.0,0.0,-0.028527831316,0.999592998595
1565341605461825877,49883,1565341605402240139,map,2.31155395508,0.164843559265,0.0,0.0,0.0,-0.027378626239,0.999625135151
1565341605529945148,49884,1565341605468874618,map,2.3213891983,0.16522026062,0.0,0.0,0.0,-0.0259626854443,0.999662912668
1565341605595359419,49885,1565341605535567743,map,2.33206939697,0.165626525879,0.0,0.0,0.0,-0.0245588482422,0.999698386001
1565341605662491137,49886,1565341605602451284,map,2.34077262878,0.165898323059,0.0,0.0,0.0,-0.0235141615741,0.999723503878
1565341605732219210,49887,1565341605670092118,map,2.350440979,0.166948318481,0.0,0.0,0.0,-0.022756670152,0.99974103345
1565341605797624262,49888,1565341605736735295,map,2.35879993439,0.167558670044,0.0,0.0,0.0,-0.0214559380008,0.999769794865
1565341605863919367,49889,1565341605803856389,map,2.36837863922,0.168833732605,0.0,0.0,0.0,-0.0203828124971,0.999792248897
1565341605929628377,49890,1565341605869996545,map,2.37766361237,0.169723510742,0.0,0.0,0.0,-0.0190252824005,0.999819002935
1565341605995334314,49891,1565341605935697951,map,2.38718509674,0.170826911926,0.0,0.0,0.0,-0.0177628313135,0.999842228466
1565341606062938950,49892,1565341606002374513,map,2.39541339874,0.171327590942,0.0,0.0,0.0,-0.0161508768529,0.999869566082
1565341606130657283,49893,1565341606069143628,map,2.40347290039,0.171644210815,0.0,0.0,0.0,-0.0149605969964,0.999888084006
1565341606196302439,49894,1565341606135547378,map,2.41256999969,0.173149108887,0.0,0.0,0.0,-0.0135586000078,0.999908077958
1565341606263386502,49895,1565341606202947795,map,2.41847991943,0.173192024231,0.0,0.0,0.0,-0.0114191989507,0.999934798822
1565341606329573429,49896,1565341606269005034,map,2.42632865906,0.173803329468,0.0,0.0,0.0,-0.0096960057184,0.999952992632
1565341606397183064,49897,1565341606335571128,map,2.4338054657,0.17423248291,0.0,0.0,0.0,-0.00762494156523,0.999970929711
1565341606462814523,49898,1565341606402724149,map,2.44181632996,0.17474937439,0.0,0.0,0.0,-0.00602447508805,0.999981852685
1565341606529383116,49899,1565341606469755086,map,2.44837760925,0.175218582153,0.0,0.0,0.0,-0.0043028776934,0.999990742579
1565341606596517335,49900,1565341606535794149,map,2.45320987701,0.176218032837,0.0,0.0,0.0,-0.0018583843265,0.999998273202
1565341606661889627,49901,1565341606602355711,map,2.46055412292,0.176984786987,0.0,0.0,0.0,-0.00026455719181,0.999999965005
1565341606729081710,49902,1565341606669492013,map,2.46699523926,0.178037643433,0.0,0.0,0.0,0.00169634714391,0.999998561202
1565341606795239106,49903,1565341606735656701,map,2.47394657135,0.178729057312,0.0,0.0,0.0,0.00329656069063,0.999994566329
1565341606862069783,49904,1565341606802470555,map,2.47974395752,0.180772781372,0.0,0.0,0.0,0.00594190224701,0.999982346743
1565341606928906554,49905,1565341606869324617,map,2.48592090607,0.181544303894,0.0,0.0,0.0,0.00794278022229,0.999968455624
1565341606995165460,49906,1565341606935597378,map,2.49158573151,0.182146072388,0.0,0.0,0.0,0.0103334510028,0.99994660847
1565341607062586085,49907,1565341607002385398,map,2.49834251404,0.182662963867,0.0,0.0,0.0,0.0123194170952,0.999924113102
1565341607129418845,49908,1565341607069558628,map,2.50451755524,0.182916641235,0.0,0.0,0.0,0.0141116772327,0.999900425325
1565341607196490981,49909,1565341607136136805,map,2.50870227814,0.183883666992,0.0,0.0,0.0,0.0164488735195,0.999864708128
1565341607264617231,49910,1565341607203223107,map,2.51415729523,0.184231758118,0.0,0.0,0.0,0.0185942326947,0.99982711231
1565341607329071189,49911,1565341607269292950,map,2.51948070526,0.184350967407,0.0,0.0,0.0,0.020256175053,0.999794822637
1565341607395830356,49912,1565341607335585450,map,2.52412223816,0.185732841492,0.0,0.0,0.0,0.0228926990703,0.999737927824
1565341607462631814,49913,1565341607402283367,map,2.52757549286,0.186340332031,0.0,0.0,0.0,0.025010140245,0.99968719752
1565341607528681814,49914,1565341607468869044,map,2.53077983856,0.187561035156,0.0,0.0,0.0,0.0273236038044,0.999626640639
1565341607595807283,49915,1565341607535763159,map,2.53590965271,0.187832832336,0.0,0.0,0.0,0.0287572709037,0.999586424163
1565341607662086241,49916,1565341607602382586,map,2.53864765167,0.188778877258,0.0,0.0,0.0,0.0310710273963,0.99951717907
1565341607728958793,49917,1565341607669006857,map,2.54205322266,0.18950843811,0.0,0.0,0.0,0.0332026727026,0.999448639263
1565341607796351345,49918,1565341607735705971,map,2.54420471191,0.1899061203,0.0,0.0,0.0,0.0353082439722,0.999376469559
1565341607863362855,49919,1565341607802459721,map,2.5480298996,0.190068244934,0.0,0.0,0.0,0.0376000897881,0.999292866605
1565341607928602230,49920,1565341607868988054,map,2.54800224304,0.1909532547,0.0,0.0,0.0,0.0408248253002,0.999166319308
1565341607995261866,49921,1565341607935612846,map,2.55073261261,0.190533638,0.0,0.0,0.0,0.0424071708896,0.999100411299
1565341608062638116,49922,1565341608002479200,map,2.55141544342,0.190752029419,0.0,0.0,0.0,0.0450920213648,0.998982837495
1565341608128534991,49923,1565341608069023419,map,2.55180454254,0.190801620483,0.0,0.0,0.0,0.0477111935134,0.998861172543
1565341608197801032,49924,1565341608135691023,map,2.5515794754,0.191210746765,0.0,0.0,0.0,0.0510632812063,0.998695419691
1565341608263539001,49925,1565341608202876283,map,2.55054187775,0.19183921814,0.0,0.0,0.0,0.0541679741008,0.99853183754
1565341608329557959,49926,1565341608269506960,map,2.55181217194,0.191184997559,0.0,0.0,0.0,0.0564944613724,0.998402912573
1565341608395722334,49927,1565341608335719304,map,2.55048942566,0.191996574402,0.0,0.0,0.0,0.0596989012585,0.998216430033
1565341608462772907,49928,1565341608402564356,map,2.54898929596,0.191848754883,0.0,0.0,0.0,0.0624376938425,0.998048863727
1565341608529103116,49929,1565341608469527638,map,2.54733848572,0.19189453125,0.0,0.0,0.0,0.0652852322552,0.99786664362
1565341608596989470,49930,1565341608536319565,map,2.54690551758,0.191026687622,0.0,0.0,0.0,0.0677085293142,0.997705144348
1565341608664694522,49931,1565341608602821127,map,2.54265880585,0.191946029663,0.0,0.0,0.0,0.0712568975631,0.997457996384
1565341608729392022,49932,1565341608668984200,map,2.54183292389,0.191637992859,0.0,0.0,0.0,0.0737542455243,0.997276446762
1565341608795728324,49933,1565341608735613419,map,2.53761005402,0.19105052948,0.0,0.0,0.0,0.0768982826534,0.997038943134
1565341608862447334,49934,1565341608802866127,map,2.53536510468,0.190615653992,0.0,0.0,0.0,0.0791640181216,0.996861604354
1565341608928405720,49935,1565341608868875762,map,2.52993297577,0.190648078918,0.0,0.0,0.0,0.0824855277164,0.996592262521
1565341608995839365,49936,1565341608935599669,map,2.52775287628,0.190664291382,0.0,0.0,0.0,0.0849372518491,0.996386302218
1565341609062098428,49937,1565341609002473106,map,2.52317523956,0.19086933136,0.0,0.0,0.0,0.0879580028549,0.996124183892
1565341609128356240,49938,1565341609068978262,map,2.51842212677,0.19061088562,0.0,0.0,0.0,0.0906515188193,0.995882674885
1565341609195275876,49939,1565341609135648627,map,2.51488780975,0.190477371216,0.0,0.0,0.0,0.0935864274615,0.995611159336
1565341609264260824,49940,1565341609203610502,map,2.51129150391,0.190127372742,0.0,0.0,0.0,0.0958074623846,0.995399884545
1565341609328679105,49941,1565341609269104252,map,2.5059633255,0.189683914185,0.0,0.0,0.0,0.0991123464695,0.99507624973
1565341609395387334,49942,1565341609335608679,map,2.5016412735,0.18936920166,0.0,0.0,0.0,0.101335146528,0.994852344862
1565341609462912178,49943,1565341609402274252,map,2.49540424347,0.188420295715,0.0,0.0,0.0,0.104455346317,0.994529577552
1565341609529175459,49944,1565341609469020398,map,2.48928070068,0.187525749207,0.0,0.0,0.0,0.10734494698,0.994221837599
1565341609595242073,49945,1565341609535695398,map,2.48097801208,0.18639087677,0.0,0.0,0.0,0.111156981701,0.99380286044
1565341609661759573,49946,1565341609602282689,map,2.47419261932,0.185109138489,0.0,0.0,0.0,0.114391091803,0.993435794662
1565341609729292386,49947,1565341609668978366,map,2.46783924103,0.184194564819,0.0,0.0,0.0,0.117896448617,0.993025894629
1565341609797168532,49948,1565341609735725814,map,2.45995426178,0.182597160339,0.0,0.0,0.0,0.121542668998,0.992586207648
1565341609862573011,49949,1565341609802698991,map,2.45250511169,0.180595397949,0.0,0.0,0.0,0.124865544964,0.992173672137
1565341609929185615,49950,1565341609869598939,map,2.44557762146,0.178651809692,0.0,0.0,0.0,0.128093703296,0.991762069841
1565341609995793948,49951,1565341609936340033,map,2.43752098083,0.176861763,0.0,0.0,0.0,0.132189601504,0.991224449484
1565341610063170146,49952,1565341610003268158,map,2.42804813385,0.174832344055,0.0,0.0,0.0,0.135984688298,0.990710938947
1565341610129852021,49953,1565341610069117429,map,2.41970157623,0.172498703003,0.0,0.0,0.0,0.139762479867,0.990185058068
1565341610195489157,49954,1565341610135623835,map,2.41162395477,0.169990539551,0.0,0.0,0.0,0.143175500079,0.989697315434
1565341610262528479,49955,1565341610202563001,map,2.40203857422,0.167948722839,0.0,0.0,0.0,0.146724107193,0.989177454438
1565341610328610511,49956,1565341610268858418,map,2.39501476288,0.165077209473,0.0,0.0,0.0,0.149714450911,0.988729276996
1565341610395617386,49957,1565341610335486856,map,2.38426780701,0.162419319153,0.0,0.0,0.0,0.153136396767,0.988205061708
1565341610463186084,49958,1565341610402352585,map,2.37463092804,0.159016609192,0.0,0.0,0.0,0.156369387335,0.987698645693
1565341610528846188,49959,1565341610469137480,map,2.36520195007,0.156133651733,0.0,0.0,0.0,0.159319688878,0.987227044168
1565341610596415458,49960,1565341610536166595,map,2.35636425018,0.152590751648,0.0,0.0,0.0,0.162065213015,0.986780049824
1565341610661988583,49961,1565341610602239460,map,2.34617137909,0.149026870728,0.0,0.0,0.0,0.165099352721,0.986276940687
1565341610728769990,49962,1565341610668868522,map,2.33627128601,0.145907402039,0.0,0.0,0.0,0.168632878562,0.985678929605
1565341610795730719,49963,1565341610735692376,map,2.32583904266,0.141695022583,0.0,0.0,0.0,0.171698230565,0.985149591494
1565341610861873844,49964,1565341610802163939,map,2.31535816193,0.137945175171,0.0,0.0,0.0,0.174787450064,0.984606188941
1565341610928391969,49965,1565341610868851439,map,2.30588054657,0.133509635925,0.0,0.0,0.0,0.177537927482,0.984113959003
1565341610995213740,49966,1565341610935514251,map,2.29384708405,0.129214286804,0.0,0.0,0.0,0.181217056065,0.983443124228
1565341611062960094,49967,1565341611002291543,map,2.28408336639,0.124234199524,0.0,0.0,0.0,0.184646757014,0.982804952737
1565341611129117281,49968,1565341611068873626,map,2.27328014374,0.120058059692,0.0,0.0,0.0,0.188259636022,0.982119294915
1565341611195000979,49969,1565341611135531126,map,2.26292133331,0.115628242493,0.0,0.0,0.0,0.191291179074,0.981533333519
1565341611263721187,49970,1565341611202948834,map,2.25216674805,0.110876083374,0.0,0.0,0.0,0.19464335611,0.980874081583
1565341611330148427,49971,1565341611269366803,map,2.24100017548,0.10587310791,0.0,0.0,0.0,0.197770088548,0.980248433855
1565341611395534000,49972,1565341611335951074,map,2.22932243347,0.100771903992,0.0,0.0,0.0,0.200647261494,0.979663552683
1565341611462959416,49973,1565341611402571855,map,2.21809387207,0.0952253341675,0.0,0.0,0.0,0.203870631775,0.978997837331
1565341611529624989,49974,1565341611468995188,map,2.20748233795,0.0904893875122,0.0,0.0,0.0,0.206449203338,0.978457319683
1565341611595695198,49975,1565341611535472272,map,2.19577503204,0.084361076355,0.0,0.0,0.0,0.209199395633,0.977873004468
1565341611661782021,49976,1565341611602150605,map,2.18305683136,0.0785655975342,0.0,0.0,0.0,0.212881228599,0.977078084142
1565341611728235510,49977,1565341611668829407,map,2.17288017273,0.0729522705078,0.0,0.0,0.0,0.215342490886,0.976538586856
1565341611796573427,49978,1565341611735467376,map,2.15928173065,0.0661516189575,0.0,0.0,0.0,0.218804196849,0.975768785851
1565341611862347281,49979,1565341611802112324,map,2.14601612091,0.0597152709961,0.0,0.0,0.0,0.222318489577,0.974974096677
1565341611929602437,49980,1565341611869617115,map,2.13471317291,0.0538759231567,0.0,0.0,0.0,0.225386591169,0.974269410646
1565341611995068166,49981,1565341611935654876,map,2.12343883514,0.0478162765503,0.0,0.0,0.0,0.228301713194,0.973590431215
1565341612062503947,49982,1565341612002357897,map,2.11098766327,0.0418033599854,0.0,0.0,0.0,0.231383028516,0.972862731383
1565341612128467437,49983,1565341612068792532,map,2.10119342804,0.0360994338989,0.0,0.0,0.0,0.233553460018,0.97234396245
1565341612195118895,49984,1565341612135527844,map,2.09296894073,0.0309782028198,0.0,0.0,0.0,0.235565415523,0.971858495363
1565341612263072281,49985,1565341612202777896,map,2.08351421356,0.0256023406982,0.0,0.0,0.0,0.236817216499,0.971554221837
1565341612328335979,49986,1565341612268668834,map,2.07739257812,0.020788192749,0.0,0.0,0.0,0.235965006942,0.971761552799
1565341612394916187,49987,1565341612335337063,map,2.06989765167,0.0156917572021,0.0,0.0,0.0,0.234787695419,0.972046674846
1565341612463758218,49988,1565341612402041230,map,2.06375408173,0.0118618011475,0.0,0.0,0.0,0.231696147068,0.972788206874
1565341612528848270,49989,1565341612468611542,map,2.0574388504,0.00661277770996,0.0,0.0,0.0,0.227292817422,0.973826460489
1565341612594980301,49990,1565341612535443990,map,2.05136203766,0.00253486633301,0.0,0.0,0.0,0.221765828466,0.975099952479
1565341612662111499,49991,1565341612602417480,map,2.04586601257,-0.00236320495605,0.0,0.0,0.0,0.214941693727,0.976626882846
1565341612729627333,49992,1565341612669566282,map,2.04038524628,-0.00558471679688,0.0,0.0,0.0,0.207030914809,0.978334401068
1565341612795760926,49993,1565341612735997323,map,2.0344543457,-0.0110006332397,0.0,0.0,0.0,0.199230318792,0.979952692774
1565341612862496656,49994,1565341612802595553,map,2.02753543854,-0.0160474777222,0.0,0.0,0.0,0.191543105386,0.981484202002
1565341612928720874,49995,1565341612868910292,map,2.02243900299,-0.0197420120239,0.0,0.0,0.0,0.184839407586,0.982768738515
1565341612995427124,49996,1565341612935676698,map,2.01842594147,-0.0229816436768,0.0,0.0,0.0,0.176536445078,0.984294104198
1565341613062663999,49997,1565341613002133573,map,2.01173400879,-0.027735710144,0.0,0.0,0.0,0.170392129234,0.985376335364
1565341613129226030,49998,1565341613068785604,map,2.00572013855,-0.0316591262817,0.0,0.0,0.0,0.164795785152,0.986327708825
1565341613198026135,49999,1565341613135479875,map,2.00006961823,-0.0351610183716,0.0,0.0,0.0,0.15902421474,0.987274682713
1565341613264160718,50000,1565341613202762219,map,1.99481678009,-0.0391187667847,0.0,0.0,0.0,0.152889137736,0.988243346328
1565341613328576916,50001,1565341613268861490,map,1.98917388916,-0.0437002182007,0.0,0.0,0.0,0.14787962913,0.989005366663
1565341613395166812,50002,1565341613335542375,map,1.98548698425,-0.0474691390991,0.0,0.0,0.0,0.142580318498,0.989783235248
1565341613463640926,50003,1565341613402702844,map,1.98084831238,-0.0517959594727,0.0,0.0,0.0,0.137850678134,0.990453022883
1565341613529508999,50004,1565341613468898052,map,1.97508049011,-0.0553703308105,0.0,0.0,0.0,0.133755009252,0.991014428502
1565341613595068843,50005,1565341613535514042,map,1.9699382782,-0.0601673126221,0.0,0.0,0.0,0.129773114252,0.991543715031
1565341613662021916,50006,1565341613602213521,map,1.96500396729,-0.0641031265259,0.0,0.0,0.0,0.124915708748,0.992167357711
1565341613728473686,50007,1565341613669094875,map,1.95829772949,-0.0671939849854,0.0,0.0,0.0,0.121727365597,0.992563574017
1565341613796651134,50008,1565341613735586073,map,1.95133209229,-0.0730123519897,0.0,0.0,0.0,0.118928077895,0.992902871528
1565341613861910874,50009,1565341613802272740,map,1.94405651093,-0.0782318115234,0.0,0.0,0.0,0.116135414953,0.993233389186
1565341613928458061,50010,1565341613868938573,map,1.93676280975,-0.0833187103271,0.0,0.0,0.0,0.113520885096,0.993535610156
1565341613995334624,50011,1565341613935636958,map,1.92900180817,-0.0882434844971,0.0,0.0,0.0,0.111056125684,0.993814136017
1565341614065641811,50012,1565341614002902271,map,1.92045593262,-0.0938405990601,0.0,0.0,0.0,0.108554065068,0.994090546659
1565341614129164415,50013,1565341614069727792,map,1.91188621521,-0.0994720458984,0.0,0.0,0.0,0.106311790644,0.994332843252
1565341614196514103,50014,1565341614136033990,map,1.90235614777,-0.104959487915,0.0,0.0,0.0,0.104603326731,0.994514024052
1565341614264117749,50015,1565341614203278521,map,1.89206409454,-0.110926628113,0.0,0.0,0.0,0.102932631884,0.994688329726
1565341614329167592,50016,1565341614268968625,map,1.883436203,-0.116916656494,0.0,0.0,0.0,0.101296336027,0.994856297315
1565341614395648217,50017,1565341614335551802,map,1.87246799469,-0.122718811035,0.0,0.0,0.0,0.10068664408,0.994918187443
1565341614463247436,50018,1565341614402402739,map,1.86268615723,-0.127800941467,0.0,0.0,0.0,0.0992802475559,0.995059512012
1565341614529674884,50019,1565341614468856489,map,1.85213470459,-0.134731292725,0.0,0.0,0.0,0.0984913763697,0.995137904404
1565341614595472019,50020,1565341614535528833,map,1.84107971191,-0.140384674072,0.0,0.0,0.0,0.0977001149956,0.995215899958
1565341614662033165,50021,1565341614602210968,map,1.82988262177,-0.146611213684,0.0,0.0,0.0,0.0971205618741,0.99527262419
1565341614728931499,50022,1565341614669020500,map,1.818983078,-0.151162147522,0.0,0.0,0.0,0.0961539390233,0.995366475229
1565341614795752957,50023,1565341614735584041,map,1.80765628815,-0.158459663391,0.0,0.0,0.0,0.096394431564,0.995343213954
1565341614862376759,50024,1565341614802570187,map,1.79757499695,-0.165016174316,0.0,0.0,0.0,0.0962672335205,0.995355524298
1565341614928729988,50025,1565341614868944875,map,1.7855463028,-0.171287536621,0.0,0.0,0.0,0.0960984222625,0.995371836671
1565341614995135196,50026,1565341614935412166,map,1.77520465851,-0.177402496338,0.0,0.0,0.0,0.0959259520435,0.995388472771
1565341615065228165,50027,1565341615002244302,map,1.76400470734,-0.184148788452,0.0,0.0,0.0,0.0963617274598,0.995346380654
1565341615130005925,50028,1565341615069476958,map,1.75356388092,-0.189343452454,0.0,0.0,0.0,0.0962662397796,0.995355620408
1565341615196025144,50029,1565341615135817375,map,1.74290275574,-0.195864677429,0.0,0.0,0.0,0.0968020598264,0.995303652768
1565341615263194467,50030,1565341615202779718,map,1.73405456543,-0.201672554016,0.0,0.0,0.0,0.0960376990725,0.995377697337
1565341615332191342,50031,1565341615268918520,map,1.72598838806,-0.206623077393,0.0,0.0,0.0,0.0949202190481,0.995484882867
1565341615395693217,50032,1565341615335510916,map,1.71782970428,-0.211778640747,0.0,0.0,0.0,0.0928569502259,0.995679459864
1565341615462617332,50033,1565341615402673104,map,1.71115398407,-0.216501235962,0.0,0.0,0.0,0.0902601860868,0.995918218935
1565341615531020196,50034,1565341615470318729,map,1.70430278778,-0.221508026123,0.0,0.0,0.0,0.0865060391911,0.996251326315
1565341615596103061,50035,1565341615536094770,map,1.69789600372,-0.226170539856,0.0,0.0,0.0,0.0816696424586,0.99665945513
1565341615663151082,50036,1565341615602674979,map,1.69125843048,-0.231214523315,0.0,0.0,0.0,0.076160698885,0.997095556075
1565341615728405613,50037,1565341615668832270,map,1.68439483643,-0.234401702881,0.0,0.0,0.0,0.0692763969718,0.997597504419
1565341615796711811,50038,1565341615735496593,map,1.67844104767,-0.240691184998,0.0,0.0,0.0,0.0618426989164,0.998085908422
1565341615863319779,50039,1565341615803336072,map,1.67192935944,-0.245339393616,0.0,0.0,0.0,0.0533626488109,0.998575198827
1565341615929799206,50040,1565341615869685395,map,1.66644382477,-0.250670433044,0.0,0.0,0.0,0.0439425503408,0.999034059614
1565341615996077175,50041,1565341615936038937,map,1.66054344177,-0.25493812561,0.0,0.0,0.0,0.0343994419713,0.999408164061
1565341616063444623,50042,1565341616002614093,map,1.65559101105,-0.260071754456,0.0,0.0,0.0,0.0233557778011,0.999727216616
1565341616130375144,50043,1565341616068972739,map,1.65068626404,-0.264350891113,0.0,0.0,0.0,0.0123111978655,0.999924214332
1565341616196467279,50044,1565341616135588885,map,1.6457529068,-0.26887512207,0.0,0.0,0.0,0.00141861312007,0.999998993768
1565341616265955040,50045,1565341616203359353,map,1.64137554169,-0.274309158325,0.0,0.0,0.0,-0.00869016028168,0.999962239844
1565341616329642696,50046,1565341616268959457,map,1.63742637634,-0.278043746948,0.0,0.0,0.0,-0.0182107473463,0.999834170591
1565341616396176967,50047,1565341616335453051,map,1.63315868378,-0.282972335815,0.0,0.0,0.0,-0.0276403107642,0.999617933623
1565341616463791446,50048,1565341616402093416,map,1.62905693054,-0.28729724884,0.0,0.0,0.0,-0.0370252459466,0.99931433051
1565341616528958477,50049,1565341616468791905,map,1.62433433533,-0.291996955872,0.0,0.0,0.0,-0.0459903659268,0.998941883316
1565341616596483060,50050,1565341616536111228,map,1.61971759796,-0.296849250793,0.0,0.0,0.0,-0.054568743238,0.998510016105
1565341616662275925,50051,1565341616602593468,map,1.61561107635,-0.301607131958,0.0,0.0,0.0,-0.0626445929737,0.998035898638
1565341616730216602,50052,1565341616668952478,map,1.61039829254,-0.30640411377,0.0,0.0,0.0,-0.0701774324607,0.997534524702
1565341616795818477,50053,1565341616735598624,map,1.60586261749,-0.311803817749,0.0,0.0,0.0,-0.0775463006489,0.99698875182
1565341616862408998,50054,1565341616802497478,map,1.60280609131,-0.316946029663,0.0,0.0,0.0,-0.0847990448203,0.996398074064
1565341616929110716,50055,1565341616869652009,map,1.59744739532,-0.322075843811,0.0,0.0,0.0,-0.0915473093088,0.995800728137
1565341616996018529,50056,1565341616936138832,map,1.59238624573,-0.326986312866,0.0,0.0,0.0,-0.097741853586,0.995211801607
1565341617062785508,50057,1565341617003310030,map,1.58873176575,-0.331665039062,0.0,0.0,0.0,-0.103740301124,0.994604418813
1565341617128564518,50058,1565341617068971957,map,1.58509063721,-0.336590766907,0.0,0.0,0.0,-0.109520035391,0.993984588335
1565341617195099102,50059,1565341617135584770,map,1.57909679413,-0.341451644897,0.0,0.0,0.0,-0.114815293471,0.993386857365
1565341617262825925,50060,1565341617202678363,map,1.57561969757,-0.346422195435,0.0,0.0,0.0,-0.120065633126,0.992765956176
1565341617329544518,50061,1565341617268876332,map,1.56989765167,-0.350769042969,0.0,0.0,0.0,-0.124764299785,0.992186408645
1565341617396818008,50062,1565341617335781905,map,1.56461906433,-0.355612754822,0.0,0.0,0.0,-0.129471045013,0.991583203016
1565341617461999935,50063,1565341617402231488,map,1.5589466095,-0.359521865845,0.0,0.0,0.0,-0.133907420619,0.990993845946
1565341617528652331,50064,1565341617469145186,map,1.55229949951,-0.364072799683,0.0,0.0,0.0,-0.138226828271,0.990400597711
1565341617595875716,50065,1565341617536029301,map,1.54713630676,-0.368489265442,0.0,0.0,0.0,-0.142221718668,0.989834825988
1565341617663067695,50066,1565341617603055915,map,1.53943443298,-0.371905326843,0.0,0.0,0.0,-0.146334815275,0.989235119594
1565341617729188529,50067,1565341617669157686,map,1.53174781799,-0.375517845154,0.0,0.0,0.0,-0.150053158717,0.988677930147
1565341617800861706,50068,1565341617735525030,map,1.5244884491,-0.379552841187,0.0,0.0,0.0,-0.153904132978,0.988085784663
1565341617861732747,50069,1565341617802161228,map,1.5175075531,-0.382510185242,0.0,0.0,0.0,-0.158031752982,0.987434030733
1565341617934789779,50070,1565341617873552946,map,1.50968647003,-0.385854721069,0.0,0.0,0.0,-0.161682539556,0.986842822542
1565341617995448789,50071,1565341617935888051,map,1.502161026,-0.389629364014,0.0,0.0,0.0,-0.165021430452,0.986289981441
1565341618062914883,50072,1565341618002702113,map,1.49458026886,-0.392930984497,0.0,0.0,0.0,-0.168549025527,0.985693271761
1565341618129292799,50073,1565341618069715811,map,1.48692798615,-0.395499229431,0.0,0.0,0.0,-0.171931899949,0.98510883753
1565341618195754987,50074,1565341618135926905,map,1.47799110413,-0.398309707642,0.0,0.0,0.0,-0.17469162787,0.984623194502
1565341618263075403,50075,1565341618203474873,map,1.47039031982,-0.401048660278,0.0,0.0,0.0,-0.177579970272,0.984106373396
1565341618330645456,50076,1565341618270119196,map,1.4610748291,-0.403697013855,0.0,0.0,0.0,-0.180265575567,0.983617975774
1565341618396378320,50077,1565341618336743727,map,1.45160198212,-0.405321121216,0.0,0.0,0.0,-0.182873893302,0.983136378713
1565341618462780924,50078,1565341618403238050,map,1.44166564941,-0.407068252563,0.0,0.0,0.0,-0.185588927127,0.982627472712
1565341618529426080,50079,1565341618469588050,map,1.43084907532,-0.407981872559,0.0,0.0,0.0,-0.187634461316,0.982238926599
1565341618596480872,50080,1565341618536748884,map,1.42111682892,-0.409609794617,0.0,0.0,0.0,-0.189946740309,0.981794395913
1565341618662043007,50081,1565341618602657061,map,1.41147136688,-0.411020278931,0.0,0.0,0.0,-0.191775963292,0.981438729572
1565341618728304205,50082,1565341618668814248,map,1.40111732483,-0.41109752655,0.0,0.0,0.0,-0.193791876792,0.98104266395
1565341618795317903,50083,1565341618735559769,map,1.39000415802,-0.412295341492,0.0,0.0,0.0,-0.194822327783,0.98083854971
1565341618864051653,50084,1565341618802146540,map,1.37946510315,-0.412559509277,0.0,0.0,0.0,-0.19652352736,0.980499109226
1565341618928751289,50085,1565341618868782581,map,1.3692445755,-0.412422180176,0.0,0.0,0.0,-0.198139773592,0.980173775471
1565341618996913945,50086,1565341618936131384,map,1.35864830017,-0.41194152832,0.0,0.0,0.0,-0.199000617049,0.979999364497
1565341619062502851,50087,1565341619002174873,map,1.3461894989,-0.411944389343,0.0,0.0,0.0,-0.199514853399,0.979894802146
1565341619129212539,50088,1565341619069097321,map,1.33513069153,-0.410821914673,0.0,0.0,0.0,-0.200534051698,0.979686732639
1565341619195941861,50089,1565341619135465863,map,1.32271003723,-0.40988445282,0.0,0.0,0.0,-0.201174239329,0.979555473381
1565341619263751705,50090,1565341619202515029,map,1.31329536438,-0.408833503723,0.0,0.0,0.0,-0.201725838858,0.979442027859
1565341619328860872,50091,1565341619268724144,map,1.29978752136,-0.407343864441,0.0,0.0,0.0,-0.2027401291,0.979232577099
1565341619397648163,50092,1565341619335643779,map,1.28799629211,-0.40463924408,0.0,0.0,0.0,-0.203677173615,0.979038103931
1565341619462096028,50093,1565341619402132737,map,1.27477741241,-0.403726577759,0.0,0.0,0.0,-0.203675306248,0.979038492412
1565341619528621705,50094,1565341619468704717,map,1.26276683807,-0.401968955994,0.0,0.0,0.0,-0.203993448265,0.97897225347
1565341619596568840,50095,1565341619535395602,map,1.24989891052,-0.398798942566,0.0,0.0,0.0,-0.20523476602,0.978712772378
1565341619662776913,50096,1565341619602535342,map,1.23752403259,-0.396718978882,0.0,0.0,0.0,-0.205371269859,0.978684137767
1565341619729833840,50097,1565341619669222581,map,1.22458648682,-0.394778251648,0.0,0.0,0.0,-0.20501075107,0.978759721252
1565341619798876913,50098,1565341619735965394,map,1.21157073975,-0.392385482788,0.0,0.0,0.0,-0.205526902694,0.978651466186
1565341619863084830,50099,1565341619802801487,map,1.19972705841,-0.38987159729,0.0,0.0,0.0,-0.205763258663,0.978601799193
1565341619928329882,50100,1565341619868775394,map,1.186876297,-0.387135505676,0.0,0.0,0.0,-0.205901146878,0.978572796329
1565341619996688944,50101,1565341619936024352,map,1.17137432098,-0.38450717926,0.0,0.0,0.0,-0.206624584648,0.978420298757
1565341620062778944,50102,1565341620002725237,map,1.15858745575,-0.381540298462,0.0,0.0,0.0,-0.206719059484,0.978400342624
1565341620128663684,50103,1565341620068816435,map,1.14501667023,-0.378558158875,0.0,0.0,0.0,-0.206833593057,0.978376136659
1565341620194919569,50104,1565341620135258414,map,1.13213825226,-0.376114845276,0.0,0.0,0.0,-0.206954188482,0.97835063442
1565341620263510507,50105,1565341620202408518,map,1.1193561554,-0.37412071228,0.0,0.0,0.0,-0.206948123797,0.978351917286
1565341620328299986,50106,1565341620268621383,map,1.10658073425,-0.371366500854,0.0,0.0,0.0,-0.207392924013,0.978257724258
1565341620396101653,50107,1565341620335696383,map,1.09564685822,-0.368808746338,0.0,0.0,0.0,-0.208070887758,0.978113748839
1565341620462258267,50108,1565341620402031956,map,1.08408641815,-0.367062568665,0.0,0.0,0.0,-0.208516978639,0.978018747069
1565341620528184726,50109,1565341620468708623,map,1.07264232635,-0.365676879883,0.0,0.0,0.0,-0.209131127912,0.9778876067
1565341620595127590,50110,1565341620535583258,map,1.06237316132,-0.363780975342,0.0,0.0,0.0,-0.209843102047,0.977735072769
1565341620661950663,50111,1565341620602013622,map,1.05331993103,-0.361667633057,0.0,0.0,0.0,-0.211278834093,0.977425830569
1565341620728258059,50112,1565341620668721070,map,1.04495716095,-0.360903739929,0.0,0.0,0.0,-0.211644919571,0.977346626341
1565341620794915246,50113,1565341620735505497,map,1.03577232361,-0.360105514526,0.0,0.0,0.0,-0.212941708762,0.977064905045
1565341620861894100,50114,1565341620802213987,map,1.02688121796,-0.36011505127,0.0,0.0,0.0,-0.213860603868,0.976864188162
1565341620928352902,50115,1565341620868796487,map,1.01885414124,-0.358266830444,0.0,0.0,0.0,-0.215431487326,0.976518957455
1565341620994803215,50116,1565341620935318154,map,1.01036071777,-0.35764503479,0.0,0.0,0.0,-0.216158292438,0.976358332074
1565341621063213319,50117,1565341621002363310,map,1.00241374969,-0.355386734009,0.0,0.0,0.0,-0.217988974183,0.975951231945
1565341621130046496,50118,1565341621069234716,map,0.993993759155,-0.355167388916,0.0,0.0,0.0,-0.218924034603,0.975741905974
1565341621195326913,50119,1565341621135900706,map,0.985898017883,-0.354116439819,0.0,0.0,0.0,-0.220129149205,0.97547073645
1565341621264550298,50120,1565341621202884820,map,0.97901725769,-0.353622436523,0.0,0.0,0.0,-0.221528297992,0.975153943328
1565341621331753579,50121,1565341621269611695,map,0.970697402954,-0.352670669556,0.0,0.0,0.0,-0.222686198195,0.97489017696
1565341621396590142,50122,1565341621335298570,map,0.963165283203,-0.352422714233,0.0,0.0,0.0,-0.223764313497,0.974643284492
1565341621461321496,50123,1565341621401917268,map,0.956197738647,-0.350706100464,0.0,0.0,0.0,-0.225537181051,0.97423456106
1565341621528760506,50124,1565341621468582476,map,0.949687004089,-0.350131034851,0.0,0.0,0.0,-0.226669604314,0.973971709281
1565341621596200715,50125,1565341621535489403,map,0.942785263062,-0.350992202759,0.0,0.0,0.0,-0.227430961236,0.973794207146
1565341621666526444,50126,1565341621602089924,map,0.93713092804,-0.350127220154,0.0,0.0,0.0,-0.228706775409,0.973495357401
1565341621729690246,50127,1565341621668614195,map,0.931144714355,-0.349863052368,0.0,0.0,0.0,-0.229754339357,0.973248654531
1565341621795390246,50128,1565341621735185028,map,0.925793647766,-0.349718093872,0.0,0.0,0.0,-0.231600735428,0.972810926824
1565341621861761027,50129,1565341621801975393,map,0.920141220093,-0.348978042603,0.0,0.0,0.0,-0.232957568342,0.97248690035
1565341621929093475,50130,1565341621868657216,map,0.913557052612,-0.348443984985,0.0,0.0,0.0,-0.234318351764,0.972159919986
1565341621995333162,50131,1565341621935277424,map,0.908309936523,-0.347675323486,0.0,0.0,0.0,-0.235945357024,0.97176632402
1565341622062326704,50132,1565341622002156174,map,0.902269363403,-0.347836494446,0.0,0.0,0.0,-0.237107099129,0.971483516866
1565341622128743527,50133,1565341622068657476,map,0.897143363953,-0.347196578979,0.0,0.0,0.0,-0.23849657437,0.971143338552
1565341622195321392,50134,1565341622135293934,map,0.890958786011,-0.347373008728,0.0,0.0,0.0,-0.239705715328,0.970845595365
1565341622263281704,50135,1565341622202484559,map,0.884867668152,-0.346837997437,0.0,0.0,0.0,-0.24120580164,0.970473987933
1565341622329051964,50136,1565341622268880809,map,0.879480361938,-0.346988677979,0.0,0.0,0.0,-0.242689815416,0.970103939531
1565341622395050662,50137,1565341622335187736,map,0.8746509552,-0.346687316895,0.0,0.0,0.0,-0.244732729736,0.969590579057
1565341622462984256,50138,1565341622402514559,map,0.869198799133,-0.346373558044,0.0,0.0,0.0,-0.246491286475,0.969145007567
1565341622529255558,50139,1565341622469100184,map,0.864120483398,-0.346833229065,0.0,0.0,0.0,-0.248050867257,0.9687470089
1565341622595185193,50140,1565341622535787372,map,0.859118461609,-0.34695148468,0.0,0.0,0.0,-0.249696612208,0.968324120247
1565341622661457798,50141,1565341622601979351,map,0.854391098022,-0.345587730408,0.0,0.0,0.0,-0.251899584106,0.96775337743
1565341622731847745,50142,1565341622669271643,map,0.849474906921,-0.345314025879,0.0,0.0,0.0,-0.253289935595,0.967390411637
1565341622795539829,50143,1565341622735575913,map,0.844236373901,-0.345571517944,0.0,0.0,0.0,-0.254477329607,0.967078739667
1565341622861528266,50144,1565341622801959090,map,0.840083122253,-0.345138549805,0.0,0.0,0.0,-0.25474501109,0.967008262284
1565341622928393475,50145,1565341622868633101,map,0.8349609375,-0.344590187073,0.0,0.0,0.0,-0.254135609672,0.967168595384
1565341622995304933,50146,1565341622935261955,map,0.831685066223,-0.343542098999,0.0,0.0,0.0,-0.25274442266,0.967533077892
1565341623062398839,50147,1565341623002272997,map,0.826512336731,-0.343355178833,0.0,0.0,0.0,-0.249943862044,0.968260329574
1565341623129158422,50148,1565341623068791069,map,0.822607040405,-0.343176841736,0.0,0.0,0.0,-0.245582872938,0.969375599301
1565341623196786547,50149,1565341623135964663,map,0.817799568176,-0.343410491943,0.0,0.0,0.0,-0.240162374419,0.970732730422
1565341623263206756,50150,1565341623202485028,map,0.815246582031,-0.343550682068,0.0,0.0,0.0,-0.235341998263,0.971912621512
1565341623329306183,50151,1565341623268804299,map,0.811655044556,-0.343487739563,0.0,0.0,0.0,-0.230999280645,0.972953920976
1565341623395706704,50152,1565341623335152684,map,0.807046890259,-0.343641281128,0.0,0.0,0.0,-0.226905990419,0.973916665589
1565341623463297485,50153,1565341623401889559,map,0.803220748901,-0.344274520874,0.0,0.0,0.0,-0.22217086552,0.975007746899
1565341623529044412,50154,1565341623468880913,map,0.8004322052,-0.343945503235,0.0,0.0,0.0,-0.216366161833,0.976312288161
1565341623596467485,50155,1565341623535291069,map,0.795946121216,-0.344507217407,0.0,0.0,0.0,-0.209539815578,0.977800115406
1565341623662738943,50156,1565341623602191434,map,0.793188095093,-0.343674659729,0.0,0.0,0.0,-0.203001605178,0.979178404733
1565341623727929776,50157,1565341623668540132,map,0.789004325867,-0.34347820282,0.0,0.0,0.0,-0.19660370954,0.980483034731
1565341623796415610,50158,1565341623735401069,map,0.786305427551,-0.344405174255,0.0,0.0,0.0,-0.191358268027,0.981520256163
1565341623863266599,50159,1565341623802734142,map,0.781911849976,-0.344821929932,0.0,0.0,0.0,-0.185995615476,0.982550574283
1565341623928497537,50160,1565341623869044975,map,0.777607917786,-0.345375061035,0.0,0.0,0.0,-0.180542059033,0.983567265071
1565341623995367797,50161,1565341623935741173,map,0.775030136108,-0.345674514771,0.0,0.0,0.0,-0.175124494515,0.984546297246
1565341624061485193,50162,1565341624002019507,map,0.771626472473,-0.346099853516,0.0,0.0,0.0,-0.169963597121,0.985450341546
1565341624128891235,50163,1565341624068576590,map,0.769534111023,-0.346487045288,0.0,0.0,0.0,-0.165395777127,0.98622727447
1565341624195464620,50164,1565341624135298204,map,0.76646232605,-0.347525596619,0.0,0.0,0.0,-0.16084299618,0.986980005157
1565341624262718630,50165,1565341624202270496,map,0.762927055359,-0.348499298096,0.0,0.0,0.0,-0.156501316807,0.987677749996
1565341624329440245,50166,1565341624268533881,map,0.758893966675,-0.348880767822,0.0,0.0,0.0,-0.153026308705,0.988222115136
1565341624396009880,50167,1565341624335327579,map,0.756174087524,-0.348886489868,0.0,0.0,0.0,-0.149535027363,0.98875642885
1565341624463429880,50168,1565341624401973517,map,0.751812934875,-0.349229812622,0.0,0.0,0.0,-0.145400776148,0.989372838871
1565341624528945193,50169,1565341624468851486,map,0.749422073364,-0.349452972412,0.0,0.0,0.0,-0.141911142236,0.989879400588
1565341624595202224,50170,1565341624535343673,map,0.74409198761,-0.350331306458,0.0,0.0,0.0,-0.138169448473,0.990408604319
1565341624662387068,50171,1565341624601884142,map,0.742193222046,-0.351022720337,0.0,0.0,0.0,-0.135341683178,0.990798985059
1565341624728482068,50172,1565341624668471121,map,0.73822593689,-0.350025177002,0.0,0.0,0.0,-0.132879332133,0.99113222281
1565341624796810505,50173,1565341624736099767,map,0.734400749207,-0.349949836731,0.0,0.0,0.0,-0.13019419439,0.99148851317
1565341624861975088,50174,1565341624801891381,map,0.732767105103,-0.347865104675,0.0,0.0,0.0,-0.127447327754,0.991845340085
1565341624929580557,50175,1565341624868629923,map,0.730062484741,-0.347551345825,0.0,0.0,0.0,-0.124054600911,0.992275393222
1565341624995368213,50176,1565341624935415235,map,0.729650497437,-0.345425605774,0.0,0.0,0.0,-0.120753909925,0.992682473522
1565341625061750505,50177,1565341625002032996,map,0.72571849823,-0.340695381165,0.0,0.0,0.0,-0.118191751897,0.992990790382
1565341625128228630,50178,1565341625068584767,map,0.724493026733,-0.334531784058,0.0,0.0,0.0,-0.116062885622,0.99324186711
1565341625195163057,50179,1565341625135361694,map,0.723965644836,-0.327389717102,0.0,0.0,0.0,-0.114244722469,0.993452637718
1565341625262898890,50180,1565341625203079246,map,0.72221660614,-0.317536354065,0.0,0.0,0.0,-0.11319988076,0.993572235419
1565341625329024880,50181,1565341625269179975,map,0.721674919128,-0.310313224792,0.0,0.0,0.0,-0.11107072733,0.993812504213
1565341625395709515,50182,1565341625335934975,map,0.72105884552,-0.302367210388,0.0,0.0,0.0,-0.108769237664,0.994067026381
1565341625461838526,50183,1565341625402056173,map,0.720888137817,-0.293839454651,0.0,0.0,0.0,-0.106666770103,0.99429482557
1565341625528644619,50184,1565341625468770964,map,0.720118522644,-0.285519599915,0.0,0.0,0.0,-0.105087590523,0.994462969807
1565341625595253734,50185,1565341625535255912,map,0.719531059265,-0.277177810669,0.0,0.0,0.0,-0.103918859977,0.994585778373
1565341625661838317,50186,1565341625601912318,map,0.718554496765,-0.269717216492,0.0,0.0,0.0,-0.10303788982,0.994677431764
1565341625729262640,50187,1565341625668561277,map,0.717951774597,-0.261854171753,0.0,0.0,0.0,-0.102268545841,0.994756826833
1565341625798472744,50188,1565341625735347943,map,0.717348098755,-0.255766868591,0.0,0.0,0.0,-0.101314370032,0.994854460926
1565341625862379671,50189,1565341625801939610,map,0.716247558594,-0.249764442444,0.0,0.0,0.0,-0.100631471064,0.994923769458
1565341625929526442,50190,1565341625868590548,map,0.714665412903,-0.244504928589,0.0,0.0,0.0,-0.0996854389724,0.995019001455
1565341625997212119,50191,1565341625936131798,map,0.713958740234,-0.238668441772,0.0,0.0,0.0,-0.099180361318,0.995069472916
1565341626062110453,50192,1565341626001937943,map,0.712364196777,-0.233601570129,0.0,0.0,0.0,-0.0986693267323,0.995120276129
1565341626128429828,50193,1565341626068570652,map,0.71284198761,-0.228181838989,0.0,0.0,0.0,-0.098325538121,0.995154303891
1565341626195246025,50194,1565341626135225235,map,0.709833145142,-0.224007606506,0.0,0.0,0.0,-0.0977050755868,0.995215412966
1565341626263036286,50195,1565341626202477266,map,0.708888053894,-0.218434333801,0.0,0.0,0.0,-0.09772002408,0.995213945287
1565341626329977588,50196,1565341626268658724,map,0.707723617554,-0.213531494141,0.0,0.0,0.0,-0.0974374226479,0.995241653403
1565341626395610609,50197,1565341626335230391,map,0.705629348755,-0.20795249939,0.0,0.0,0.0,-0.0976860933414,0.995217276361
1565341626462730869,50198,1565341626401975704,map,0.704053878784,-0.202797889709,0.0,0.0,0.0,-0.0976020964793,0.99522551754
1565341626528583682,50199,1565341626468594089,map,0.702379226685,-0.19745349884,0.0,0.0,0.0,-0.0978068672709,0.995205414331
1565341626595844567,50200,1565341626535270079,map,0.700506210327,-0.1928358078,0.0,0.0,0.0,-0.0978540849775,0.995200772735
1565341626663746911,50201,1565341626602575026,map,0.697909355164,-0.188581466675,0.0,0.0,0.0,-0.0979497060904,0.995191366058
1565341626729600973,50202,1565341626669345860,map,0.697319030762,-0.18527507782,0.0,0.0,0.0,-0.0979964485883,0.995186764414
1565341626796325817,50203,1565341626736003516,map,0.695492744446,-0.180855751038,0.0,0.0,0.0,-0.0987198619546,0.995115264105
1565341626862654046,50204,1565341626801981537,map,0.693760871887,-0.177636146545,0.0,0.0,0.0,-0.0991573487156,0.995071766354
1565341626931509671,50205,1565341626868719453,map,0.691983222961,-0.174098968506,0.0,0.0,0.0,-0.0996266055061,0.995024893897
1565341626995851858,50206,1565341626935894505,map,0.69052696228,-0.171095848083,0.0,0.0,0.0,-0.0999350028636,0.99499396742
1565341627064476494,50207,1565341627001912162,map,0.688423156738,-0.16660118103,0.0,0.0,0.0,-0.100644517512,0.994922449789
1565341627128867119,50208,1565341627068663360,map,0.68678855896,-0.163561820984,0.0,0.0,0.0,-0.100929637387,0.994893566316
1565341627195889358,50209,1565341627135405807,map,0.685121536255,-0.158897399902,0.0,0.0,0.0,-0.101933420941,0.99479122317
1565341627263595400,50210,1565341627202368620,map,0.682245254517,-0.155676841736,0.0,0.0,0.0,-0.102339696132,0.994749509472
1565341627328628994,50211,1565341627268669609,map,0.68044757843,-0.151578903198,0.0,0.0,0.0,-0.103243733448,0.994656087049
1565341627395555192,50212,1565341627335293464,map,0.678689956665,-0.148469924927,0.0,0.0,0.0,-0.103972924946,0.994580127933
1565341627462803525,50213,1565341627402333203,map,0.676501274109,-0.145596504211,0.0,0.0,0.0,-0.104674793084,0.994506504601
1565341627530748473,50214,1565341627468637630,map,0.675359725952,-0.141489028931,0.0,0.0,0.0,-0.10556865096,0.994412017191
1565341627595440035,50215,1565341627535542839,map,0.67262840271,-0.140196800232,0.0,0.0,0.0,-0.105705922921,0.99439743456
1565341627663606181,50216,1565341627602754245,map,0.671867370605,-0.136172294617,0.0,0.0,0.0,-0.106684549463,0.994292918061
1565341627729114358,50217,1565341627668880703,map,0.6703748703,-0.134355545044,0.0,0.0,0.0,-0.107115984793,0.994246531702
1565341627796262066,50218,1565341627735356484,map,0.668973922729,-0.131441116333,0.0,0.0,0.0,-0.108228615373,0.994126031655
1565341627861550816,50219,1565341627801962422,map,0.667360305786,-0.128312110901,0.0,0.0,0.0,-0.109247973208,0.994014527233
1565341627928390869,50220,1565341627868755443,map,0.66761302948,-0.126386642456,0.0,0.0,0.0,-0.110123377441,0.993917925053
1565341627996854514,50221,1565341627935897943,map,0.666658401489,-0.124194145203,0.0,0.0,0.0,-0.1103439924,0.993893456735
1565341628062443421,50222,1565341628002722474,map,0.66667175293,-0.120730400085,0.0,0.0,0.0,-0.111431821679,0.993772081072
1565341628128964879,50223,1565341628069380026,map,0.668489456177,-0.118181228638,0.0,0.0,0.0,-0.112231199936,0.993682121083
1565341628196448733,50224,1565341628136463099,map,0.669665336609,-0.116024971008,0.0,0.0,0.0,-0.113353381588,0.993554734719
1565341628262635191,50225,1565341628202904922,map,0.67086315155,-0.114148139954,0.0,0.0,0.0,-0.114467602562,0.993426981697
1565341628328621285,50226,1565341628268760286,map,0.674557685852,-0.1117811203,0.0,0.0,0.0,-0.11588006841,0.993263212721
1565341628395869358,50227,1565341628335441745,map,0.678680419922,-0.110485076904,0.0,0.0,0.0,-0.116707924225,0.993166280349
1565341628462066597,50228,1565341628402296901,map,0.682703018188,-0.108859062195,0.0,0.0,0.0,-0.118082610607,0.993003774954
1565341628528238264,50229,1565341628468719088,map,0.687871932983,-0.107357978821,0.0,0.0,0.0,-0.119374221334,0.992849331611
1565341628596661806,50230,1565341628535484974,map,0.693641662598,-0.106817245483,0.0,0.0,0.0,-0.1205958102,0.992701692636
1565341628662759462,50231,1565341628602403619,map,0.699900627136,-0.105592727661,0.0,0.0,0.0,-0.121503658467,0.992590983729
1565341628729102639,50232,1565341628669243099,map,0.705454826355,-0.104803085327,0.0,0.0,0.0,-0.1227651525,0.992435749725
1565341628797098472,50233,1565341628735696119,map,0.712361335754,-0.104264259338,0.0,0.0,0.0,-0.1243436926,0.99223920811
1565341628862575139,50234,1565341628802300598,map,0.719281196594,-0.103361129761,0.0,0.0,0.0,-0.125823997832,0.992052580043
1565341628928974097,50235,1565341628868819817,map,0.726570129395,-0.103364944458,0.0,0.0,0.0,-0.12714416168,0.991884248363
1565341628996611441,50236,1565341628935424401,map,0.734868049622,-0.102533340454,0.0,0.0,0.0,-0.128598635264,0.991696723302
1565341629062664306,50237,1565341629002325703,map,0.743499755859,-0.102518081665,0.0,0.0,0.0,-0.129603434499,0.991565907928
1565341629130256024,50238,1565341629069548723,map,0.753087997437,-0.103501319885,0.0,0.0,0.0,-0.130996220538,0.991382867617
1565341629196311597,50239,1565341629135685338,map,0.763117790222,-0.103306770325,0.0,0.0,0.0,-0.132534319759,0.991178416879
1565341629262560712,50240,1565341629202578932,map,0.772615432739,-0.103723526001,0.0,0.0,0.0,-0.133907893162,0.990993782094
1565341629328527899,50241,1565341629268720650,map,0.78223991394,-0.104674339294,0.0,0.0,0.0,-0.135514125294,0.990775414433
1565341629395535868,50242,1565341629335505911,map,0.792207717896,-0.106184959412,0.0,0.0,0.0,-0.13673362239,0.990607852032
1565341629462578368,50243,1565341629402859973,map,0.80219745636,-0.106882095337,0.0,0.0,0.0,-0.13839117278,0.990377646808
1565341629529554722,50244,1565341629469331692,map,0.812098503113,-0.106900215149,0.0,0.0,0.0,-0.139928175517,0.990161656345
1565341629595523524,50245,1565341629535946223,map,0.823153495789,-0.107968330383,0.0,0.0,0.0,-0.141500008183,0.989938254481
1565341629661810503,50246,1565341629602174088,map,0.83464050293,-0.109288215637,0.0,0.0,0.0,-0.14287091031,0.989741331352
1565341629729376441,50247,1565341629668983827,map,0.845754623413,-0.108910560608,0.0,0.0,0.0,-0.144427916832,0.989515324207
1565341629797097899,50248,1565341629735546379,map,0.856599807739,-0.110754013062,0.0,0.0,0.0,-0.14580271195,0.98931368594
1565341629862882899,50249,1565341629802402525,map,0.867467880249,-0.111392974854,0.0,0.0,0.0,-0.147141380488,0.989115470584
1565341629929324566,50250,1565341629869119296,map,0.877723693848,-0.11171245575,0.0,0.0,0.0,-0.148727103746,0.988878277955
