%time,field.linear.x,field.linear.y,field.linear.z,field.angular.x,field.angular.y,field.angular.z
1565341597514249005,1550.0,1550.0,1550.0,1550.0,0.0,0.0
1565341597564162495,1550.0,1550.0,1550.0,1550.0,0.0,0.0
1565341597614099838,1550.0,1550.0,1550.0,1550.0,0.0,0.0
1565341597664199005,1550.0,1550.0,1550.0,1550.0,0.0,0.0
1565341597714104005,1550.0,1550.0,1550.0,1550.0,0.0,0.0
1565341597764150828,1550.0,1550.0,1550.0,1550.0,0.0,0.0
1565341597814398276,1550.0,1550.0,1550.0,1550.0,0.0,0.0
1565341597864789370,1550.0,1550.0,1550.0,1550.0,0.0,0.0
1565341597914932338,1550.0,1550.0,1550.0,1550.0,0.0,0.0
1565341597965081401,1550.0,1550.0,1550.0,1550.0,0.0,0.0
1565341598014697182,1550.0,1550.0,1550.0,1550.0,0.0,0.0
1565341598065933067,1550.0,1550.0,1550.0,1550.0,0.0,0.0
1565341598115106713,1550.0,1550.0,1550.0,1550.0,0.0,0.0
1565341598164563484,1550.0,1550.0,1550.0,1550.0,0.0,0.0
1565341598215168797,1550.0,1550.0,1550.0,1550.0,0.0,0.0
1565341598265877546,1550.0,1550.0,1550.0,1550.0,0.0,0.0
1565341598315348953,1550.0,1550.0,1550.0,1550.0,0.0,0.0
1565341598365325984,1550.0,1550.0,1550.0,1550.0,0.0,0.0
1565341598415101453,1550.0,1550.0,1550.0,1550.0,0.0,0.0
1565341598465198119,1550.0,1550.0,1550.0,1550.0,0.0,0.0
1565341598515133588,1550.0,1550.0,1550.0,1550.0,0.0,0.0
1565341598565152078,1550.0,1550.0,1550.0,1550.0,0.0,0.0
1565341598615288067,1550.0,1550.0,1550.0,1550.0,0.0,0.0
1565341598664603848,1550.0,1550.0,1550.0,1550.0,0.0,0.0
1565341598715110359,1550.0,1550.0,1555.5917941,1555.5917941,0.0,0.0
1565341598765109578,1550.0,1550.0,1555.5917941,1555.5917941,0.0,0.0
1565341598815147650,1550.0,1550.0,1556.67439774,1556.67439774,0.0,0.0
1565341598865299265,1550.0,1550.0,1556.67439774,1556.67439774,0.0,0.0
1565341598915146557,1550.0,1550.0,1564.27190006,1564.27190006,0.0,0.0
1565341598965098588,1550.0,1550.0,1564.27190006,1564.27190006,0.0,0.0
1565341599014612077,1550.0,1550.0,1566.4435342,1566.4435342,0.0,0.0
1565341599065232077,1550.0,1550.0,1566.4435342,1566.4435342,0.0,0.0
1565341599115165723,1550.0,1550.0,1566.4435342,1566.4435342,0.0,0.0
1565341599165147494,1550.0,1550.0,1566.4435342,1566.4435342,0.0,0.0
1565341599215279682,1550.0,1550.0,1565.35771638,1565.35771638,0.0,0.0
1565341599264626973,1550.0,1550.0,1565.35771638,1565.35771638,0.0,0.0
1565341599315104734,1550.0,1550.0,1565.35771638,1565.35771638,0.0,0.0
1565341599364958692,1550.0,1550.0,1601.17038488,1601.17038488,0.0,0.0
1565341599414917129,1550.0,1550.0,1601.17038488,1601.17038488,0.0,0.0
1565341599465065202,1550.0,1550.0,1613.10794353,1613.10794353,0.0,0.0
1565341599514952129,1550.0,1550.0,1613.10794353,1613.10794353,0.0,0.0
1565341599565507286,1550.0,1550.0,1613.10794353,1613.10794353,0.0,0.0
1565341599615000046,1550.0,1550.0,1617.44799614,1617.44799614,0.0,0.0
1565341599664948588,1550.0,1550.0,1617.44799614,1617.44799614,0.0,0.0
1565341599714861504,1550.0,1550.0,1631.55718446,1631.55718446,0.0,0.0
1565341599765070202,1550.0,1550.0,1631.55718446,1631.55718446,0.0,0.0
1565341599815002963,1550.0,1550.0,1631.55718446,1631.55718446,0.0,0.0
1565341599865064994,1550.0,1550.0,1641.32310748,1641.32310748,0.0,0.0
1565341599914922129,1550.0,1550.0,1641.32310748,1641.32310748,0.0,0.0
1565341599964904733,1550.0,1550.0,1643.49473715,1643.49473715,0.0,0.0
1565341600014925150,1550.0,1550.0,1643.49473715,1643.49473715,0.0,0.0
1565341600065082754,1550.0,1550.0,1643.49473715,1643.49473715,0.0,0.0
1565341600114994108,1550.0,1550.0,1643.49473715,1643.49473715,0.0,0.0
1565341600165068796,1550.0,1550.0,1643.49473715,1643.49473715,0.0,0.0
1565341600214900671,1550.0,1550.0,1643.49473715,1643.49473715,0.0,0.0
1565341600264959212,1550.0,1550.0,1643.49473715,1643.49473715,0.0,0.0
1565341600315049004,1550.0,1550.0,1643.49473715,1643.49473715,0.0,0.0
1565341600365016504,1550.0,1550.0,1642.40892529,1642.40892529,0.0,0.0
1565341600415081660,1550.0,1550.0,1642.40892529,1642.40892529,0.0,0.0
1565341600465015358,1550.0,1550.0,1642.40892529,1642.40892529,0.0,0.0
1565341600514938431,1550.0,1550.0,1640.23728967,1640.23728967,0.0,0.0
1565341600565078900,1550.0,1550.0,1640.23728967,1640.23728967,0.0,0.0
1565341600614913327,1550.0,1550.0,1640.23728967,1640.23728967,0.0,0.0
1565341600665066400,1550.0,1550.0,1634.81141925,1634.81141925,0.0,0.0
1565341600714595202,1550.0,1550.0,1634.81141925,1634.81141925,0.0,0.0
1565341600764960983,1550.0,1550.0,1634.81141925,1634.81141925,0.0,0.0
1565341600815049785,1550.0,1550.0,1634.81141925,1634.81141925,0.0,0.0
1565341600865101243,1550.0,1550.0,1634.81141925,1634.81141925,0.0,0.0
1565341600914862545,1550.0,1550.0,1634.81141925,1634.81141925,0.0,0.0
1565341600964984368,1550.0,1550.0,1634.81141925,1634.81141925,0.0,0.0
1565341601014896816,1550.0,1550.0,1634.81141925,1634.81141925,0.0,0.0
1565341601064926191,1550.0,1550.0,1634.81141925,1634.81141925,0.0,0.0
1565341601114871712,1550.0,1550.0,1634.81141925,1634.81141925,0.0,0.0
1565341601164998014,1550.0,1550.0,1634.81141925,1634.81141925,0.0,0.0
1565341601214986816,1550.0,1550.0,1634.81141925,1634.81141925,0.0,0.0
1565341601264943952,1550.0,1550.0,1634.81141925,1634.81141925,0.0,0.0
1565341601314884264,1550.0,1550.0,1634.81141925,1634.81141925,0.0,0.0
1565341601364876608,1550.0,1550.0,1634.81141925,1634.81141925,0.0,0.0
1565341601415383795,1550.0,1550.0,1634.81141925,1634.81141925,0.0,0.0
1565341601465051712,1550.0,1550.0,1634.81141925,1634.81141925,0.0,0.0
1565341601514891399,1550.0,1550.0,1634.81141925,1634.81141925,0.0,0.0
1565341601564838951,1550.0,1550.0,1634.81141925,1634.81141925,0.0,0.0
1565341601614869420,1550.0,1550.0,1634.81141925,1634.81141925,0.0,0.0
1565341601664950358,1550.0,1550.0,1634.81141925,1634.81141925,0.0,0.0
1565341601714848066,1550.0,1550.0,1550.0,1550.0,0.0,0.0
1565341601764886399,1550.0,1550.0,1550.0,1550.0,0.0,0.0
1565341601814880358,1550.0,1550.0,1550.0,1550.0,0.0,0.0
1565341601864900462,1550.0,1550.0,1550.0,1550.0,0.0,0.0
1565341601916727024,1550.0,1550.0,1550.0,1550.0,0.0,0.0
1565341601965089472,1550.0,1550.0,1550.0,1550.0,0.0,0.0
1565341602014915930,1550.0,1550.0,1550.0,1550.0,0.0,0.0
1565341602065056712,1550.0,1550.0,1550.0,1550.0,0.0,0.0
1565341602114905983,1550.0,1550.0,1550.0,1550.0,0.0,0.0
1565341602164849316,1550.0,1550.0,1550.0,1550.0,0.0,0.0
1565341602215093274,1550.0,1550.0,1550.0,1550.0,0.0,0.0
1565341602265461503,1550.0,1550.0,1550.0,1550.0,0.0,0.0
1565341602314959576,1550.0,1550.0,1550.0,1550.0,0.0,0.0
1565341602364968170,1550.0,1550.0,1550.0,1550.0,0.0,0.0
1565341602415060305,1550.0,1550.0,1550.0,1550.0,0.0,0.0
1565341602464905149,1550.0,1550.0,1550.0,1550.0,0.0,0.0
1565341602515261607,1550.0,1550.0,1550.0,1550.0,0.0,0.0
1565341602564927180,1550.0,1550.0,1550.0,1550.0,0.0,0.0
1565341602615034889,1550.0,1550.0,1550.0,1550.0,0.0,0.0
1565341602664992961,1550.0,1550.0,1550.0,1550.0,0.0,0.0
1565341602715170253,1550.0,1550.0,1550.0,1550.0,0.0,0.0
1565341602765294524,1550.0,1550.0,1550.0,1550.0,0.0,0.0
1565341602814915566,1550.0,1550.0,1550.0,1550.0,0.0,0.0
1565341602865501347,1550.0,1550.0,1550.0,1550.0,0.0,0.0
1565341602914897441,1550.0,1550.0,1550.0,1550.0,0.0,0.0
1565341602964962545,1550.0,1550.0,1550.0,1550.0,0.0,0.0
1565341603015092180,1550.0,1550.0,1550.0,1550.0,0.0,0.0
1565341603065031347,1550.0,1550.0,1562.1034801,1562.1034801,0.0,0.0
1565341603114981972,1550.0,1550.0,1562.1034801,1562.1034801,0.0,0.0
1565341603164925878,1550.0,1550.0,1577.29527354,1577.29527354,0.0,0.0
1565341603214966503,1550.0,1550.0,1577.29527354,1577.29527354,0.0,0.0
1565341603265191451,1550.0,1550.0,1590.31864405,1590.31864405,0.0,0.0
1565341603315304420,1550.0,1550.0,1590.31864405,1590.31864405,0.0,0.0
1565341603364982492,1550.0,1550.0,1590.31864405,1590.31864405,0.0,0.0
1565341603414910253,1550.0,1550.0,1590.31864405,1590.31864405,0.0,0.0
1565341603464802597,1550.0,1550.0,1590.31864405,1590.31864405,0.0,0.0
1565341603515087753,1550.0,1550.0,1590.31864405,1590.31864405,0.0,0.0
1565341603564973742,1550.0,1550.0,1590.31864405,1590.31864405,0.0,0.0
1565341603614939159,1550.0,1550.0,1590.31864405,1590.31864405,0.0,0.0
1565341603665187492,1550.0,1550.0,1590.31864405,1590.31864405,0.0,0.0
1565341603714981347,1550.0,1550.0,1590.31864405,1590.31864405,0.0,0.0
1565341603764988430,1550.0,1550.0,1616.36217833,1616.36217833,0.0,0.0
1565341603815020461,1550.0,1550.0,1616.36217833,1616.36217833,0.0,0.0
1565341603865252596,1550.0,1550.0,1621.78804874,1621.78804874,0.0,0.0
1565341603914962909,1550.0,1550.0,1621.78804874,1621.78804874,0.0,0.0
1565341603964612701,1550.0,1550.0,1621.78804874,1621.78804874,0.0,0.0
1565341604015150721,1550.0,1550.0,1632.63978958,1632.63978958,0.0,0.0
1565341604065317023,1550.0,1550.0,1632.63978958,1632.63978958,0.0,0.0
1565341604115040617,1550.0,1550.0,1632.63978958,1632.63978958,0.0,0.0
1565341604165082440,1550.0,1550.0,1640.23728967,1640.23728967,0.0,0.0
1565341604215039159,1550.0,1550.0,1640.23728967,1640.23728967,0.0,0.0
1565341604265044628,1550.0,1550.0,1644.57734227,1644.57734227,0.0,0.0
1565341604314967753,1550.0,1550.0,1644.57734227,1644.57734227,0.0,0.0
1565341604364978586,1550.0,1550.0,1644.57734227,1644.57734227,0.0,0.0
1565341604414980513,1550.0,1550.0,1644.57734227,1644.57734227,0.0,0.0
1565341604465367805,1550.0,1550.0,1645.66316009,1645.66316009,0.0,0.0
1565341604514976242,1550.0,1550.0,1645.66316009,1645.66316009,0.0,0.0
1565341604565004836,1550.0,1550.0,1645.66316009,1645.66316009,0.0,0.0
1565341604615061450,1550.0,1550.0,1646.7489779,1646.7489779,0.0,0.0
1565341604664958846,1550.0,1550.0,1646.7489779,1646.7489779,0.0,0.0
1565341604715159992,1550.0,1550.0,1646.7489779,1646.7489779,0.0,0.0
1565341604764994159,1550.0,1550.0,1646.7489779,1646.7489779,0.0,0.0
1565341604814948950,1550.0,1550.0,1650.0,1650.0,0.0,0.0
1565341604864949106,1550.0,1550.0,1650.0,1650.0,0.0,0.0
1565341604914906086,1550.0,1550.0,1650.0,1650.0,0.0,0.0
1565341604964927804,1550.0,1550.0,1550.0,1550.0,0.0,0.0
1565341605014972544,1550.0,1550.0,1550.0,1550.0,0.0,0.0
1565341605065313377,1550.0,1550.0,1550.0,1550.0,0.0,0.0
1565341605115036346,1550.0,1550.0,1550.0,1550.0,0.0,0.0
1565341605165004106,1550.0,1550.0,1550.0,1550.0,0.0,0.0
1565341605215012231,1550.0,1550.0,1550.0,1550.0,0.0,0.0
1565341605265310408,1550.0,1550.0,1550.0,1550.0,0.0,0.0
1565341605314987908,1550.0,1550.0,1550.0,1550.0,0.0,0.0
1565341605365029054,1550.0,1550.0,1550.0,1550.0,0.0,0.0
1565341605415096346,1550.0,1550.0,1550.0,1550.0,0.0,0.0
1565341605465667440,1550.0,1550.0,1550.0,1550.0,0.0,0.0
1565341605514918377,1550.0,1550.0,1550.0,1550.0,0.0,0.0
1565341605565225200,1550.0,1550.0,1550.0,1550.0,0.0,0.0
1565341605615243794,1550.0,1550.0,1550.0,1550.0,0.0,0.0
1565341605664930460,1550.0,1550.0,1550.0,1550.0,0.0,0.0
1565341605715379835,1550.0,1550.0,1550.0,1550.0,0.0,0.0
1565341605765087960,1550.0,1550.0,1550.0,1550.0,0.0,0.0
1565341605814951085,1550.0,1550.0,1550.0,1550.0,0.0,0.0
1565341605865766502,1550.0,1550.0,1550.0,1550.0,0.0,0.0
1565341605915218846,1550.0,1550.0,1550.0,1550.0,0.0,0.0
1565341605965401814,1550.0,1550.0,1550.0,1550.0,0.0,0.0
1565341606015044887,1550.0,1550.0,1550.0,1550.0,0.0,0.0
1565341606065762231,1550.0,1550.0,1550.0,1550.0,0.0,0.0
1565341606115198429,1550.0,1550.0,1550.0,1550.0,0.0,0.0
1565341606165030825,1550.0,1550.0,1550.0,1550.0,0.0,0.0
1565341606215541241,1550.0,1550.0,1550.0,1550.0,0.0,0.0
1565341606265350877,1550.0,1550.0,1550.0,1550.0,0.0,0.0
1565341606315188689,1550.0,1550.0,1550.0,1550.0,0.0,0.0
1565341606365062491,1550.0,1550.0,1550.0,1550.0,0.0,0.0
1565341606415212231,1550.0,1550.0,1550.0,1550.0,0.0,0.0
1565341606465285564,1550.0,1550.0,1550.0,1550.0,0.0,0.0
1565341606515560981,1550.0,1550.0,1550.0,1550.0,0.0,0.0
1565341606565075720,1550.0,1550.0,1550.0,1550.0,0.0,0.0
1565341606614962439,1550.0,1550.0,1550.0,1550.0,0.0,0.0
1565341606665310408,1550.0,1550.0,1550.0,1550.0,0.0,0.0
1565341606715034731,1550.0,1550.0,1550.0,1550.0,0.0,0.0
1565341606765234054,1550.0,1550.0,1550.0,1550.0,0.0,0.0
1565341606815424835,1563.18287104,1563.18287104,1550.0,1550.0,0.0,0.0
1565341606865152647,1563.18287104,1563.18287104,1550.0,1550.0,0.0,0.0
1565341606914652074,1563.18287104,1563.18287104,1550.0,1550.0,0.0,0.0
1565341606964914783,1563.18287104,1563.18287104,1550.0,1550.0,0.0,0.0
1565341607014948064,1563.18287104,1563.18287104,1550.0,1550.0,0.0,0.0
1565341607065724731,1563.18287104,1563.18287104,1550.0,1550.0,0.0,0.0
1565341607115312022,1577.29206085,1577.29206085,1550.0,1550.0,0.0,0.0
1565341607165131762,1577.29206085,1577.29206085,1550.0,1550.0,0.0,0.0
1565341607215214054,1581.63211346,1581.63211346,1550.0,1550.0,0.0,0.0
1565341607265416866,1581.63211346,1581.63211346,1550.0,1550.0,0.0,0.0
1565341607314857960,1587.05798388,1587.05798388,1550.0,1550.0,0.0,0.0
1565341607365185303,1587.05798388,1587.05798388,1550.0,1550.0,0.0,0.0
1565341607414936918,1587.05798388,1587.05798388,1550.0,1550.0,0.0,0.0
1565341607465456918,1591.40124917,1591.40124917,1550.0,1550.0,0.0,0.0
1565341607515159939,1591.40124917,1591.40124917,1550.0,1550.0,0.0,0.0
1565341607565272335,1591.40124917,1591.40124917,1550.0,1550.0,0.0,0.0
1565341607615074991,1592.48385429,1592.48385429,1550.0,1550.0,0.0,0.0
1565341607665226189,1592.48385429,1592.48385429,1550.0,1550.0,0.0,0.0
1565341607715067022,1598.99553955,1598.99553955,1550.0,1550.0,0.0,0.0
1565341607764994470,1598.99553955,1598.99553955,1550.0,1550.0,0.0,0.0
1565341607815231501,1607.67886043,1607.67886043,1550.0,1550.0,0.0,0.0
1565341607865005199,1607.67886043,1607.67886043,1550.0,1550.0,0.0,0.0
1565341607914982491,1607.67886043,1607.67886043,1550.0,1550.0,0.0,0.0
1565341607964981293,1607.67886043,1607.67886043,1550.0,1550.0,0.0,0.0
1565341608014908897,1607.67886043,1607.67886043,1550.0,1550.0,0.0,0.0
1565341608065234887,1612.01891303,1612.01891303,1550.0,1550.0,0.0,0.0
1565341608114925564,1612.01891303,1612.01891303,1550.0,1550.0,0.0,0.0
1565341608164921241,1616.35896564,1616.35896564,1550.0,1550.0,0.0,0.0
1565341608215059939,1616.35896564,1616.35896564,1550.0,1550.0,0.0,0.0
1565341608265571761,1616.35896564,1616.35896564,1550.0,1550.0,0.0,0.0
1565341608315189470,1616.35896564,1616.35896564,1550.0,1550.0,0.0,0.0
1565341608364866449,1616.35896564,1616.35896564,1550.0,1550.0,0.0,0.0
1565341608415085668,1616.35896564,1616.35896564,1550.0,1550.0,0.0,0.0
1565341608465093272,1622.87065387,1622.87065387,1550.0,1550.0,0.0,0.0
1565341608515102959,1622.87065387,1622.87065387,1550.0,1550.0,0.0,0.0
1565341608565096293,1623.95646572,1623.95646572,1550.0,1550.0,0.0,0.0
1565341608615106865,1623.95646572,1623.95646572,1550.0,1550.0,0.0,0.0
1565341608665103949,1623.95646572,1623.95646572,1550.0,1550.0,0.0,0.0
1565341608714953845,1623.95646572,1623.95646572,1550.0,1550.0,0.0,0.0
1565341608765221136,1631.55397177,1631.55397177,1550.0,1550.0,0.0,0.0
1565341608814973688,1631.55397177,1631.55397177,1550.0,1550.0,0.0,0.0
1565341608864897959,1631.55397177,1631.55397177,1550.0,1550.0,0.0,0.0
1565341608915075407,1631.55397177,1631.55397177,1550.0,1550.0,0.0,0.0
1565341608965548688,1641.31989479,1641.31989479,1550.0,1550.0,0.0,0.0
1565341609014952334,1650.0,1650.0,1550.0,1550.0,0.0,0.0
1565341609065038480,1650.0,1650.0,1550.0,1550.0,0.0,0.0
1565341609114900772,1650.0,1650.0,1550.0,1550.0,0.0,0.0
1565341609165185251,1650.0,1650.0,1550.0,1550.0,0.0,0.0
1565341609215208428,1650.0,1650.0,1550.0,1550.0,0.0,0.0
1565341609265371188,1650.0,1650.0,1550.0,1550.0,0.0,0.0
1565341609315142021,1650.0,1650.0,1550.0,1550.0,0.0,0.0
1565341609365074626,1650.0,1650.0,1550.0,1550.0,0.0,0.0
1565341609415074157,1650.0,1650.0,1550.0,1550.0,0.0,0.0
1565341609465284157,1650.0,1650.0,1550.0,1550.0,0.0,0.0
1565341609515025771,1650.0,1650.0,1550.0,1550.0,0.0,0.0
1565341609565314573,1650.0,1650.0,1550.0,1550.0,0.0,0.0
1565341609615691917,1650.0,1650.0,1550.0,1550.0,0.0,0.0
1565341609665076136,1650.0,1650.0,1550.0,1550.0,0.0,0.0
1565341609714892178,1650.0,1650.0,1550.0,1550.0,0.0,0.0
1565341609764842959,1650.0,1650.0,1550.0,1550.0,0.0,0.0
1565341609815577855,1650.0,1650.0,1550.0,1550.0,0.0,0.0
1565341609864973740,1650.0,1650.0,1550.0,1550.0,0.0,0.0
1565341609914589365,1650.0,1650.0,1550.0,1550.0,0.0,0.0
1565341609965307282,1650.0,1650.0,1550.0,1550.0,0.0,0.0
1565341610015049209,1650.0,1650.0,1550.0,1550.0,0.0,0.0
1565341610065105459,1650.0,1650.0,1550.0,1550.0,0.0,0.0
1565341610115101969,1650.0,1650.0,1550.0,1550.0,0.0,0.0
1565341610164871500,1650.0,1650.0,1550.0,1550.0,0.0,0.0
1565341610214665719,1650.0,1650.0,1550.0,1550.0,0.0,0.0
1565341610265080511,1650.0,1650.0,1550.0,1550.0,0.0,0.0
1565341610315197438,1650.0,1650.0,1550.0,1550.0,0.0,0.0
1565341610364866136,1650.0,1650.0,1550.0,1550.0,0.0,0.0
1565341610414900615,1650.0,1650.0,1550.0,1550.0,0.0,0.0
1565341610465156656,1650.0,1650.0,1550.0,1550.0,0.0,0.0
1565341610515156188,1650.0,1650.0,1550.0,1550.0,0.0,0.0
1565341610564883479,1650.0,1650.0,1550.0,1550.0,0.0,0.0
1565341610615073063,1650.0,1650.0,1550.0,1550.0,0.0,0.0
1565341610664640198,1650.0,1650.0,1550.0,1550.0,0.0,0.0
1565341610715182281,1650.0,1650.0,1550.0,1550.0,0.0,0.0
1565341610765202438,1650.0,1650.0,1550.0,1550.0,0.0,0.0
1565341610814928323,1650.0,1650.0,1550.0,1550.0,0.0,0.0
1565341610865107333,1650.0,1650.0,1550.0,1550.0,0.0,0.0
1565341610915112073,1650.0,1650.0,1550.0,1550.0,0.0,0.0
1565341610965103271,1650.0,1650.0,1550.0,1550.0,0.0,0.0
1565341611014950458,1650.0,1650.0,1550.0,1550.0,0.0,0.0
1565341611065258896,1650.0,1650.0,1550.0,1550.0,0.0,0.0
1565341611114848479,1650.0,1650.0,1550.0,1550.0,0.0,0.0
1565341611165187021,1650.0,1650.0,1550.0,1550.0,0.0,0.0
1565341611214951448,1650.0,1650.0,1550.0,1550.0,0.0,0.0
1565341611265185146,1650.0,1650.0,1550.0,1550.0,0.0,0.0
1565341611315130354,1650.0,1650.0,1550.0,1550.0,0.0,0.0
1565341611364595927,1650.0,1650.0,1550.0,1550.0,0.0,0.0
1565341611414965250,1650.0,1650.0,1550.0,1550.0,0.0,0.0
1565341611465630875,1650.0,1650.0,1550.0,1550.0,0.0,0.0
1565341611514826864,1650.0,1650.0,1550.0,1550.0,0.0,0.0
1565341611565223375,1650.0,1650.0,1550.0,1550.0,0.0,0.0
1565341611614641656,1650.0,1650.0,1550.0,1550.0,0.0,0.0
1565341611665114416,1650.0,1650.0,1550.0,1550.0,0.0,0.0
1565341611714838635,1550.0,1550.0,1550.0,1550.0,0.0,0.0
1565341611765518896,1550.0,1550.0,1550.0,1550.0,0.0,0.0
1565341611814934677,1550.0,1550.0,1550.0,1550.0,0.0,0.0
1565341611865067281,1550.0,1550.0,1550.0,1550.0,0.0,0.0
1565341611915244573,1550.0,1550.0,1550.0,1550.0,0.0,0.0
1565341611965360823,1550.0,1550.0,1550.0,1550.0,0.0,0.0
1565341612015140666,1550.0,1550.0,1550.0,1550.0,0.0,0.0
1565341612065071395,1575.5835861,1550.0,1550.0,1575.5835861,0.0,0.0
1565341612115200041,1575.5835861,1550.0,1550.0,1575.5835861,0.0,0.0
1565341612165125927,1575.5835861,1550.0,1550.0,1575.5835861,0.0,0.0
1565341612215557177,1590.23407698,1550.0,1550.0,1590.23407698,0.0,0.0
1565341612265018895,1590.77698588,1550.0,1550.0,1590.77698588,0.0,0.0
1565341612314971916,1590.77698588,1550.0,1550.0,1590.77698588,0.0,0.0
1565341612364955510,1590.77698588,1550.0,1550.0,1590.77698588,0.0,0.0
1565341612415388479,1590.23407698,1550.0,1550.0,1590.23407698,0.0,0.0
1565341612465490301,1590.23407698,1550.0,1550.0,1590.23407698,0.0,0.0
1565341612514979208,1590.23407698,1550.0,1550.0,1590.23407698,0.0,0.0
1565341612564974468,1590.23407698,1550.0,1550.0,1590.23407698,0.0,0.0
1565341612614970614,1584.80820656,1550.0,1550.0,1584.80820656,0.0,0.0
1565341612665586395,1550.0,1550.0,1550.0,1550.0,0.0,0.0
1565341612715176551,1550.0,1550.0,1550.0,1550.0,0.0,0.0
1565341612765550197,1550.0,1550.0,1550.0,1550.0,0.0,0.0
1565341612815007124,1550.0,1550.0,1550.0,1550.0,0.0,0.0
1565341612865262281,1550.0,1550.0,1550.0,1550.0,0.0,0.0
1565341612915334364,1550.0,1550.0,1550.0,1550.0,0.0,0.0
1565341612964991655,1550.0,1550.0,1550.0,1550.0,0.0,0.0
1565341613014938583,1550.0,1550.0,1550.0,1550.0,0.0,0.0
1565341613065423895,1550.0,1550.0,1550.0,1550.0,0.0,0.0
1565341613115250770,1550.0,1550.0,1550.0,1550.0,0.0,0.0
1565341613165485353,1550.0,1550.0,1550.0,1550.0,0.0,0.0
1565341613215198999,1550.0,1550.0,1550.0,1550.0,0.0,0.0
1565341613266025562,1564.26868886,1564.26868886,1550.0,1550.0,0.0,0.0
1565341613315161291,1564.26868886,1564.26868886,1550.0,1550.0,0.0,0.0
1565341613365027645,1608.76467228,1608.76467228,1550.0,1550.0,0.0,0.0
1565341613414989259,1608.76467228,1608.76467228,1550.0,1550.0,0.0,0.0
1565341613465416707,1633.72238874,1633.72238874,1550.0,1550.0,0.0,0.0
1565341613515096655,1633.72238874,1633.72238874,1550.0,1550.0,0.0,0.0
1565341613565325249,1633.72238874,1633.72238874,1550.0,1550.0,0.0,0.0
1565341613615103478,1633.72238874,1633.72238874,1550.0,1550.0,0.0,0.0
1565341613665402124,1633.72238874,1633.72238874,1550.0,1550.0,0.0,0.0
1565341613715059103,1633.72238874,1633.72238874,1550.0,1550.0,0.0,0.0
1565341613765294520,1634.80820656,1634.80820656,1550.0,1550.0,0.0,0.0
1565341613815668478,1634.80820656,1634.80820656,1550.0,1550.0,0.0,0.0
1565341613865850405,1634.80820656,1634.80820656,1550.0,1550.0,0.0,0.0
1565341613915081186,1634.80820656,1634.80820656,1550.0,1550.0,0.0,0.0
1565341613965514155,1634.80820656,1634.80820656,1550.0,1550.0,0.0,0.0
1565341614015195718,1633.72238874,1633.72238874,1550.0,1550.0,0.0,0.0
1565341614065932332,1633.72238874,1633.72238874,1550.0,1550.0,0.0,0.0
1565341614115542124,1633.72238874,1633.72238874,1550.0,1550.0,0.0,0.0
1565341614165296082,1634.80820656,1634.80820656,1550.0,1550.0,0.0,0.0
1565341614214681551,1634.80820656,1634.80820656,1550.0,1550.0,0.0,0.0
1565341614265694884,1634.80820656,1634.80820656,1550.0,1550.0,0.0,0.0
1565341614315243634,1635.89402437,1635.89402437,1550.0,1550.0,0.0,0.0
1565341614365150249,1635.89402437,1635.89402437,1550.0,1550.0,0.0,0.0
1565341614415267384,1641.31989479,1641.31989479,1550.0,1550.0,0.0,0.0
1565341614465375457,1641.31989479,1641.31989479,1550.0,1550.0,0.0,0.0
1565341614515693738,1641.31989479,1641.31989479,1550.0,1550.0,0.0,0.0
1565341614564776915,1641.31989479,1641.31989479,1550.0,1550.0,0.0,0.0
1565341614615324259,1641.31989479,1641.31989479,1550.0,1550.0,0.0,0.0
1565341614664783999,1641.31989479,1641.31989479,1550.0,1550.0,0.0,0.0
1565341614715354259,1641.31989479,1641.31989479,1550.0,1550.0,0.0,0.0
1565341614764561759,1550.0,1550.0,1550.0,1550.0,0.0,0.0
1565341614815195926,1550.0,1550.0,1550.0,1550.0,0.0,0.0
1565341614867189884,1550.0,1550.0,1550.0,1550.0,0.0,0.0
1565341614915781915,1550.0,1550.0,1550.0,1550.0,0.0,0.0
1565341614964951967,1550.0,1550.0,1550.0,1550.0,0.0,0.0
1565341615015969207,1550.0,1550.0,1550.0,1550.0,0.0,0.0
1565341615065377696,1563.64603043,1550.0,1550.0,1563.64603043,0.0,0.0
1565341615115173113,1563.64603043,1550.0,1550.0,1563.64603043,0.0,0.0
1565341615165209207,1572.87065089,1550.0,1550.0,1572.87065089,0.0,0.0
1565341615215010561,1572.87065089,1550.0,1550.0,1572.87065089,0.0,0.0
1565341615265682748,1578.83943021,1550.0,1550.0,1578.83943021,0.0,0.0
1565341615315699155,1578.83943021,1550.0,1550.0,1578.83943021,0.0,0.0
1565341615365457384,1583.17948282,1550.0,1550.0,1583.17948282,0.0,0.0
1565341615414744988,1583.17948282,1550.0,1550.0,1583.17948282,0.0,0.0
1565341615466190352,1585.35111547,1550.0,1550.0,1585.35111547,0.0,0.0
1565341615515833321,1585.35111547,1550.0,1550.0,1585.35111547,0.0,0.0
1565341615565018425,1585.35111547,1550.0,1550.0,1585.35111547,0.0,0.0
1565341615615305352,1585.35111547,1550.0,1550.0,1585.35111547,0.0,0.0
1565341615665758425,1585.89241803,1550.0,1550.0,1585.89241803,0.0,0.0
1565341615715187540,1585.89241803,1550.0,1550.0,1585.89241803,0.0,0.0
1565341615765681550,1585.89241803,1550.0,1550.0,1585.89241803,0.0,0.0
1565341615815276811,1585.89241803,1550.0,1550.0,1585.89241803,0.0,0.0
1565341615866146811,1585.89241803,1550.0,1550.0,1585.89241803,0.0,0.0
1565341615915001915,1585.89241803,1550.0,1550.0,1585.89241803,0.0,0.0
1565341615965717279,1585.89241803,1550.0,1550.0,1585.89241803,0.0,0.0
1565341616014722696,1550.0,1550.0,1550.0,1550.0,0.0,0.0
1565341616065847904,1550.0,1550.0,1550.0,1550.0,0.0,0.0
1565341616114797748,1550.0,1550.0,1550.0,1550.0,0.0,0.0
1565341616165241446,1550.0,1550.0,1550.0,1550.0,0.0,0.0
1565341616215145613,1550.0,1550.0,1550.0,1550.0,0.0,0.0
1565341616265304258,1550.0,1550.0,1550.0,1550.0,0.0,0.0
1565341616315191029,1550.0,1550.0,1550.0,1550.0,0.0,0.0
1565341616364990196,1550.0,1550.0,1550.0,1550.0,0.0,0.0
1565341616414970300,1550.0,1550.0,1550.0,1550.0,0.0,0.0
1565341616465728217,1550.0,1550.0,1550.0,1550.0,0.0,0.0
1565341616515117852,1550.0,1550.0,1550.0,1550.0,0.0,0.0
1565341616565079258,1550.0,1550.0,1550.0,1550.0,0.0,0.0
1565341616615000196,1550.0,1550.0,1550.0,1550.0,0.0,0.0
1565341616665665873,1570.78037411,1570.78037411,1550.0,1550.0,0.0,0.0
1565341616715892019,1570.78037411,1570.78037411,1550.0,1550.0,0.0,0.0
1565341616765335352,1580.54629862,1580.54629862,1550.0,1550.0,0.0,0.0
1565341616815337227,1580.54629862,1580.54629862,1550.0,1550.0,0.0,0.0
1565341616865366081,1580.54629862,1580.54629862,1550.0,1550.0,0.0,0.0
1565341616915082852,1580.54629862,1580.54629862,1550.0,1550.0,0.0,0.0
1565341616965177539,1590.31543434,1590.31543434,1550.0,1550.0,0.0,0.0
1565341617015126498,1590.31543434,1590.31543434,1550.0,1550.0,0.0,0.0
1565341617065553789,1593.56966913,1593.56966913,1550.0,1550.0,0.0,0.0
1565341617115263268,1593.56966913,1593.56966913,1550.0,1550.0,0.0,0.0
1565341617165242435,1593.56966913,1593.56966913,1550.0,1550.0,0.0,0.0
1565341617215090196,1593.56966913,1593.56966913,1550.0,1550.0,0.0,0.0
1565341617265546133,1594.65548694,1594.65548694,1550.0,1550.0,0.0,0.0
1565341617315045508,1594.65548694,1594.65548694,1550.0,1550.0,0.0,0.0
1565341617365122643,1607.67886043,1607.67886043,1550.0,1550.0,0.0,0.0
1565341617415150248,1607.67886043,1607.67886043,1550.0,1550.0,0.0,0.0
1565341617465329831,1609.8472774,1609.8472774,1550.0,1550.0,0.0,0.0
1565341617514804362,1609.8472774,1609.8472774,1550.0,1550.0,0.0,0.0
1565341617565277383,1609.8472774,1609.8472774,1550.0,1550.0,0.0,0.0
1565341617614809050,1609.8472774,1609.8472774,1550.0,1550.0,0.0,0.0
1565341617665579779,1609.8472774,1609.8472774,1550.0,1550.0,0.0,0.0
1565341617715151081,1609.8472774,1609.8472774,1550.0,1550.0,0.0,0.0
1565341617765096185,1609.8472774,1609.8472774,1550.0,1550.0,0.0,0.0
1565341617815082435,1610.93309522,1610.93309522,1550.0,1550.0,0.0,0.0
1565341617865215039,1610.93309522,1610.93309522,1550.0,1550.0,0.0,0.0
1565341617915108685,1610.93309522,1610.93309522,1550.0,1550.0,0.0,0.0
1565341617965096237,1610.93309522,1610.93309522,1550.0,1550.0,0.0,0.0
1565341618015394362,1610.93309522,1610.93309522,1550.0,1550.0,0.0,0.0
1565341618065407799,1618.5305953,1618.5305953,1550.0,1550.0,0.0,0.0
1565341618114976914,1618.5305953,1618.5305953,1550.0,1550.0,0.0,0.0
1565341618164979101,1625.04228354,1625.04228354,1550.0,1550.0,0.0,0.0
1565341618215664987,1625.04228354,1625.04228354,1550.0,1550.0,0.0,0.0
1565341618266051758,1625.04228354,1625.04228354,1550.0,1550.0,0.0,0.0
1565341618315542799,1629.38233614,1629.38233614,1550.0,1550.0,0.0,0.0
1565341618365729310,1629.38233614,1629.38233614,1550.0,1550.0,0.0,0.0
1565341618415354258,1629.38233614,1629.38233614,1550.0,1550.0,0.0,0.0
1565341618465445403,1629.38233614,1629.38233614,1550.0,1550.0,0.0,0.0
1565341618515134622,1629.38233614,1629.38233614,1550.0,1550.0,0.0,0.0
1565341618565180820,1629.38233614,1629.38233614,1550.0,1550.0,0.0,0.0
1565341618615107070,1629.38233614,1629.38233614,1550.0,1550.0,0.0,0.0
1565341618666467487,1629.38233614,1629.38233614,1550.0,1550.0,0.0,0.0
1565341618715206653,1629.38233614,1629.38233614,1550.0,1550.0,0.0,0.0
1565341618765369778,1630.46815395,1630.46815395,1550.0,1550.0,0.0,0.0
1565341618815207070,1630.46815395,1630.46815395,1550.0,1550.0,0.0,0.0
1565341618865641601,1630.46815395,1630.46815395,1550.0,1550.0,0.0,0.0
1565341618915471028,1630.46815395,1630.46815395,1550.0,1550.0,0.0,0.0
1565341618965070768,1630.46815395,1630.46815395,1550.0,1550.0,0.0,0.0
1565341619015283059,1630.46815395,1630.46815395,1550.0,1550.0,0.0,0.0
1565341619064968059,1632.63657689,1632.63657689,1550.0,1550.0,0.0,0.0
1565341619115098789,1632.63657689,1632.63657689,1550.0,1550.0,0.0,0.0
1565341619165292330,1650.0,1650.0,1550.0,1550.0,0.0,0.0
1565341619215262799,1650.0,1650.0,1550.0,1550.0,0.0,0.0
1565341619265722330,1650.0,1650.0,1550.0,1550.0,0.0,0.0
1565341619315191445,1650.0,1650.0,1550.0,1550.0,0.0,0.0
1565341619365216393,1650.0,1650.0,1550.0,1550.0,0.0,0.0
1565341619414924257,1650.0,1650.0,1550.0,1550.0,0.0,0.0
1565341619465418788,1650.0,1650.0,1550.0,1550.0,0.0,0.0
1565341619515088059,1650.0,1650.0,1550.0,1550.0,0.0,0.0
1565341619565297486,1650.0,1650.0,1550.0,1550.0,0.0,0.0
1565341619615007851,1650.0,1650.0,1550.0,1550.0,0.0,0.0
1565341619665468007,1650.0,1650.0,1550.0,1550.0,0.0,0.0
1565341619715287955,1650.0,1650.0,1550.0,1550.0,0.0,0.0
1565341619765025767,1650.0,1650.0,1550.0,1550.0,0.0,0.0
1565341619815249049,1650.0,1650.0,1550.0,1550.0,0.0,0.0
1565341619865194205,1650.0,1650.0,1550.0,1550.0,0.0,0.0
1565341619915006549,1650.0,1650.0,1550.0,1550.0,0.0,0.0
1565341619965097278,1650.0,1650.0,1550.0,1550.0,0.0,0.0
1565341620015148163,1550.0,1550.0,1550.0,1550.0,0.0,0.0
1565341620065606705,1550.0,1550.0,1550.0,1550.0,0.0,0.0
1565341620115577538,1550.0,1550.0,1550.0,1550.0,0.0,0.0
1565341620165217434,1550.0,1550.0,1550.0,1550.0,0.0,0.0
1565341620215195507,1550.0,1550.0,1550.0,1550.0,0.0,0.0
1565341620265432330,1550.0,1550.0,1550.0,1550.0,0.0,0.0
1565341620315399986,1550.0,1550.0,1550.0,1550.0,0.0,0.0
1565341620365048319,1550.0,1550.0,1550.0,1550.0,0.0,0.0
1565341620414989882,1550.0,1550.0,1550.0,1550.0,0.0,0.0
1565341620465145090,1550.0,1550.0,1550.0,1550.0,0.0,0.0
1565341620514979048,1550.0,1550.0,1550.0,1550.0,0.0,0.0
1565341620564875455,1550.0,1550.0,1550.0,1550.0,0.0,0.0
1565341620615078736,1550.0,1550.0,1550.0,1550.0,0.0,0.0
1565341620665031444,1550.0,1550.0,1550.0,1550.0,0.0,0.0
1565341620715033371,1550.0,1550.0,1550.0,1550.0,0.0,0.0
1565341620764981444,1550.0,1550.0,1550.0,1550.0,0.0,0.0
1565341620815004673,1550.0,1550.0,1550.0,1550.0,0.0,0.0
1565341620865041965,1550.0,1550.0,1550.0,1550.0,0.0,0.0
1565341620915026652,1550.0,1550.0,1550.0,1550.0,0.0,0.0
1565341620965000142,1550.0,1550.0,1550.0,1550.0,0.0,0.0
1565341621014936913,1550.0,1550.0,1550.0,1550.0,0.0,0.0
1565341621065676652,1550.0,1550.0,1550.0,1550.0,0.0,0.0
1565341621114607694,1550.0,1550.0,1550.0,1550.0,0.0,0.0
1565341621165142173,1550.0,1550.0,1550.0,1550.0,0.0,0.0
1565341621214938996,1550.0,1550.0,1550.0,1550.0,0.0,0.0
1565341621265151652,1550.0,1550.0,1550.0,1550.0,0.0,0.0
1565341621315029256,1550.0,1550.0,1550.0,1550.0,0.0,0.0
1565341621364925142,1550.0,1550.0,1550.0,1550.0,0.0,0.0
1565341621415078736,1550.0,1550.0,1550.0,1550.0,0.0,0.0
1565341621465188788,1550.0,1550.0,1550.0,1550.0,0.0,0.0
1565341621514914100,1550.0,1550.0,1550.0,1550.0,0.0,0.0
1565341621565026756,1550.0,1550.0,1550.0,1550.0,0.0,0.0
1565341621615577381,1550.0,1550.0,1550.0,1550.0,0.0,0.0
1565341621664965142,1550.0,1550.0,1550.0,1550.0,0.0,0.0
1565341621714968423,1550.0,1550.0,1550.0,1550.0,0.0,0.0
1565341621764672329,1550.0,1550.0,1550.0,1550.0,0.0,0.0
1565341621814961913,1550.0,1550.0,1550.0,1550.0,0.0,0.0
1565341621865075558,1550.0,1550.0,1550.0,1550.0,0.0,0.0
1565341621914994621,1550.0,1550.0,1550.0,1550.0,0.0,0.0
1565341621964629933,1550.0,1550.0,1550.0,1550.0,0.0,0.0
1565341622015044933,1550.0,1550.0,1550.0,1550.0,0.0,0.0
1565341622064945871,1550.0,1550.0,1550.0,1550.0,0.0,0.0
1565341622114589152,1550.0,1550.0,1550.0,1550.0,0.0,0.0
1565341622164948162,1550.0,1550.0,1550.0,1550.0,0.0,0.0
1565341622215145142,1550.0,1550.0,1550.0,1550.0,0.0,0.0
1565341622265368579,1550.0,1550.0,1550.0,1550.0,0.0,0.0
1565341622314939464,1550.0,1550.0,1550.0,1550.0,0.0,0.0
1565341622364961704,1550.0,1550.0,1550.0,1550.0,0.0,0.0
1565341622414976391,1550.0,1550.0,1550.0,1550.0,0.0,0.0
1565341622465314985,1550.0,1550.0,1550.0,1550.0,0.0,0.0
1565341622514972954,1550.0,1550.0,1550.0,1550.0,0.0,0.0
1565341622564930714,1550.0,1550.0,1550.0,1550.0,0.0,0.0
1565341622615109725,1550.0,1573.41516614,1573.41516614,1550.0,0.0,0.0
1565341622665284829,1550.0,1573.41516614,1573.41516614,1550.0,0.0,0.0
1565341622715102016,1550.0,1573.41516614,1573.41516614,1550.0,0.0,0.0
1565341622765410193,1550.0,1579.38394248,1579.38394248,1550.0,0.0,0.0
1565341622815250923,1550.0,1579.38394248,1579.38394248,1550.0,0.0,0.0
1565341622865469360,1550.0,1590.77859223,1590.77859223,1550.0,0.0,0.0
1565341622915078579,1550.0,1590.77859223,1590.77859223,1550.0,0.0,0.0
1565341622965276495,1550.0,1594.57573593,1594.57573593,1550.0,0.0,0.0
1565341623014935402,1550.0,1594.57573593,1594.57573593,1550.0,0.0,0.0
1565341623065166495,1550.0,1550.0,1550.0,1550.0,0.0,0.0
1565341623114971860,1550.0,1550.0,1550.0,1550.0,0.0,0.0
1565341623164941391,1550.0,1550.0,1550.0,1550.0,0.0,0.0
1565341623215029099,1550.0,1550.0,1550.0,1550.0,0.0,0.0
1565341623265344308,1550.0,1550.0,1550.0,1550.0,0.0,0.0
1565341623315026391,1550.0,1584.8098129,1584.8098129,1550.0,0.0,0.0
1565341623365155037,1550.0,1584.8098129,1584.8098129,1550.0,0.0,0.0
1565341623414960870,1550.0,1573.41516614,1573.41516614,1550.0,0.0,0.0
1565341623465680558,1550.0,1573.41516614,1573.41516614,1550.0,0.0,0.0
1565341623515054464,1550.0,1550.0,1550.0,1550.0,0.0,0.0
1565341623565180974,1550.0,1550.0,1550.0,1550.0,0.0,0.0
1565341623614904881,1550.0,1550.0,1550.0,1550.0,0.0,0.0
1565341623665289308,1550.0,1550.0,1550.0,1550.0,0.0,0.0
1565341623714613631,1550.0,1550.0,1550.0,1550.0,0.0,0.0
1565341623764695818,1550.0,1550.0,1550.0,1550.0,0.0,0.0
1565341623814922328,1550.0,1550.0,1550.0,1550.0,0.0,0.0
1565341623865460974,1550.0,1550.0,1550.0,1550.0,0.0,0.0
1565341623915039933,1550.0,1550.0,1550.0,1550.0,0.0,0.0
1565341623964682537,1550.0,1550.0,1550.0,1550.0,0.0,0.0
1565341624014826808,1550.0,1550.0,1550.0,1550.0,0.0,0.0
1565341624064954151,1550.0,1550.0,1550.0,1550.0,0.0,0.0
1565341624114943318,1550.0,1550.0,1550.0,1550.0,0.0,0.0
1565341624164943110,1550.0,1550.0,1550.0,1550.0,0.0,0.0
1565341624214681547,1550.0,1550.0,1550.0,1550.0,0.0,0.0
1565341624265030609,1550.0,1550.0,1550.0,1550.0,0.0,0.0
1565341624314554568,1550.0,1550.0,1550.0,1550.0,0.0,0.0
1565341624364690818,1550.0,1550.0,1550.0,1550.0,0.0,0.0
1565341624414942589,1550.0,1550.0,1550.0,1550.0,0.0,0.0
1565341624465294099,1614.19375539,1550.0,1614.19375539,1550.0,0.0,0.0
1565341624514899255,1614.19375539,1550.0,1614.19375539,1550.0,0.0,0.0
1565341624564872120,1623.95967841,1550.0,1623.95967841,1550.0,0.0,0.0
1565341624615219672,1623.95967841,1550.0,1623.95967841,1550.0,0.0,0.0
1565341624665211078,1623.95967841,1550.0,1623.95967841,1550.0,0.0,0.0
1565341624714898161,1623.95967841,1550.0,1623.95967841,1550.0,0.0,0.0
1565341624764937901,1619.61962581,1550.0,1619.61962581,1550.0,0.0,0.0
1565341624814922328,1619.61962581,1550.0,1619.61962581,1550.0,0.0,0.0
1565341624864921755,1619.61962581,1550.0,1619.61962581,1550.0,0.0,0.0
1565341624914898526,1619.61962581,1550.0,1619.61962581,1550.0,0.0,0.0
1565341624964912380,1622.87386656,1550.0,1622.87386656,1550.0,0.0,0.0
1565341625014893109,1622.87386656,1550.0,1622.87386656,1550.0,0.0,0.0
1565341625065072745,1622.87386656,1550.0,1622.87386656,1550.0,0.0,0.0
1565341625114589203,1623.95967841,1550.0,1623.95967841,1550.0,0.0,0.0
1565341625164978578,1623.95967841,1550.0,1623.95967841,1550.0,0.0,0.0
1565341625214950870,1623.95967841,1550.0,1623.95967841,1550.0,0.0,0.0
1565341625265469099,1623.95967841,1550.0,1623.95967841,1550.0,0.0,0.0
1565341625315026234,1550.0,1550.0,1550.0,1550.0,0.0,0.0
1565341625364954515,1550.0,1550.0,1550.0,1550.0,0.0,0.0
1565341625415140192,1550.0,1550.0,1550.0,1550.0,0.0,0.0
1565341625464930765,1550.0,1550.0,1550.0,1550.0,0.0,0.0
1565341625514970609,1550.0,1550.0,1550.0,1550.0,0.0,0.0
1565341625565200349,1550.0,1550.0,1550.0,1550.0,0.0,0.0
1565341625614937119,1550.0,1550.0,1550.0,1550.0,0.0,0.0
1565341625664935244,1550.0,1550.0,1550.0,1550.0,0.0,0.0
1565341625715191286,1550.0,1550.0,1550.0,1550.0,0.0,0.0
1565341625765021651,1550.0,1550.0,1550.0,1550.0,0.0,0.0
1565341625814900557,1550.0,1550.0,1550.0,1550.0,0.0,0.0
1565341625864836911,1550.0,1550.0,1550.0,1550.0,0.0,0.0
1565341625914550140,1550.0,1550.0,1550.0,1550.0,0.0,0.0
1565341625964974046,1550.0,1550.0,1550.0,1550.0,0.0,0.0
1565341626014994671,1550.0,1550.0,1550.0,1550.0,0.0,0.0
1565341626065127432,1550.0,1550.0,1550.0,1550.0,0.0,0.0
1565341626115028890,1550.0,1550.0,1550.0,1550.0,0.0,0.0
1565341626165043786,1550.0,1550.0,1550.0,1550.0,0.0,0.0
1565341626214621859,1550.0,1550.0,1550.0,1550.0,0.0,0.0
1565341626265089411,1550.0,1550.0,1550.0,1550.0,0.0,0.0
1565341626315126963,1550.0,1550.0,1550.0,1550.0,0.0,0.0
1565341626365016025,1550.0,1550.0,1550.0,1550.0,0.0,0.0
1565341626415098317,1550.0,1550.0,1550.0,1550.0,0.0,0.0
1565341626465735921,1550.0,1550.0,1550.0,1550.0,0.0,0.0
1565341626515744879,1550.0,1550.0,1550.0,1550.0,0.0,0.0
1565341626565163213,1550.0,1550.0,1550.0,1550.0,0.0,0.0
1565341626615188421,1550.0,1550.0,1550.0,1550.0,0.0,0.0
1565341626666416911,1550.0,1550.0,1550.0,1550.0,0.0,0.0
1565341626715075609,1550.0,1550.0,1550.0,1550.0,0.0,0.0
1565341626764982484,1550.0,1550.0,1550.0,1550.0,0.0,0.0
1565341626815263942,1550.0,1550.0,1550.0,1550.0,0.0,0.0
1565341626865962796,1550.0,1550.0,1550.0,1550.0,0.0,0.0
1565341626915231858,1550.0,1550.0,1550.0,1550.0,0.0,0.0
1565341626965203004,1550.0,1550.0,1550.0,1550.0,0.0,0.0
1565341627015275244,1550.0,1550.0,1550.0,1550.0,0.0,0.0
1565341627065996911,1550.0,1550.0,1550.0,1550.0,0.0,0.0
1565341627116161077,1550.0,1550.0,1550.0,1550.0,0.0,0.0
1565341627165984358,1550.0,1550.0,1550.0,1550.0,0.0,0.0
1565341627215345921,1550.0,1550.0,1550.0,1550.0,0.0,0.0
1565341627265163056,1550.0,1550.0,1550.0,1550.0,0.0,0.0
1565341627314877015,1550.0,1550.0,1566.4435342,1566.4435342,0.0,0.0
1565341627365303056,1550.0,1550.0,1566.4435342,1566.4435342,0.0,0.0
1565341627415383942,1550.0,1550.0,1566.4435342,1566.4435342,0.0,0.0
1565341627465136494,1550.0,1550.0,1568.61195415,1568.61195415,0.0,0.0
1565341627515364046,1550.0,1550.0,1568.61195415,1568.61195415,0.0,0.0
1565341627565084254,1550.0,1550.0,1585.97537875,1585.97537875,0.0,0.0
1565341627614901650,1550.0,1550.0,1585.97537875,1585.97537875,0.0,0.0
1565341627665367067,1550.0,1550.0,1600.08456707,1600.08456707,0.0,0.0
1565341627714917379,1550.0,1550.0,1600.08456707,1600.08456707,0.0,0.0
1565341627764673681,1550.0,1550.0,1618.53380799,1618.53380799,0.0,0.0
1565341627815264983,1550.0,1550.0,1618.53380799,1618.53380799,0.0,0.0
1565341627864894619,1550.0,1550.0,1618.53380799,1618.53380799,0.0,0.0
1565341627914945556,1550.0,1550.0,1618.53380799,1618.53380799,0.0,0.0
1565341627964729983,1550.0,1550.0,1631.55718446,1631.55718446,0.0,0.0
1565341628015047743,1550.0,1550.0,1631.55718446,1631.55718446,0.0,0.0
1565341628064714671,1550.0,1550.0,1631.55718446,1631.55718446,0.0,0.0
1565341628114705139,1550.0,1550.0,1630.47136664,1630.47136664,0.0,0.0
1565341628165170764,1550.0,1550.0,1630.47136664,1630.47136664,0.0,0.0
1565341628215115556,1550.0,1550.0,1631.55718446,1631.55718446,0.0,0.0
1565341628265339670,1550.0,1550.0,1631.55718446,1631.55718446,0.0,0.0
1565341628315082223,1550.0,1550.0,1631.55718446,1631.55718446,0.0,0.0
1565341628365417483,1550.0,1550.0,1650.0,1650.0,0.0,0.0
1565341628414925556,1550.0,1550.0,1650.0,1650.0,0.0,0.0
1565341628464721650,1550.0,1550.0,1650.0,1650.0,0.0,0.0
1565341628515201025,1550.0,1550.0,1650.0,1650.0,0.0,0.0
1565341628565196389,1550.0,1550.0,1650.0,1650.0,0.0,0.0
1565341628614924670,1550.0,1550.0,1650.0,1650.0,0.0,0.0
1565341628665626337,1550.0,1550.0,1650.0,1650.0,0.0,0.0
1565341628715309827,1550.0,1550.0,1650.0,1650.0,0.0,0.0
1565341628765092066,1550.0,1550.0,1650.0,1650.0,0.0,0.0
1565341628815043212,1550.0,1550.0,1650.0,1650.0,0.0,0.0
1565341628865344149,1550.0,1550.0,1650.0,1650.0,0.0,0.0
1565341628915037326,1550.0,1550.0,1650.0,1650.0,0.0,0.0
1565341628965154774,1550.0,1550.0,1650.0,1650.0,0.0,0.0
1565341629015224201,1550.0,1550.0,1650.0,1650.0,0.0,0.0
1565341629066459514,1550.0,1550.0,1650.0,1650.0,0.0,0.0
1565341629115221701,1550.0,1550.0,1650.0,1650.0,0.0,0.0
1565341629165112274,1550.0,1550.0,1650.0,1650.0,0.0,0.0
1565341629214755035,1550.0,1550.0,1650.0,1650.0,0.0,0.0
1565341629265279358,1550.0,1550.0,1650.0,1650.0,0.0,0.0
1565341629315163524,1550.0,1550.0,1650.0,1650.0,0.0,0.0
1565341629366285035,1550.0,1550.0,1650.0,1650.0,0.0,0.0
1565341629415732483,1550.0,1550.0,1650.0,1650.0,0.0,0.0
1565341629464983785,1550.0,1550.0,1650.0,1650.0,0.0,0.0
1565341629514996076,1550.0,1550.0,1650.0,1650.0,0.0,0.0
1565341629565280451,1550.0,1550.0,1650.0,1650.0,0.0,0.0
1565341629615046180,1550.0,1564.26868886,1556.67439774,1570.94308659,0.0,0.0
1565341629665092795,1550.0,1564.26868886,1556.67439774,1570.94308659,0.0,0.0
1565341629715028576,1550.0,1550.0,1550.0,1550.0,0.0,0.0
1565341629764927691,1550.0,1550.0,1550.0,1550.0,0.0,0.0
1565341629815350972,1550.0,1550.0,1550.0,1550.0,0.0,0.0
1565341629865143576,1550.0,1550.0,1550.0,1550.0,0.0,0.0
1565341629915108993,1550.0,1550.0,1550.0,1550.0,0.0,0.0
1565341629965157639,1550.0,1550.0,1550.0,1550.0,0.0,0.0
1565341630015109930,1550.0,1550.0,1550.0,1550.0,0.0,0.0
1565341630065739618,1550.0,1550.0,1550.0,1550.0,0.0,0.0
1565341630115334409,1550.0,1550.0,1550.0,1550.0,0.0,0.0
1565341630165073576,1550.0,1550.0,1550.0,1550.0,0.0,0.0
1565341630215226232,1550.0,1550.0,1550.0,1550.0,0.0,0.0
1565341630265500451,1550.0,1550.0,1550.0,1550.0,0.0,0.0
1565341630315343368,1550.0,1550.0,1550.0,1550.0,0.0,0.0
1565341630365365191,1550.0,1550.0,1550.0,1550.0,0.0,0.0
1565341630414905972,1550.0,1550.0,1550.0,1550.0,0.0,0.0
1565341630465247274,1550.0,1550.0,1550.0,1550.0,0.0,0.0
1565341630514987743,1550.0,1550.0,1550.0,1550.0,0.0,0.0
1565341630564998472,1550.0,1550.0,1550.0,1550.0,0.0,0.0
1565341630615151649,1550.0,1550.0,1550.0,1550.0,0.0,0.0
1565341630666044201,1550.0,1550.0,1550.0,1550.0,0.0,0.0
1565341630714908940,1550.0,1550.0,1550.0,1550.0,0.0,0.0
1565341630764901336,1550.0,1550.0,1550.0,1550.0,0.0,0.0
1565341630815232794,1550.0,1550.0,1550.0,1550.0,0.0,0.0
1565341630864737847,1550.0,1550.0,1550.0,1550.0,0.0,0.0
1565341630915354201,1550.0,1550.0,1550.0,1550.0,0.0,0.0
1565341630964990607,1550.0,1550.0,1550.0,1550.0,0.0,0.0
1565341631014955086,1550.0,1550.0,1550.0,1550.0,0.0,0.0
1565341631066397690,1550.0,1550.0,1550.0,1550.0,0.0,0.0
1565341631115627117,1550.0,1550.0,1550.0,1550.0,0.0,0.0
1565341631164937899,1550.0,1550.0,1574.03782308,1574.03782308,0.0,0.0
1565341631215142274,1550.0,1550.0,1574.03782308,1574.03782308,0.0,0.0
1565341631265258419,1550.0,1550.0,1581.63532615,1581.63532615,0.0,0.0
1565341631314905607,1550.0,1550.0,1581.63532615,1581.63532615,0.0,0.0
1565341631364890503,1550.0,1550.0,1601.17038488,1601.17038488,0.0,0.0
1565341631414890190,1550.0,1550.0,1601.17038488,1601.17038488,0.0,0.0
1565341631464907690,1550.0,1550.0,1632.63978958,1632.63978958,0.0,0.0
1565341631515095450,1550.0,1550.0,1632.63978958,1632.63978958,0.0,0.0
1565341631564944773,1550.0,1550.0,1638.06886673,1638.06886673,0.0,0.0
1565341631615147013,1550.0,1550.0,1638.06886673,1638.06886673,0.0,0.0
1565341631664965919,1550.0,1550.0,1639.15147185,1639.15147185,0.0,0.0
1565341631714866857,1550.0,1550.0,1639.15147185,1639.15147185,0.0,0.0
1565341631764894044,1550.0,1550.0,1639.15147185,1639.15147185,0.0,0.0
1565341631815088002,1550.0,1550.0,1648.92060757,1648.92060757,0.0,0.0
1565341631865241180,1550.0,1550.0,1648.92060757,1648.92060757,0.0,0.0
1565341631915049409,1550.0,1550.0,1648.92060757,1648.92060757,0.0,0.0
1565341631965132742,1550.0,1550.0,1650.0,1650.0,0.0,0.0
1565341632015051752,1550.0,1550.0,1650.0,1650.0,0.0,0.0
1565341632065007273,1550.0,1550.0,1650.0,1650.0,0.0,0.0
1565341632114915346,1550.0,1550.0,1650.0,1650.0,0.0,0.0
1565341632165001596,1550.0,1550.0,1650.0,1650.0,0.0,0.0
1565341632214954200,1550.0,1550.0,1650.0,1650.0,0.0,0.0
1565341632265363784,1550.0,1550.0,1650.0,1650.0,0.0,0.0
1565341632315310971,1550.0,1550.0,1650.0,1650.0,0.0,0.0
1565341632365291127,1550.0,1550.0,1650.0,1650.0,0.0,0.0
1565341632414928992,1550.0,1550.0,1650.0,1650.0,0.0,0.0
1565341632464964252,1550.0,1550.0,1650.0,1650.0,0.0,0.0
1565341632514868263,1550.0,1550.0,1650.0,1650.0,0.0,0.0
1565341632565263888,1550.0,1550.0,1650.0,1650.0,0.0,0.0
1565341632615022638,1550.0,1550.0,1650.0,1650.0,0.0,0.0
1565341632665872742,1550.0,1550.0,1650.0,1650.0,0.0,0.0
1565341632715414929,1550.0,1550.0,1650.0,1650.0,0.0,0.0
1565341632765198888,1550.0,1550.0,1650.0,1650.0,0.0,0.0
1565341632815024304,1550.0,1550.0,1650.0,1650.0,0.0,0.0
1565341632865319773,1550.0,1550.0,1650.0,1650.0,0.0,0.0
1565341632915153002,1550.0,1550.0,1650.0,1650.0,0.0,0.0
1565341632964812637,1550.0,1550.0,1650.0,1650.0,0.0,0.0
1565341633015431023,1550.0,1550.0,1650.0,1650.0,0.0,0.0
1565341633065401804,1550.0,1550.0,1650.0,1650.0,0.0,0.0
1565341633115046335,1550.0,1550.0,1550.0,1550.0,0.0,0.0
1565341633164993054,1550.0,1550.0,1550.0,1550.0,0.0,0.0
1565341633214992169,1550.0,1550.0,1550.0,1550.0,0.0,0.0
1565341633265226439,1550.0,1550.0,1550.0,1550.0,0.0,0.0
1565341633315006075,1550.0,1550.0,1550.0,1550.0,0.0,0.0
1565341633365021752,1550.0,1550.0,1550.0,1550.0,0.0,0.0
1565341633415657221,1550.0,1550.0,1550.0,1550.0,0.0,0.0
1565341633466186543,1550.0,1550.0,1550.0,1550.0,0.0,0.0
1565341633515220554,1550.0,1550.0,1550.0,1550.0,0.0,0.0
1565341633565458314,1550.0,1550.0,1550.0,1550.0,0.0,0.0
1565341633615223731,1550.0,1550.0,1550.0,1550.0,0.0,0.0
1565341633665212429,1550.0,1550.0,1550.0,1550.0,0.0,0.0
1565341633714870502,1550.0,1550.0,1550.0,1550.0,0.0,0.0
1565341633765918939,1550.0,1550.0,1550.0,1550.0,0.0,0.0
1565341633815913210,1550.0,1550.0,1550.0,1550.0,0.0,0.0
1565341633865401804,1550.0,1550.0,1550.0,1550.0,0.0,0.0
1565341633915728575,1550.0,1550.0,1550.0,1550.0,0.0,0.0
1565341633965004668,1550.0,1550.0,1550.0,1550.0,0.0,0.0
1565341634015071387,1550.0,1550.0,1550.0,1550.0,0.0,0.0
1565341634064937741,1550.0,1550.0,1550.0,1550.0,0.0,0.0
1565341634115113627,1550.0,1550.0,1550.0,1550.0,0.0,0.0
1565341634165769356,1550.0,1550.0,1550.0,1550.0,0.0,0.0
1565341634215097324,1550.0,1550.0,1550.0,1550.0,0.0,0.0
1565341634265034460,1550.0,1550.0,1550.0,1550.0,0.0,0.0
1565341634314897845,1550.0,1550.0,1550.0,1550.0,0.0,0.0
1565341634364918835,1550.0,1550.0,1550.0,1550.0,0.0,0.0
1565341634415484095,1550.0,1550.0,1550.0,1550.0,0.0,0.0
1565341634466191335,1550.0,1550.0,1557.76021481,1557.76021481,0.0,0.0
1565341634515089095,1550.0,1550.0,1557.76021481,1557.76021481,0.0,0.0
1565341634565069043,1550.0,1550.0,1589.23282921,1589.23282921,0.0,0.0
1565341634614951699,1550.0,1550.0,1589.23282921,1589.23282921,0.0,0.0
1565341634664996074,1550.0,1550.0,1601.17038488,1601.17038488,0.0,0.0
1565341634714989460,1550.0,1550.0,1601.17038488,1601.17038488,0.0,0.0
1565341634764989251,1550.0,1550.0,1612.02212572,1612.02212572,0.0,0.0
1565341634815019876,1550.0,1550.0,1612.02212572,1612.02212572,0.0,0.0
1565341634864722116,1550.0,1550.0,1612.02212572,1612.02212572,0.0,0.0
1565341634915384928,1550.0,1550.0,1617.44799614,1617.44799614,0.0,0.0
1565341634964873366,1550.0,1550.0,1617.44799614,1617.44799614,0.0,0.0
1565341635014910501,1550.0,1550.0,1630.47136664,1630.47136664,0.0,0.0
1565341635066306074,1550.0,1550.0,1630.47136664,1630.47136664,0.0,0.0
1565341635115295970,1550.0,1550.0,1630.47136664,1630.47136664,0.0,0.0
1565341635165099199,1550.0,1550.0,1642.40892529,1642.40892529,0.0,0.0
1565341635215178678,1550.0,1550.0,1642.40892529,1642.40892529,0.0,0.0
1565341635265454355,1550.0,1550.0,1642.40892529,1642.40892529,0.0,0.0
1565341635314987637,1550.0,1550.0,1643.49473715,1643.49473715,0.0,0.0
1565341635364926491,1550.0,1550.0,1643.49473715,1643.49473715,0.0,0.0
1565341635415743157,1550.0,1550.0,1643.49473715,1643.49473715,0.0,0.0
1565341635465325397,1550.0,1550.0,1643.49473715,1643.49473715,0.0,0.0
1565341635515543470,1550.0,1550.0,1643.49473715,1643.49473715,0.0,0.0
1565341635565471855,1550.0,1550.0,1650.0,1650.0,0.0,0.0
1565341635614719772,1550.0,1550.0,1650.0,1650.0,0.0,0.0
1565341635665178834,1550.0,1550.0,1650.0,1650.0,0.0,0.0
1565341635715210397,1550.0,1550.0,1650.0,1650.0,0.0,0.0
1565341635764913886,1550.0,1550.0,1550.0,1550.0,0.0,0.0
1565341635815026751,1550.0,1550.0,1550.0,1550.0,0.0,0.0
1565341635865223886,1550.0,1550.0,1550.0,1550.0,0.0,0.0
1565341635915558678,1550.0,1550.0,1550.0,1550.0,0.0,0.0
1565341635965348261,1550.0,1550.0,1550.0,1550.0,0.0,0.0
1565341636014897220,1550.0,1550.0,1550.0,1550.0,0.0,0.0
1565341636065472324,1550.0,1550.0,1550.0,1550.0,0.0,0.0
1565341636115579459,1550.0,1550.0,1550.0,1550.0,0.0,0.0
1565341636164958730,1550.0,1550.0,1550.0,1550.0,0.0,0.0
1565341636215665397,1550.0,1550.0,1550.0,1550.0,0.0,0.0
1565341636264935813,1550.0,1550.0,1550.0,1550.0,0.0,0.0
1565341636314893834,1550.0,1550.0,1550.0,1550.0,0.0,0.0
1565341636365083730,1550.0,1550.0,1550.0,1550.0,0.0,0.0
1565341636415188105,1550.0,1550.0,1550.0,1550.0,0.0,0.0
1565341636464882636,1550.0,1550.0,1550.0,1550.0,0.0,0.0
1565341636516083990,1550.0,1550.0,1550.0,1550.0,0.0,0.0
1565341636566196021,1550.0,1563.64763677,1563.64763677,1550.0,0.0,0.0
1565341636615752584,1550.0,1563.64763677,1563.64763677,1550.0,0.0,0.0
1565341636665770136,1550.0,1565.27475566,1565.27475566,1550.0,0.0,0.0
1565341636714971542,1550.0,1565.27475566,1565.27475566,1550.0,0.0,0.0
1565341636765159146,1550.0,1565.27475566,1565.27475566,1550.0,0.0,0.0
1565341636814667271,1550.0,1565.27475566,1565.27475566,1550.0,0.0,0.0
1565341636865338365,1550.0,1572.32934982,1572.32934982,1550.0,0.0,0.0
1565341636915093730,1550.0,1572.32934982,1572.32934982,1550.0,0.0,0.0
1565341636965069303,1550.0,1573.41516614,1573.41516614,1550.0,0.0,0.0
1565341637015072480,1550.0,1573.41516614,1573.41516614,1550.0,0.0,0.0
1565341637065357428,1550.0,1550.0,1550.0,1550.0,0.0,0.0
1565341637115105240,1550.0,1550.0,1550.0,1550.0,0.0,0.0
1565341637164959615,1550.0,1550.0,1550.0,1550.0,0.0,0.0
1565341637215025761,1550.0,1550.0,1550.0,1550.0,0.0,0.0
1565341637265935032,1550.0,1550.0,1550.0,1550.0,0.0,0.0
1565341637315544198,1550.0,1550.0,1550.0,1550.0,0.0,0.0
1565341637365831334,1550.0,1550.0,1550.0,1550.0,0.0,0.0
1565341637415533834,1550.0,1550.0,1550.0,1550.0,0.0,0.0
1565341637466672323,1550.0,1550.0,1550.0,1550.0,0.0,0.0
1565341637516145188,1550.0,1550.0,1550.0,1550.0,0.0,0.0
1565341637565597896,1550.0,1550.0,1550.0,1550.0,0.0,0.0
1565341637616333417,1550.0,1550.0,1550.0,1550.0,0.0,0.0
1565341637664919459,1550.0,1550.0,1550.0,1550.0,0.0,0.0
1565341637715573938,1550.0,1550.0,1550.0,1550.0,0.0,0.0
1565341637764673677,1550.0,1550.0,1550.0,1550.0,0.0,0.0
1565341637815043469,1550.0,1550.0,1550.0,1550.0,0.0,0.0
1565341637865494042,1550.0,1550.0,1550.0,1550.0,0.0,0.0
1565341637915106229,1550.0,1550.0,1550.0,1550.0,0.0,0.0
1565341637965503781,1550.0,1550.0,1550.0,1550.0,0.0,0.0
1565341638015058886,1550.0,1550.0,1550.0,1550.0,0.0,0.0
1565341638065114823,1550.0,1550.0,1550.0,1550.0,0.0,0.0
1565341638114931021,1550.0,1550.0,1550.0,1550.0,0.0,0.0
1565341638164871542,1550.0,1550.0,1550.0,1550.0,0.0,0.0
1565341638214902063,1550.0,1550.0,1550.0,1550.0,0.0,0.0
1565341638265458104,1550.0,1550.0,1550.0,1550.0,0.0,0.0
1565341638314977062,1550.0,1550.0,1550.0,1550.0,0.0,0.0
1565341638364937479,1550.0,1550.0,1550.0,1550.0,0.0,0.0
1565341638414890917,1550.0,1550.0,1550.0,1550.0,0.0,0.0
1565341638465228625,1550.0,1550.0,1550.0,1550.0,0.0,0.0
1565341638514892531,1550.0,1550.0,1550.0,1550.0,0.0,0.0
1565341638564847479,1550.0,1550.0,1550.0,1550.0,0.0,0.0
1565341638614877792,1550.0,1550.0,1550.0,1550.0,0.0,0.0
1565341638665390187,1550.0,1550.0,1550.0,1550.0,0.0,0.0
1565341638714856385,1550.0,1550.0,1550.0,1550.0,0.0,0.0
1565341638765184771,1550.0,1550.0,1550.0,1550.0,0.0,0.0
1565341638814997427,1550.0,1550.0,1550.0,1550.0,0.0,0.0
1565341638864957583,1550.0,1550.0,1550.0,1550.0,0.0,0.0
1565341638914894562,1550.0,1550.0,1550.0,1550.0,0.0,0.0
1565341638964914771,1550.0,1550.0,1550.0,1550.0,0.0,0.0
1565341639014894302,1550.0,1550.0,1550.0,1550.0,0.0,0.0
1565341639064924562,1550.0,1550.0,1550.0,1550.0,0.0,0.0
1565341639114902479,1550.0,1550.0,1550.0,1550.0,0.0,0.0
1565341639164877323,1550.0,1550.0,1550.0,1550.0,0.0,0.0
1565341639214920968,1550.0,1550.0,1550.0,1550.0,0.0,0.0
1565341639265344250,1550.0,1550.0,1550.0,1550.0,0.0,0.0
1565341639314681958,1550.0,1550.0,1550.0,1550.0,0.0,0.0
1565341639364912427,1550.0,1550.0,1550.0,1550.0,0.0,0.0
1565341639415033937,1550.0,1550.0,1550.0,1550.0,0.0,0.0
1565341639464987947,1550.0,1550.0,1550.0,1550.0,0.0,0.0
1565341639514919614,1550.0,1550.0,1550.0,1550.0,0.0,0.0
1565341639564912270,1569.69455779,1569.69455779,1550.0,1550.0,0.0,0.0
1565341639614903104,1569.69455779,1569.69455779,1550.0,1550.0,0.0,0.0
1565341639665917479,1607.67886043,1607.67886043,1550.0,1550.0,0.0,0.0
1565341639714884354,1607.67886043,1607.67886043,1550.0,1550.0,0.0,0.0
1565341639765012062,1623.95646572,1623.95646572,1550.0,1550.0,0.0,0.0
1565341639814994458,1623.95646572,1623.95646572,1550.0,1550.0,0.0,0.0
1565341639864933468,1623.95646572,1623.95646572,1550.0,1550.0,0.0,0.0
1565341639915049458,1623.95646572,1623.95646572,1550.0,1550.0,0.0,0.0
1565341639964958729,1623.95646572,1623.95646572,1550.0,1550.0,0.0,0.0
1565341640014900083,1623.95646572,1623.95646572,1550.0,1550.0,0.0,0.0
1565341640065193520,1623.95646572,1623.95646572,1550.0,1550.0,0.0,0.0
1565341640114633624,1623.95646572,1623.95646572,1550.0,1550.0,0.0,0.0
1565341640165155603,1623.95646572,1623.95646572,1550.0,1550.0,0.0,0.0
1565341640215070343,1625.04228354,1625.04228354,1550.0,1550.0,0.0,0.0
1565341640265091853,1625.04228354,1625.04228354,1550.0,1550.0,0.0,0.0
1565341640315057374,1625.04228354,1625.04228354,1550.0,1550.0,0.0,0.0
1565341640365105916,1625.04228354,1625.04228354,1550.0,1550.0,0.0,0.0
1565341640415116697,1625.04228354,1625.04228354,1550.0,1550.0,0.0,0.0
1565341640464860760,1625.04228354,1625.04228354,1550.0,1550.0,0.0,0.0
1565341640514887687,1625.04228354,1625.04228354,1550.0,1550.0,0.0,0.0
1565341640564601437,1625.04228354,1625.04228354,1550.0,1550.0,0.0,0.0
1565341640614710760,1626.12810135,1626.12810135,1550.0,1550.0,0.0,0.0
1565341640665581801,1626.12810135,1626.12810135,1550.0,1550.0,0.0,0.0
1565341640715105864,1626.12810135,1626.12810135,1550.0,1550.0,0.0,0.0
1565341640765180812,1626.12810135,1626.12810135,1550.0,1550.0,0.0,0.0
1565341640815177322,1626.12810135,1626.12810135,1550.0,1550.0,0.0,0.0
1565341640864689353,1626.12810135,1626.12810135,1550.0,1550.0,0.0,0.0
1565341640915318155,1626.12810135,1626.12810135,1550.0,1550.0,0.0,0.0
1565341640964969093,1626.12810135,1626.12810135,1550.0,1550.0,0.0,0.0
1565341641015108676,1626.12810135,1626.12810135,1550.0,1550.0,0.0,0.0
1565341641065046957,1626.12810135,1626.12810135,1550.0,1550.0,0.0,0.0
1565341641115167426,1626.12810135,1626.12810135,1550.0,1550.0,0.0,0.0
1565341641164949457,1626.12810135,1626.12810135,1550.0,1550.0,0.0,0.0
1565341641214966176,1626.12810135,1626.12810135,1550.0,1550.0,0.0,0.0
1565341641265456072,1626.12810135,1626.12810135,1550.0,1550.0,0.0,0.0
1565341641315172843,1626.12810135,1626.12810135,1550.0,1550.0,0.0,0.0
1565341641365020238,1626.12810135,1626.12810135,1550.0,1550.0,0.0,0.0
1565341641414943988,1626.12810135,1626.12810135,1550.0,1550.0,0.0,0.0
1565341641465531020,1626.12810135,1626.12810135,1550.0,1550.0,0.0,0.0
1565341641515219353,1626.12810135,1626.12810135,1550.0,1550.0,0.0,0.0
1565341641565335655,1626.12810135,1626.12810135,1550.0,1550.0,0.0,0.0
1565341641615033780,1626.12810135,1626.12810135,1550.0,1550.0,0.0,0.0
1565341641665440395,1626.12810135,1626.12810135,1550.0,1550.0,0.0,0.0
1565341641715212374,1626.12810135,1626.12810135,1550.0,1550.0,0.0,0.0
1565341641764955759,1626.12810135,1626.12810135,1550.0,1550.0,0.0,0.0
1565341641815097634,1627.21070647,1627.21070647,1550.0,1550.0,0.0,0.0
1565341641865829301,1627.21070647,1627.21070647,1550.0,1550.0,0.0,0.0
1565341641914679249,1628.29651833,1628.29651833,1550.0,1550.0,0.0,0.0
1565341641965024613,1628.29651833,1628.29651833,1550.0,1550.0,0.0,0.0
1565341642015788728,1628.29651833,1628.29651833,1550.0,1550.0,0.0,0.0
1565341642065397634,1633.72238874,1633.72238874,1550.0,1550.0,0.0,0.0
1565341642115720811,1633.72238874,1633.72238874,1550.0,1550.0,0.0,0.0
1565341642165519457,1639.14825916,1639.14825916,1550.0,1550.0,0.0,0.0
1565341642215140551,1639.14825916,1639.14825916,1550.0,1550.0,0.0,0.0
1565341642265278415,1641.31989479,1641.31989479,1550.0,1550.0,0.0,0.0
1565341642315712790,1641.31989479,1641.31989479,1550.0,1550.0,0.0,0.0
1565341642365025186,1641.31989479,1641.31989479,1550.0,1550.0,0.0,0.0
1565341642415001175,1642.4057126,1642.4057126,1550.0,1550.0,0.0,0.0
1565341642465106905,1642.4057126,1642.4057126,1550.0,1550.0,0.0,0.0
1565341642514982530,1643.49152446,1643.49152446,1550.0,1550.0,0.0,0.0
1565341642564954353,1643.49152446,1643.49152446,1550.0,1550.0,0.0,0.0
1565341642614882530,1643.49152446,1643.49152446,1550.0,1550.0,0.0,0.0
1565341642665314769,1644.57412958,1644.57412958,1550.0,1550.0,0.0,0.0
1565341642714913936,1644.57412958,1644.57412958,1550.0,1550.0,0.0,0.0
1565341642765237582,1644.57412958,1644.57412958,1550.0,1550.0,0.0,0.0
1565341642814889457,1644.57412958,1644.57412958,1550.0,1550.0,0.0,0.0
1565341642865726332,1644.57412958,1644.57412958,1550.0,1550.0,0.0,0.0
1565341642915003988,1644.57412958,1644.57412958,1550.0,1550.0,0.0,0.0
1565341642965024352,1644.57412958,1644.57412958,1550.0,1550.0,0.0,0.0
1565341643014867165,1644.57412958,1644.57412958,1550.0,1550.0,0.0,0.0
1565341643065231800,1644.57412958,1644.57412958,1550.0,1550.0,0.0,0.0
1565341643115007217,1644.57412958,1644.57412958,1550.0,1550.0,0.0,0.0
1565341643164942217,1644.57412958,1644.57412958,1550.0,1550.0,0.0,0.0
1565341643215143050,1644.57412958,1644.57412958,1550.0,1550.0,0.0,0.0
1565341643265616227,1644.57412958,1644.57412958,1550.0,1550.0,0.0,0.0
1565341643315022373,1645.6599474,1645.6599474,1550.0,1550.0,0.0,0.0
1565341643365339613,1645.6599474,1645.6599474,1550.0,1550.0,0.0,0.0
1565341643414928363,1645.6599474,1645.6599474,1550.0,1550.0,0.0,0.0
1565341643465012529,1646.74576521,1646.74576521,1550.0,1550.0,0.0,0.0
1565341643515075915,1646.74576521,1646.74576521,1550.0,1550.0,0.0,0.0
1565341643564898935,1650.0,1650.0,1550.0,1550.0,0.0,0.0
1565341643614607113,1650.0,1650.0,1550.0,1550.0,0.0,0.0
1565341643665375863,1650.0,1650.0,1550.0,1550.0,0.0,0.0
1565341643714635498,1650.0,1650.0,1550.0,1550.0,0.0,0.0
1565341643765480810,1650.0,1650.0,1550.0,1550.0,0.0,0.0
1565341643815079612,1650.0,1650.0,1550.0,1550.0,0.0,0.0
1565341643865238154,1650.0,1650.0,1550.0,1550.0,0.0,0.0
1565341643915079665,1650.0,1650.0,1550.0,1550.0,0.0,0.0
1565341643965120029,1650.0,1650.0,1550.0,1550.0,0.0,0.0
1565341644015109664,1650.0,1650.0,1550.0,1550.0,0.0,0.0
1565341644065147789,1650.0,1650.0,1550.0,1550.0,0.0,0.0
1565341644115155237,1650.0,1650.0,1550.0,1550.0,0.0,0.0
1565341644164689196,1650.0,1650.0,1550.0,1550.0,0.0,0.0
1565341644214919144,1650.0,1650.0,1550.0,1550.0,0.0,0.0
1565341644265575914,1550.0,1550.0,1550.0,1550.0,0.0,0.0
1565341644314935394,1550.0,1550.0,1550.0,1550.0,0.0,0.0
1565341644365070289,1550.0,1550.0,1550.0,1550.0,0.0,0.0
1565341644414868727,1550.0,1550.0,1550.0,1550.0,0.0,0.0
1565341644465305550,1550.0,1550.0,1550.0,1550.0,0.0,0.0
1565341644515020758,1550.0,1550.0,1550.0,1550.0,0.0,0.0
1565341644565182998,1550.0,1550.0,1550.0,1550.0,0.0,0.0
1565341644615227373,1550.0,1550.0,1550.0,1550.0,0.0,0.0
1565341644666466331,1550.0,1550.0,1550.0,1550.0,0.0,0.0
1565341644715894195,1550.0,1550.0,1550.0,1550.0,0.0,0.0
1565341644766030966,1550.0,1550.0,1550.0,1550.0,0.0,0.0
1565341644816093518,1550.0,1550.0,1550.0,1550.0,0.0,0.0
1565341644866589925,1550.0,1550.0,1550.0,1550.0,0.0,0.0
1565341644915845862,1550.0,1550.0,1550.0,1550.0,0.0,0.0
1565341644965990497,1550.0,1550.0,1550.0,1550.0,0.0,0.0
1565341645016627685,1550.0,1550.0,1550.0,1550.0,0.0,0.0
1565341645066171487,1550.0,1550.0,1550.0,1550.0,0.0,0.0
1565341645115415341,1550.0,1550.0,1550.0,1550.0,0.0,0.0
1565341645165470602,1550.0,1550.0,1550.0,1550.0,0.0,0.0
1565341645215101904,1550.0,1550.0,1550.0,1550.0,0.0,0.0
1565341645265720445,1550.0,1550.0,1550.0,1550.0,0.0,0.0
1565341645315030029,1550.0,1550.0,1550.0,1550.0,0.0,0.0
1565341645364979508,1550.0,1550.0,1550.0,1550.0,0.0,0.0
1565341645414933987,1550.0,1550.0,1550.0,1550.0,0.0,0.0
1565341645465631018,1550.0,1550.0,1550.0,1550.0,0.0,0.0
1565341645515021383,1550.0,1550.0,1550.0,1550.0,0.0,0.0
1565341645564894664,1550.0,1550.0,1550.0,1550.0,0.0,0.0
