%time,field.linear.x,field.linear.y,field.linear.z,field.angular.x,field.angular.y,field.angular.z
1565342003608472548,-0.0,-0.0,0.0,0.0,0.0,0.0
1565342003659200881,-0.0,-0.0,0.0,0.0,0.0,0.0
1565342003708643434,-0.0,-0.0,0.0,0.0,0.0,0.0
1565342003758977183,-0.0,-0.0,0.0,0.0,0.0,0.0
1565342003814420256,-0.0,-0.0,0.0,0.0,0.0,0.0
1565342003887036038,-0.0,-0.0,0.0,0.0,0.0,0.0
1565342003910061663,-0.0,-0.0,0.0,0.0,0.0,0.0
1565342003960191923,-0.0,-0.0,0.0,0.0,0.0,0.0
1565342004010328069,-0.0,-0.0,0.0,0.0,0.0,0.0
1565342004063065413,-0.0,-0.0,0.0,0.0,0.0,0.0
1565342004110967652,-0.0,-0.0,0.0,0.0,0.0,0.0
1565342004161548381,-0.0,-0.0,0.0,0.0,0.0,0.0
1565342004211116662,-0.0,-0.0,0.0,0.0,0.0,0.0
1565342004262679267,-0.0,-0.0,0.0,0.0,0.0,0.0
1565342004311630048,-0.0,-0.0,0.0,0.0,0.0,0.0
1565342004363063381,-0.0,-0.0,0.0,0.0,0.0,0.0
1565342004412545152,-0.0,-0.0,0.0,0.0,0.0,0.0
1565342004462908746,-0.0,-0.0,0.0,0.0,0.0,0.0
1565342004512342756,-0.0,-0.0,0.0,0.0,0.0,0.0
1565342004562148642,-0.0,-0.0,0.0,0.0,0.0,0.0
1565342004613084371,-0.0,-0.0,0.0,0.0,0.0,0.0
1565342004663372131,-0.0,-0.0,0.0,0.0,0.0,0.0
1565342004712787860,-0.0,-0.0,0.0,0.0,0.0,0.0
1565342004763753589,-0.0,-0.0,0.0,0.0,0.0,0.0
1565342004817550829,-0.0,-0.0,0.0,0.0,0.0,0.0
1565342004864129996,-0.0,-0.0,0.0,0.0,0.0,0.0
1565342004913782443,-0.0,-0.0,0.0,0.0,0.0,0.0
1565342004973280621,-0.0,-0.0,0.0,0.0,0.0,0.0
1565342005014579787,-0.0,-0.0,0.0,0.0,0.0,0.0
1565342005080959527,-0.0,-0.0,0.0,0.0,0.0,0.0
1565342005115059839,-0.0,-0.0,0.0,0.0,0.0,0.0
1565342005165162443,-0.0,-0.0,0.0,0.0,0.0,0.0
1565342005217411662,-0.0,-0.0,0.0,0.0,0.0,0.0
1565342005267519839,-0.0,-0.0,0.0,0.0,0.0,0.0
1565342005315341818,-0.0,-0.0,0.0,0.0,0.0,0.0
1565342005365357027,-0.0,-0.0,0.0,0.0,0.0,0.0
1565342005415910047,-0.0,-0.0,0.0,0.0,0.0,0.0
1565342005466080360,-0.0,-0.0,0.0,0.0,0.0,0.0
1565342005515942131,-0.0,-0.0,0.0,0.0,0.0,0.0
1565342005566437756,-0.0,-0.0,0.0,0.0,0.0,0.0
1565342005617107599,-0.0,-0.0,0.0,0.0,0.0,0.0
1565342005666687079,-0.0,-0.0,0.0,0.0,0.0,0.0
1565342005796944214,-0.0,-1.0,0.0,0.0,0.0,0.0
1565342005923101818,0.00165924313478,-1.0,0.0,0.0,0.0,0.0
1565342006027637235,0.0450597777963,-1.0,0.0,0.0,0.0,0.0
1565342006077505672,0.0450597777963,-1.0,0.0,0.0,0.0,0.0
1565342006128061870,0.0450597777963,-1.0,0.0,0.0,0.0,0.0
1565342006178276401,0.0450597777963,-1.0,0.0,0.0,0.0,0.0
1565342006227767860,0.0450597777963,-1.0,0.0,0.0,0.0,0.0
1565342006278396558,0.0450597777963,-1.0,0.0,0.0,0.0,0.0
1565342006403284735,-0.0,-0.0,0.0,0.0,0.0,0.0
1565342006453782182,-0.0,-0.0,0.0,0.0,0.0,0.0
1565342006504140880,-0.0,-0.0,0.0,0.0,0.0,0.0
1565342006554333537,-0.0,-0.0,0.0,0.0,0.0,0.0
1565342006685117547,-0.0,-0.0,0.0,0.0,0.0,-0.255851924419
1565342006803484839,-0.0,-0.0,0.0,0.0,0.0,-0.358940243721
1565342006858247026,-0.0,-0.0,0.0,0.0,0.0,-0.358940243721
1565342006983177286,-0.0,-0.0,0.0,0.0,0.0,-0.353527218103
1565342007124406505,-0.0,-0.0,0.0,0.0,0.0,-0.36436933279
1565342007174129422,-0.0,-0.0,0.0,0.0,0.0,-0.36436933279
1565342007311551765,-0.0,-0.0,0.0,0.0,0.0,-0.36436933279
1565342007417001453,-0.0,-0.0,0.0,0.0,0.0,0.0
1565342007468631192,-0.0,-0.0,0.0,0.0,0.0,0.0
1565342007516681713,-0.0,-0.0,0.0,0.0,0.0,0.0
1565342007566346713,-0.0,-0.0,0.0,0.0,0.0,0.0
1565342007637684265,-0.0,-0.0,0.0,0.0,0.0,0.0
1565342007666649786,-0.0,-0.0,0.0,0.0,0.0,0.0
1565342007717311088,-0.0,-0.0,0.0,0.0,0.0,0.0
1565342007767224734,-0.0,-0.0,0.0,0.0,0.0,0.0
1565342007828864942,-0.0,-0.0,0.0,0.0,0.0,0.0
1565342007966671974,-0.0,-0.782965183258,0.0,0.0,0.0,0.0
1565342008051693796,-0.0,-0.782965183258,0.0,0.0,0.0,0.0
1565342008155790723,-0.0,-0.956599473953,0.0,0.0,0.0,0.0
1565342008264846192,-0.0,-1.0,0.0,0.0,0.0,0.0
1565342008313318692,-0.0,-1.0,0.0,0.0,0.0,0.0
1565342008363570046,-0.0,-1.0,0.0,0.0,0.0,0.0
1565342008413655463,-0.0,-1.0,0.0,0.0,0.0,0.0
1565342008464658484,-0.0,-1.0,0.0,0.0,0.0,0.0
1565342008514959109,-0.0,-1.0,0.0,0.0,0.0,0.0
1565342008565025359,-0.0,-1.0,0.0,0.0,0.0,0.0
1565342008614976609,-0.0,-1.0,0.0,0.0,0.0,0.0
1565342008667513744,-0.0,-1.0,0.0,0.0,0.0,0.0
1565342008715081296,-0.0,-1.0,0.0,0.0,0.0,0.0
1565342008764715723,-0.0,-1.0,0.0,0.0,0.0,0.0
1565342008815022859,-0.0,-1.0,0.0,0.0,0.0,0.0
1565342008864951036,-0.0,-1.0,0.0,0.0,0.0,0.0
1565342008916631557,-0.0,-1.0,0.0,0.0,0.0,0.0
1565342008966650515,-0.0,-1.0,0.0,0.0,0.0,0.0
1565342009016816973,-0.0,-1.0,0.0,0.0,0.0,0.0
1565342009066695202,-0.0,-1.0,0.0,0.0,0.0,0.0
1565342009116555931,-0.0,-1.0,0.0,0.0,0.0,0.0
1565342009166180202,-0.0,-1.0,0.0,0.0,0.0,0.0
1565342009217111036,-0.0,-1.0,0.0,0.0,0.0,0.0
1565342009267338327,-0.0,-1.0,0.0,0.0,0.0,0.0
1565342009316947181,-0.0,-1.0,0.0,0.0,0.0,0.0
1565342009366795306,-0.0,-1.0,0.0,0.0,0.0,0.0
1565342009417185931,-0.0,-1.0,0.0,0.0,0.0,0.0
1565342009469383744,-0.0,-1.0,0.0,0.0,0.0,0.0
1565342009517913848,-0.0,-1.0,0.0,0.0,0.0,0.0
1565342009567750098,-0.0,-1.0,0.0,0.0,0.0,0.0
1565342009617862702,-0.0,-1.0,0.0,0.0,0.0,0.0
1565342009668424212,-0.0,-1.0,0.0,0.0,0.0,0.0
1565342009719879994,-0.0,-1.0,0.0,0.0,0.0,0.0
1565342009770022233,-0.0,-1.0,0.0,0.0,0.0,0.0
1565342009836397962,-0.0,-1.0,0.0,0.0,0.0,0.0
1565342009895803744,-0.0,-1.0,0.0,0.0,0.0,0.0
1565342009920068900,-0.0,-1.0,0.0,0.0,0.0,0.0
1565342009969111869,-0.0,-1.0,0.0,0.0,0.0,0.0
1565342010019604212,-0.0,-1.0,0.0,0.0,0.0,0.0
1565342010069577337,-0.0,-1.0,0.0,0.0,0.0,0.0
1565342010120940046,-0.0,-1.0,0.0,0.0,0.0,0.0
1565342010169751296,-0.0,-1.0,0.0,0.0,0.0,0.0
1565342010281889733,-0.0,-0.0,0.0,0.0,0.0,0.0
1565342010329493014,-0.0,-0.0,0.0,0.0,0.0,0.0
1565342010379751243,-0.0,-0.0,0.0,0.0,0.0,0.0
1565342010430008118,-0.0,-0.0,0.0,0.0,0.0,0.0
1565342010480277546,-0.0,-0.0,0.0,0.0,0.0,0.0
1565342010530545098,-0.0,-0.0,0.0,0.0,0.0,0.0
1565342010580571400,-0.0,-0.0,0.0,0.0,0.0,0.0
1565342010630775410,-0.0,-0.0,0.0,0.0,0.0,0.0
1565342010680606452,-0.0,-0.0,0.0,0.0,0.0,0.0
1565342010731437650,-0.0,-0.0,0.0,0.0,0.0,0.0
1565342010781229681,-0.0,-0.0,0.0,0.0,0.0,0.0
1565342010831767493,-0.0,-0.0,0.0,0.0,0.0,0.0
1565342010882334889,-0.0,-0.0,0.0,0.0,0.0,0.0
1565342010931481764,-0.0,-0.0,0.0,0.0,0.0,0.0
1565342010982405410,-0.0,-0.0,0.0,0.0,0.0,0.0
1565342011031902077,-0.0,-0.0,0.0,0.0,0.0,0.0
1565342011108961712,-0.0,-0.0,0.0,0.0,0.0,0.0
1565342011132757754,-0.0,-0.0,0.0,0.0,0.0,0.0
1565342011182600462,-0.0,-0.0,0.0,0.0,0.0,0.0
1565342011232377233,-0.0,-0.0,0.0,0.0,0.0,0.0
1565342011282902181,-0.0,-0.0,0.0,0.0,0.0,0.0
1565342011333859993,-0.0,-0.0,0.0,0.0,0.0,0.0
1565342011383296660,-0.0,-0.0,0.0,0.0,0.0,0.0
1565342011510065983,-0.0,0.186119541526,0.0,0.0,0.0,0.0
1565342011620029628,-0.0,0.424870669842,0.0,0.0,0.0,0.0
1565342011727636816,-0.0,0.457445144653,0.0,0.0,0.0,0.0
1565342011777551399,-0.0,0.457445144653,0.0,0.0,0.0,0.0
1565342011829585566,-0.0,0.457445144653,0.0,0.0,0.0,0.0
1565342011887766191,-0.0,0.457445144653,0.0,0.0,0.0,0.0
1565342011936106816,-0.0,0.457445144653,0.0,0.0,0.0,0.0
1565342011978389889,-0.0,0.457445144653,0.0,0.0,0.0,0.0
1565342012029219889,-0.0,0.457445144653,0.0,0.0,0.0,0.0
1565342012172088170,-0.0,-0.0,0.0,0.0,0.0,0.0
1565342012221476347,-0.0,-0.0,0.0,0.0,0.0,0.0
1565342012271777336,-0.0,-0.0,0.0,0.0,0.0,0.0
1565342012322743795,-0.0,-0.0,0.0,0.0,0.0,0.0
1565342012372592805,-0.0,-0.0,0.0,0.0,0.0,0.0
1565342012422724159,-0.0,-0.0,0.0,0.0,0.0,0.0
1565342012472631399,-0.0,-0.0,0.0,0.0,0.0,0.0
1565342012522655253,-0.0,-0.0,0.0,0.0,0.0,0.0
1565342012572739211,-0.0,-0.0,0.0,0.0,0.0,0.0
1565342012623100097,-0.0,-0.0,0.0,0.0,0.0,0.0
1565342012672829263,-0.0,-0.0,0.0,0.0,0.0,0.0
1565342012723352909,-0.0,-0.0,0.0,0.0,0.0,0.0
1565342012773587805,-0.0,-0.0,0.0,0.0,0.0,0.0
1565342012908040513,-0.0,0.707054436207,0.0,0.0,0.0,0.0
1565342013011551815,-0.0,0.717880487442,0.0,0.0,0.0,0.0
1565342013139310565,-0.0,0.696196258068,0.0,0.0,0.0,0.0
1565342013243539263,-0.0,-0.0,0.0,0.0,0.0,0.0
1565342013293266034,-0.0,-0.0,0.0,0.0,0.0,0.0
1565342013343619315,-0.0,-0.0,0.0,0.0,0.0,0.0
1565342013394398586,-0.0,-0.0,0.0,0.0,0.0,0.0
1565342013444622544,-0.0,-0.0,0.0,0.0,0.0,0.0
1565342013494429159,-0.0,-0.0,0.0,0.0,0.0,0.0
1565342013616204055,-0.0,0.815571844578,0.0,0.0,0.0,0.0
1565342013720248742,-0.0,1.0,0.0,0.0,0.0,0.0
1565342013872879732,-0.0,0.28381088376,0.0,0.0,0.0,0.0
1565342013965642336,-0.0,-0.0,0.0,0.0,0.0,0.0
1565342014013726711,-0.0,-0.0,0.0,0.0,0.0,0.0
1565342014063713950,-0.0,-0.0,0.0,0.0,0.0,0.0
1565342014114071190,-0.0,-0.0,0.0,0.0,0.0,0.0
1565342014165046346,-0.0,-0.0,0.0,0.0,0.0,0.0
1565342014214453325,-0.0,-0.0,0.0,0.0,0.0,0.0
1565342014265242232,-0.0,-0.0,0.0,0.0,0.0,0.0
1565342014314575565,-0.0,-0.0,0.0,0.0,0.0,0.0
1565342014364986450,-0.0,-0.0,0.0,0.0,0.0,0.0
1565342014415237179,-0.0,-0.0,0.0,0.0,0.0,0.0
1565342014465611867,-0.0,-0.0,0.0,0.0,0.0,0.0
1565342014515802544,-0.0,-0.0,0.0,0.0,0.0,0.0
1565342014566366398,-0.0,-0.0,0.0,0.0,0.0,0.0
1565342014616334315,-0.0,-0.0,0.0,0.0,0.0,0.0
1565342014666315565,-0.0,-0.0,0.0,0.0,0.0,0.0
1565342014716420513,-0.0,-0.0,0.0,0.0,0.0,0.0
1565342014766047336,-0.0,-0.0,0.0,0.0,0.0,0.0
1565342014816397961,-0.0,-0.0,0.0,0.0,0.0,0.0
1565342014866881554,-0.0,-0.0,0.0,0.0,0.0,0.0
1565342014917119419,-0.0,-0.0,0.0,0.0,0.0,0.0
1565342014966865096,-0.0,-0.0,0.0,0.0,0.0,0.0
1565342015017298169,-0.0,-0.0,0.0,0.0,0.0,0.0
1565342015135644783,0.294669061899,-0.0,0.0,0.0,0.0,0.0
1565342015245210044,0.32721143961,-0.0,0.0,0.0,0.0,0.0
1565342015348030148,0.479129344225,-0.0,0.0,0.0,0.0,0.0
1565342015399877492,0.479129344225,-0.0,0.0,0.0,0.0,0.0
1565342015450345773,0.479129344225,-0.0,0.0,0.0,0.0,0.0
1565342015498192648,0.479129344225,-0.0,0.0,0.0,0.0,0.0
1565342015548906919,0.479129344225,-0.0,0.0,0.0,0.0,0.0
1565342015684118898,0.479129344225,-0.0,0.0,0.0,0.0,0.0
1565342015792475825,0.544246196747,-0.0,0.0,0.0,0.0,0.0
1565342015895958689,0.815571844578,-0.0,0.0,0.0,0.0,0.0
1565342015947462543,0.815571844578,-0.0,0.0,0.0,0.0,0.0
1565342015996895408,0.815571844578,-0.0,0.0,0.0,0.0,0.0
1565342016115928845,1.0,-0.0,0.0,0.0,0.0,0.0
1565342016166478325,1.0,-0.0,0.0,0.0,0.0,0.0
1565342016217547439,1.0,-0.0,0.0,0.0,0.0,0.0
1565342016268726397,1.0,-0.0,0.0,0.0,0.0,0.0
1565342016316448220,1.0,-0.0,0.0,0.0,0.0,0.0
1565342016385876918,1.0,-0.0,0.0,0.0,0.0,0.0
1565342016416728220,1.0,-0.0,0.0,0.0,0.0,0.0
1565342016467443689,1.0,-0.0,0.0,0.0,0.0,0.0
1565342016517216189,1.0,-0.0,0.0,0.0,0.0,0.0
1565342016566983793,1.0,-0.0,0.0,0.0,0.0,0.0
1565342016616839991,1.0,-0.0,0.0,0.0,0.0,0.0
1565342016667400824,1.0,-0.0,0.0,0.0,0.0,0.0
1565342016717580095,1.0,-0.0,0.0,0.0,0.0,0.0
1565342016852220720,-0.0,-0.0,0.0,0.0,0.0,0.0
1565342016897738012,-0.0,-0.0,0.0,0.0,0.0,0.0
1565342016947321606,-0.0,-0.0,0.0,0.0,0.0,0.0
1565342016997830356,-0.0,-0.0,0.0,0.0,0.0,0.0
1565342017048240616,-0.0,-0.0,0.0,0.0,0.0,0.0
1565342017098888012,-0.0,-0.0,0.0,0.0,0.0,0.0
1565342017148820147,-0.0,-0.0,0.0,0.0,0.0,0.0
1565342017199058741,-0.0,-0.0,0.0,0.0,0.0,0.0
1565342017249308064,-0.0,-0.0,0.0,0.0,0.0,0.0
1565342017299182387,-0.0,-0.0,0.0,0.0,0.0,0.0
1565342017360759418,-0.0,-0.0,0.0,0.0,0.0,0.0
1565342017399555043,-0.0,-0.0,0.0,0.0,0.0,0.0
1565342017449699262,-0.0,-0.0,0.0,0.0,0.0,0.0
1565342017592336605,-0.0,0.348927766085,0.0,0.0,0.0,0.0
1565342017695808116,-0.0,0.555104374886,0.0,0.0,0.0,0.0
1565342017806773116,-0.0,1.0,0.0,0.0,0.0,0.0
1565342017867063949,-0.0,1.0,0.0,0.0,0.0,0.0
1565342017924607022,-0.0,1.0,0.0,0.0,0.0,0.0
1565342017950288376,-0.0,1.0,0.0,0.0,0.0,0.0
1565342018000335095,-0.0,1.0,0.0,0.0,0.0,0.0
1565342018050945720,-0.0,1.0,0.0,0.0,0.0,0.0
1565342018101132699,-0.0,1.0,0.0,0.0,0.0,0.0
1565342018151213220,-0.0,1.0,0.0,0.0,0.0,0.0
1565342018201381188,-0.0,1.0,0.0,0.0,0.0,0.0
1565342018251433584,-0.0,1.0,0.0,0.0,0.0,0.0
1565342018301344522,-0.0,1.0,0.0,0.0,0.0,0.0
1565342018351408636,-0.0,1.0,0.0,0.0,0.0,0.0
1565342018401471865,-0.0,1.0,0.0,0.0,0.0,0.0
1565342018452223324,-0.0,1.0,0.0,0.0,0.0,0.0
1565342018501923428,-0.0,1.0,0.0,0.0,0.0,0.0
1565342018551976657,-0.0,1.0,0.0,0.0,0.0,0.0
1565342018601908740,-0.0,1.0,0.0,0.0,0.0,0.0
1565342018652355667,-0.0,1.0,0.0,0.0,0.0,0.0
1565342018702067334,-0.0,1.0,0.0,0.0,0.0,0.0
1565342018752713740,-0.0,1.0,0.0,0.0,0.0,0.0
1565342018803140042,-0.0,1.0,0.0,0.0,0.0,0.0
1565342018853824417,-0.0,1.0,0.0,0.0,0.0,0.0
1565342018904140771,-0.0,1.0,0.0,0.0,0.0,0.0
1565342018954021501,-0.0,1.0,0.0,0.0,0.0,0.0
1565342019003941657,-0.0,1.0,0.0,0.0,0.0,0.0
1565342019054456553,-0.0,1.0,0.0,0.0,0.0,0.0
1565342019104216396,-0.0,1.0,0.0,0.0,0.0,0.0
1565342019154017230,-0.0,1.0,0.0,0.0,0.0,0.0
1565342019204115355,-0.0,1.0,0.0,0.0,0.0,0.0
1565342019254914782,-0.0,1.0,0.0,0.0,0.0,0.0
1565342019305419365,-0.0,1.0,0.0,0.0,0.0,0.0
1565342019355535823,-0.0,1.0,0.0,0.0,0.0,0.0
1565342019404851396,-0.0,1.0,0.0,0.0,0.0,0.0
1565342019455514834,-0.0,1.0,0.0,0.0,0.0,0.0
1565342019505874261,-0.0,1.0,0.0,0.0,0.0,0.0
1565342019556203167,-0.0,1.0,0.0,0.0,0.0,0.0
1565342019605811865,-0.0,1.0,0.0,0.0,0.0,0.0
1565342019656376813,-0.0,1.0,0.0,0.0,0.0,0.0
1565342019706113011,-0.0,1.0,0.0,0.0,0.0,0.0
1565342019755741917,-0.0,1.0,0.0,0.0,0.0,0.0
1565342019814662021,-0.0,1.0,0.0,0.0,0.0,0.0
1565342019956172594,-0.0,-0.0,0.0,0.0,0.0,0.0
1565342020006671292,-0.0,-0.0,0.0,0.0,0.0,0.0
1565342020056652698,-0.0,-0.0,0.0,0.0,0.0,0.0
1565342020106134365,-0.0,-0.0,0.0,0.0,0.0,0.0
1565342020157361292,-0.0,-0.0,0.0,0.0,0.0,0.0
1565342020208088636,-0.0,-0.0,0.0,0.0,0.0,0.0
1565342020260113740,-0.0,-0.0,0.0,0.0,0.0,0.0
1565342020307225927,-0.0,-0.0,0.0,0.0,0.0,0.0
1565342020357566344,-0.0,-0.0,0.0,0.0,0.0,0.0
1565342020427221135,-0.0,-0.0,0.0,0.0,0.0,0.0
1565342020458259573,-0.0,-0.0,0.0,0.0,0.0,0.0
1565342020507908375,-0.0,-0.0,0.0,0.0,0.0,0.0
1565342020557987646,-0.0,-0.0,0.0,0.0,0.0,0.0
1565342020608513219,-0.0,-0.0,0.0,0.0,0.0,0.0
1565342020658670250,-0.0,-0.0,0.0,0.0,0.0,0.0
1565342020708829937,-0.0,-0.0,0.0,0.0,0.0,0.0
1565342020758672177,-0.0,-0.0,0.0,0.0,0.0,0.0
1565342020809057125,-0.0,-0.0,0.0,0.0,0.0,0.0
1565342020952506292,-0.0,1.0,0.0,0.0,0.0,0.0
1565342021001771864,-0.0,1.0,0.0,0.0,0.0,0.0
1565342021130365510,-0.0,-0.0,0.0,0.0,0.0,0.0
1565342021180985510,-0.0,-0.0,0.0,0.0,0.0,0.0
1565342021228940302,-0.0,-0.0,0.0,0.0,0.0,0.0
1565342021278830510,-0.0,-0.0,0.0,0.0,0.0,0.0
1565342021330370146,-0.0,-0.0,0.0,0.0,0.0,0.0
1565342021468579000,-0.0,1.0,0.0,0.0,0.0,0.0
1565342021518699364,-0.0,1.0,0.0,0.0,0.0,0.0
1565342021623673791,-0.0,-0.0,0.0,0.0,0.0,0.0
1565342021673678583,-0.0,-0.0,0.0,0.0,0.0,0.0
1565342021723693218,-0.0,-0.0,0.0,0.0,0.0,0.0
1565342021773474468,-0.0,-0.0,0.0,0.0,0.0,0.0
1565342021834597697,-0.0,-0.0,0.0,0.0,0.0,0.0
1565342021890011864,-0.0,-0.0,0.0,0.0,0.0,0.0
1565342021929721499,-0.0,-0.0,0.0,0.0,0.0,0.0
1565342022001277124,-0.0,-0.0,0.0,0.0,0.0,0.0
1565342022025079208,-0.0,-0.0,0.0,0.0,0.0,0.0
1565342022074940874,-0.0,-0.0,0.0,0.0,0.0,0.0
1565342022125231760,-0.0,-0.0,0.0,0.0,0.0,0.0
1565342022175071812,-0.0,-0.0,0.0,0.0,0.0,0.0
1565342022225418531,-0.0,-0.0,0.0,0.0,0.0,0.0
1565342022340015614,-0.0,0.32721143961,0.0,0.0,0.0,0.0
1565342022469159676,-0.0,0.544246196747,0.0,0.0,0.0,0.0
1565342022575473791,-0.0,0.544246196747,0.0,0.0,0.0,0.0
1565342022626021030,-0.0,0.544246196747,0.0,0.0,0.0,0.0
1565342022731725457,-0.0,-0.0,0.0,0.0,0.0,0.0
1565342022782221551,-0.0,-0.0,0.0,0.0,0.0,0.0
1565342022832423166,-0.0,-0.0,0.0,0.0,0.0,0.0
1565342022882077176,-0.0,-0.0,0.0,0.0,0.0,0.0
1565342022932201447,-0.0,-0.0,0.0,0.0,0.0,0.0
1565342022997781395,-0.0,-0.0,0.0,0.0,0.0,0.0
1565342023113688530,-0.0,0.142719000578,0.0,0.0,0.0,0.0
1565342023227885926,-0.0,0.13186083734,0.0,0.0,0.0,0.0
1565342023278311968,-0.0,0.13186083734,0.0,0.0,0.0,0.0
1565342023329794624,-0.0,0.13186083734,0.0,0.0,0.0,0.0
1565342023380177176,-0.0,0.13186083734,0.0,0.0,0.0,0.0
1565342023503590405,-0.0,0.153577163815,0.0,0.0,0.0,0.0
1565342023608116655,-0.0,0.175293505192,0.0,0.0,0.0,0.0
1565342023724206499,-0.0,0.28381088376,0.0,0.0,0.0,0.0
1565342023774633738,-0.0,0.28381088376,0.0,0.0,0.0,0.0
1565342023828179103,-0.0,0.28381088376,0.0,0.0,0.0,0.0
1565342023884847124,-0.0,0.28381088376,0.0,0.0,0.0,0.0
1565342023925031967,-0.0,0.28381088376,0.0,0.0,0.0,0.0
1565342023974823999,-0.0,0.28381088376,0.0,0.0,0.0,0.0
1565342024026232332,-0.0,0.28381088376,0.0,0.0,0.0,0.0
1565342024075344832,-0.0,0.28381088376,0.0,0.0,0.0,0.0
1565342024129169832,-0.0,0.28381088376,0.0,0.0,0.0,0.0
1565342024175955509,-0.0,0.28381088376,0.0,0.0,0.0,0.0
1565342024319592592,-0.0,0.28381088376,0.0,0.0,0.0,0.0
1565342024381657644,-0.0,0.28381088376,0.0,0.0,0.0,0.0
1565342024434298217,-0.0,0.28381088376,0.0,0.0,0.0,0.0
1565342024468055196,-0.0,0.28381088376,0.0,0.0,0.0,0.0
1565342024621654103,-0.0,0.294669061899,0.0,0.0,0.0,0.0
1565342024701530613,-0.0,0.294669061899,0.0,0.0,0.0,0.0
1565342024827375873,-0.0,0.28381088376,0.0,0.0,0.0,0.0
1565342024874924623,-0.0,0.28381088376,0.0,0.0,0.0,0.0
1565342024899163478,-0.0,0.28381088376,0.0,0.0,0.0,0.0
1565342024949567280,-0.0,0.28381088376,0.0,0.0,0.0,0.0
1565342025059704207,-0.0,0.28381088376,0.0,0.0,0.0,0.0
1565342025163567019,-0.0,0.294669061899,0.0,0.0,0.0,0.0
1565342025287738790,-0.0,0.338069587946,0.0,0.0,0.0,0.0
1565342025397938477,-0.0,0.338069587946,0.0,0.0,0.0,0.0
1565342025446563373,-0.0,0.338069587946,0.0,0.0,0.0,0.0
1565342025496267436,-0.0,0.338069587946,0.0,0.0,0.0,0.0
1565342025546549363,-0.0,0.338069587946,0.0,0.0,0.0,0.0
1565342025665608581,-0.0,0.338069587946,0.0,0.0,0.0,0.0
1565342025713814936,-0.0,0.338069587946,0.0,0.0,0.0,0.0
1565342025869823425,-0.0,0.338069587946,0.0,0.0,0.0,0.0
1565342025906226342,-0.0,0.338069587946,0.0,0.0,0.0,0.0
1565342025974644415,-0.0,0.338069587946,0.0,0.0,0.0,0.0
1565342026006388373,-0.0,0.338069587946,0.0,0.0,0.0,0.0
1565342026056409415,-0.0,0.338069587946,0.0,0.0,0.0,0.0
1565342026115955612,-0.0,0.338069587946,0.0,0.0,0.0,0.0
1565342026157065092,-0.0,0.338069587946,0.0,0.0,0.0,0.0
1565342026207690977,-0.0,0.338069587946,0.0,0.0,0.0,0.0
1565342026258601498,-0.0,0.338069587946,0.0,0.0,0.0,0.0
1565342026308331706,-0.0,0.338069587946,0.0,0.0,0.0,0.0
1565342026436229258,-0.0,0.370611965656,0.0,0.0,0.0,0.0
1565342026581281498,-0.0,0.424870669842,0.0,0.0,0.0,0.0
1565342026671918789,-0.0,0.457445144653,0.0,0.0,0.0,0.0
1565342026724413060,-0.0,0.457445144653,0.0,0.0,0.0,0.0
1565342026864835873,-0.0,0.468303322792,0.0,0.0,0.0,0.0
1565342026916434623,-0.0,0.468303322792,0.0,0.0,0.0,0.0
1565342026964088529,-0.0,0.468303322792,0.0,0.0,0.0,0.0
1565342027014323164,-0.0,0.468303322792,0.0,0.0,0.0,0.0
1565342027123849102,-0.0,0.479129344225,0.0,0.0,0.0,0.0
1565342027174529570,-0.0,0.479129344225,0.0,0.0,0.0,0.0
1565342027224749050,-0.0,0.479129344225,0.0,0.0,0.0,0.0
1565342027274436914,-0.0,0.479129344225,0.0,0.0,0.0,0.0
1565342027325072695,-0.0,0.479129344225,0.0,0.0,0.0,0.0
1565342027374644258,-0.0,0.479129344225,0.0,0.0,0.0,0.0
1565342027425218424,-0.0,0.479129344225,0.0,0.0,0.0,0.0
1565342027475416497,-0.0,0.479129344225,0.0,0.0,0.0,0.0
1565342027583541445,-0.0,0.489987522364,0.0,0.0,0.0,0.0
1565342027634058060,-0.0,0.489987522364,0.0,0.0,0.0,0.0
1565342027752205508,-0.0,0.489987522364,0.0,0.0,0.0,0.0
1565342027808363737,-0.0,0.489987522364,0.0,0.0,0.0,0.0
1565342027957237331,-0.0,0.511703848839,0.0,0.0,0.0,0.0
1565342028048053216,-0.0,0.544246196747,0.0,0.0,0.0,0.0
1565342028125146601,-0.0,0.544246196747,0.0,0.0,0.0,0.0
1565342028148188008,-0.0,0.544246196747,0.0,0.0,0.0,0.0
1565342028198328528,-0.0,0.544246196747,0.0,0.0,0.0,0.0
1565342028248502643,-0.0,0.544246196747,0.0,0.0,0.0,0.0
1565342028299313945,-0.0,0.544246196747,0.0,0.0,0.0,0.0
1565342028349361810,-0.0,0.544246196747,0.0,0.0,0.0,0.0
1565342028459904934,-0.0,-0.0,0.0,0.0,0.0,0.0
1565342028510190403,-0.0,-0.0,0.0,0.0,0.0,0.0
1565342028560216393,-0.0,-0.0,0.0,0.0,0.0,0.0
1565342028610455091,-0.0,-0.0,0.0,0.0,0.0,0.0
1565342028660791861,-0.0,-0.0,0.0,0.0,0.0,0.0
1565342028710663476,-0.0,-0.0,0.0,0.0,0.0,0.0
1565342028761325976,-0.0,-0.0,0.0,0.0,0.0,0.0
1565342028811070507,-0.0,-0.0,0.0,0.0,0.0,0.0
1565342028861868788,-0.0,-0.0,0.0,0.0,0.0,0.0
1565342028912504934,-0.0,-0.0,0.0,0.0,0.0,0.0
1565342028965605820,-0.0,-0.0,0.0,0.0,0.0,0.0
1565342029076533320,-0.0,-0.175261378288,0.0,0.0,0.0,0.0
1565342029126500247,-0.0,-0.175261378288,0.0,0.0,0.0,0.0
1565342029176511184,-0.0,-0.175261378288,0.0,0.0,0.0,0.0
1565342029291711236,-0.0,-0.283778756857,0.0,0.0,0.0,0.0
1565342029399770611,-0.0,-0.359721660614,0.0,0.0,0.0,0.0
1565342029451636288,-0.0,-0.359721660614,0.0,0.0,0.0,0.0
1565342029499903215,-0.0,-0.359721660614,0.0,0.0,0.0,0.0
1565342029550181340,-0.0,-0.359721660614,0.0,0.0,0.0,0.0
1565342029601016080,-0.0,-0.359721660614,0.0,0.0,0.0,0.0
1565342029650639413,-0.0,-0.359721660614,0.0,0.0,0.0,0.0
1565342029788256809,-0.0,-0.359721660614,0.0,0.0,0.0,0.0
1565342029903308267,-0.0,-0.359721660614,0.0,0.0,0.0,0.0
1565342030047831965,-0.0,-0.359721660614,0.0,0.0,0.0,0.0
1565342030186832278,-0.0,-0.359721660614,0.0,0.0,0.0,0.0
1565342030299575403,-0.0,-0.359721660614,0.0,0.0,0.0,0.0
1565342030349632798,-0.0,-0.359721660614,0.0,0.0,0.0,0.0
1565342030472540611,-0.0,-0.370579838753,0.0,0.0,0.0,0.0
1565342030579819361,-0.0,-0.370579838753,0.0,0.0,0.0,0.0
1565342030684734829,-0.0,-0.435696691275,0.0,0.0,0.0,0.0
1565342030811720142,-0.0,-0.446554869413,0.0,0.0,0.0,0.0
1565342030927968892,-0.0,-0.45741301775,0.0,0.0,0.0,0.0
1565342031061104933,-0.0,-0.565930426121,0.0,0.0,0.0,0.0
1565342031163594986,-0.0,-0.609330952168,0.0,0.0,0.0,0.0
1565342031214099308,-0.0,-0.609330952168,0.0,0.0,0.0,0.0
1565342031264131392,-0.0,-0.609330952168,0.0,0.0,0.0,0.0
1565342031313839048,-0.0,-0.609330952168,0.0,0.0,0.0,0.0
1565342031439891392,-0.0,-0.620189130306,0.0,0.0,0.0,0.0
1565342031490241235,-0.0,-0.620189130306,0.0,0.0,0.0,0.0
1565342031539908527,-0.0,-0.620189130306,0.0,0.0,0.0,0.0
1565342031647691079,-0.0,-0.707022309303,0.0,0.0,0.0,0.0
1565342031779882694,-0.0,-0.717848360538,0.0,0.0,0.0,0.0
1565342031976971912,-0.0,-0.728706538677,0.0,0.0,0.0,0.0
1565342031984927433,-0.0,-0.728706538677,0.0,0.0,0.0,0.0
1565342032067813266,-0.0,-0.728706538677,0.0,0.0,0.0,0.0
1565342032184016756,-0.0,-0.717848360538,0.0,0.0,0.0,0.0
1565342032234948683,-0.0,-0.717848360538,0.0,0.0,0.0,0.0
1565342032284855193,-0.0,-0.717848360538,0.0,0.0,0.0,0.0
1565342032335489881,-0.0,-0.717848360538,0.0,0.0,0.0,0.0
1565342032448603370,-0.0,-0.717848360538,0.0,0.0,0.0,0.0
1565342032564087902,-0.0,-0.728706538677,0.0,0.0,0.0,0.0
1565342032668619725,-0.0,-0.728706538677,0.0,0.0,0.0,0.0
1565342032784052224,-0.0,-0.728706538677,0.0,0.0,0.0,0.0
1565342032924376391,-0.0,-0.728706538677,0.0,0.0,0.0,0.0
1565342033028851964,-0.0,-0.728706538677,0.0,0.0,0.0,0.0
1565342033078242901,-0.0,-0.728706538677,0.0,0.0,0.0,0.0
1565342033129150193,-0.0,-0.728706538677,0.0,0.0,0.0,0.0
1565342033272132068,-0.0,-0.739564657211,0.0,0.0,0.0,0.0
1565342033322286912,-0.0,-0.739564657211,0.0,0.0,0.0,0.0
1565342033432676287,-0.0,-0.110144510865,0.0,0.0,0.0,0.0
1565342033540197276,-0.0,-0.0,0.0,0.0,0.0,0.0
1565342033590798995,-0.0,-0.0,0.0,0.0,0.0,0.0
1565342033640827224,-0.0,-0.0,0.0,0.0,0.0,0.0
1565342033690758370,-0.0,-0.0,0.0,0.0,0.0,0.0
1565342033741087797,-0.0,-0.0,0.0,0.0,0.0,0.0
1565342033792665557,-0.0,-0.0,0.0,0.0,0.0,0.0
1565342033856883839,-0.0,-0.0,0.0,0.0,0.0,0.0
1565342033891992641,-0.0,-0.0,0.0,0.0,0.0,0.0
1565342033941568005,-0.0,-0.0,0.0,0.0,0.0,0.0
1565342033991833995,-0.0,-0.0,0.0,0.0,0.0,0.0
1565342034041918005,-0.0,-0.0,0.0,0.0,0.0,0.0
1565342034092042120,-0.0,-0.0,0.0,0.0,0.0,0.0
1565342034142228839,-0.0,-0.0,0.0,0.0,0.0,0.0
1565342034192261911,-0.0,-0.0,0.0,0.0,0.0,0.0
1565342034242262484,-0.0,-0.0,0.0,0.0,0.0,0.0
1565342034344993161,-0.0,-0.142686888576,0.0,0.0,0.0,0.0
1565342034448507120,-0.0,-0.522529900074,0.0,0.0,0.0,0.0
1565342034551664568,-0.0,-0.576788604259,0.0,0.0,0.0,0.0
1565342034656548109,-0.0,-0.587646722794,0.0,0.0,0.0,0.0
1565342034768305922,0.00165924313478,-0.587646722794,0.0,0.0,0.0,0.0
1565342034909835505,0.0342016108334,-0.772107064724,0.0,0.0,0.0,0.0
1565342035011996859,0.0450597777963,-0.815539717674,0.0,0.0,0.0,0.0
1565342035136559724,0.0559179410338,-0.815539717674,0.0,0.0,0.0,0.0
1565342035248273682,0.0559179410338,-0.815539717674,0.0,0.0,0.0,0.0
1565342035376130921,0.0559179410338,-0.815539717674,0.0,0.0,0.0,0.0
1565342035520775869,0.0559179410338,-0.826365768909,0.0,0.0,0.0,0.0
1565342035569915036,0.0559179410338,-0.826365768909,0.0,0.0,0.0,0.0
1565342035620683369,0.0559179410338,-0.826365768909,0.0,0.0,0.0,0.0
1565342035756096078,0.0559179410338,-0.815539717674,0.0,0.0,0.0,0.0
1565342035906042171,0.0667439773679,-0.815539717674,0.0,0.0,0.0,0.0
1565342036000717223,0.077602148056,-0.956599473953,0.0,0.0,0.0,0.0
1565342036050625557,0.077602148056,-0.956599473953,0.0,0.0,0.0,0.0
1565342036179952900,0.077602148056,-0.956599473953,0.0,0.0,0.0,0.0
1565342036300626859,0.0667439773679,-0.739564657211,0.0,0.0,0.0,0.0
1565342036403916494,-0.0,-0.0,0.0,0.0,0.0,0.0
1565342036456907900,-0.0,-0.0,0.0,0.0,0.0,0.0
1565342036505266390,-0.0,-0.0,0.0,0.0,0.0,0.0
1565342036555177640,-0.0,-0.0,0.0,0.0,0.0,0.0
1565342036605777952,-0.0,-0.0,0.0,0.0,0.0,0.0
1565342036655697171,-0.0,-0.0,0.0,0.0,0.0,0.0
1565342036705764358,-0.0,-0.0,0.0,0.0,0.0,0.0
1565342036755877119,-0.0,-0.0,0.0,0.0,0.0,0.0
1565342036806559306,-0.0,-0.0,0.0,0.0,0.0,0.0
1565342036863756494,-0.0,-0.0,0.0,0.0,0.0,0.0
1565342036946435140,-0.0,-0.0,0.0,0.0,0.0,0.0
1565342036957105973,-0.0,-0.0,0.0,0.0,0.0,0.0
1565342037006548160,-0.0,-0.0,0.0,0.0,0.0,0.0
1565342037067079150,-0.0,-0.0,0.0,0.0,0.0,0.0
1565342037106499150,-0.0,-0.0,0.0,0.0,0.0,0.0
1565342037158037379,-0.0,-0.0,0.0,0.0,0.0,0.0
1565342037207845556,-0.0,-0.0,0.0,0.0,0.0,0.0
1565342037258240973,-0.0,-0.0,0.0,0.0,0.0,0.0
1565342037388149879,-0.0,-0.218661904335,0.0,0.0,0.0,0.0
1565342037492757900,-0.0,-0.294636934996,0.0,0.0,0.0,0.0
1565342037542587014,-0.0,-0.294636934996,0.0,0.0,0.0,0.0
1565342037695788681,-0.0,-0.565930426121,0.0,0.0,0.0,0.0
1565342037792877639,0.00165924313478,-0.587646722794,0.0,0.0,0.0,0.0
1565342037880288629,0.00165924313478,-0.587646722794,0.0,0.0,0.0,0.0
1565342037892703264,0.00165924313478,-0.587646722794,0.0,0.0,0.0,0.0
1565342037949470191,0.00165924313478,-0.587646722794,0.0,0.0,0.0,0.0
1565342037993713368,0.00165924313478,-0.587646722794,0.0,0.0,0.0,0.0
1565342038100174931,0.00165924313478,-0.598472774029,0.0,0.0,0.0,0.0
1565342038150665868,0.00165924313478,-0.598472774029,0.0,0.0,0.0,0.0
1565342038200679618,0.00165924313478,-0.598472774029,0.0,0.0,0.0,0.0
1565342038304373004,0.00165924313478,-0.587646722794,0.0,0.0,0.0,0.0
1565342038448498004,0.0124852824956,-0.587646722794,0.0,0.0,0.0,0.0
1565342038567115295,0.0124852824956,-0.598472774029,0.0,0.0,0.0,0.0
1565342038670236701,0.0450597777963,-0.609330952168,0.0,0.0,0.0,0.0
1565342038772483316,-0.0,-0.0,0.0,0.0,0.0,0.0
1565342038822449306,-0.0,-0.0,0.0,0.0,0.0,0.0
1565342038874120451,-0.0,-0.0,0.0,0.0,0.0,0.0
1565342038922661805,-0.0,-0.0,0.0,0.0,0.0,0.0
1565342038972979097,-0.0,-0.0,0.0,0.0,0.0,0.0
1565342039022970816,-0.0,-0.0,0.0,0.0,0.0,0.0
1565342039073336701,-0.0,-0.0,0.0,0.0,0.0,0.0
1565342039123795607,-0.0,-0.0,0.0,0.0,0.0,0.0
1565342039173879774,-0.0,-0.0,0.0,0.0,0.0,0.0
1565342039223962587,-0.0,-0.0,0.0,0.0,0.0,0.0
1565342039274357899,-0.0,-0.0,0.0,0.0,0.0,0.0
1565342039324497430,-0.0,-0.0,0.0,0.0,0.0,0.0
1565342039374501909,-0.0,-0.0,0.0,0.0,0.0,0.0
1565342039424675191,-0.0,-0.0,0.0,0.0,0.0,0.0
1565342039485653889,-0.0,-0.0,0.0,0.0,0.0,0.0
1565342039525505295,-0.0,-0.0,0.0,0.0,0.0,0.0
1565342039575201076,-0.0,-0.0,0.0,0.0,0.0,0.0
1565342039628840607,-0.0,-0.0,0.0,0.0,0.0,0.0
1565342039675644461,-0.0,-0.0,0.0,0.0,0.0,0.0
1565342039725659514,-0.0,-0.0,0.0,0.0,0.0,0.0
1565342039869750034,0.0124852824956,-0.641905426979,0.0,0.0,0.0,0.0
1565342039960655555,0.0124852824956,-0.620189130306,0.0,0.0,0.0,0.0
1565342040064569357,-0.0,-0.0,0.0,0.0,0.0,0.0
1565342040114553368,-0.0,-0.0,0.0,0.0,0.0,0.0
1565342040165697430,-0.0,-0.0,0.0,0.0,0.0,0.0
1565342040214833003,-0.0,-0.0,0.0,0.0,0.0,0.0
1565342040329385347,0.0342016108334,-1.0,0.0,0.0,0.0,0.0
1565342040476084409,-0.0,-0.0,0.0,0.0,0.0,0.0
1565342040526835034,-0.0,-0.0,0.0,0.0,0.0,0.0
1565342040576430138,-0.0,-0.0,0.0,0.0,0.0,0.0
1565342040626604774,-0.0,-0.0,0.0,0.0,0.0,0.0
1565342040677039409,-0.0,-0.0,0.0,0.0,0.0,0.0
1565342040749016440,-0.0,-0.0,0.0,0.0,0.0,0.0
1565342040777688159,-0.0,-0.0,0.0,0.0,0.0,0.0
1565342040829191180,-0.0,-0.0,0.0,0.0,0.0,0.0
1565342040879545398,-0.0,-0.0,0.0,0.0,0.0,0.0
1565342040932178055,-0.0,-0.0,0.0,0.0,0.0,0.0
1565342040977948107,-0.0,-0.0,0.0,0.0,0.0,0.0
1565342041028204669,-0.0,-0.0,0.0,0.0,0.0,0.0
1565342041078555971,-0.0,-0.0,0.0,0.0,0.0,0.0
1565342041220706961,-0.0,0.28381088376,0.0,0.0,0.0,0.0
1565342041332174773,-0.0,0.32721143961,0.0,0.0,0.0,0.0
1565342041382342846,-0.0,0.32721143961,0.0,0.0,0.0,0.0
1565342041483694044,-0.0,0.338069587946,0.0,0.0,0.0,0.0
1565342041536666023,-0.0,0.338069587946,0.0,0.0,0.0,0.0
1565342041584944304,-0.0,0.338069587946,0.0,0.0,0.0,0.0
1565342041635080138,-0.0,0.338069587946,0.0,0.0,0.0,0.0
1565342041764305815,-0.0,-0.0,0.0,0.0,0.0,0.0
1565342041818404825,-0.0,-0.0,0.0,0.0,0.0,0.0
1565342041895997481,-0.0,-0.0,0.0,0.0,0.0,0.0
1565342041936016284,-0.0,-0.0,0.0,0.0,0.0,0.0
1565342041966422429,-0.0,-0.0,0.0,0.0,0.0,0.0
1565342042015506908,-0.0,-0.0,0.0,0.0,0.0,0.0
1565342042065919408,-0.0,-0.0,0.0,0.0,0.0,0.0
1565342042115518419,-0.0,-0.0,0.0,0.0,0.0,0.0
1565342042165770658,-0.0,-0.0,0.0,0.0,0.0,0.0
1565342042216494252,-0.0,-0.0,0.0,0.0,0.0,0.0
1565342042267575190,-0.0,-0.0,0.0,0.0,0.0,0.0
1565342042316748054,-0.0,-0.0,0.0,0.0,0.0,0.0
1565342042376154773,-0.0,-0.0,0.0,0.0,0.0,0.0
1565342042422409617,-0.0,-0.0,0.0,0.0,0.0,0.0
1565342042467708835,-0.0,-0.0,0.0,0.0,0.0,0.0
1565342042517074929,-0.0,-0.0,0.0,0.0,0.0,0.0
1565342042569331700,-0.0,-0.0,0.0,0.0,0.0,0.0
1565342042622240762,-0.0,-0.0,0.0,0.0,0.0,0.0
1565342042667743939,-0.0,-0.0,0.0,0.0,0.0,0.0
1565342042717982325,-0.0,-0.0,0.0,0.0,0.0,0.0
1565342042768072637,-0.0,-0.0,0.0,0.0,0.0,0.0
1565342042818369564,-0.0,-0.0,0.0,0.0,0.0,0.0
1565342042868717325,-0.0,-0.0,0.0,0.0,0.0,0.0
1565342042918166127,-0.0,-0.0,0.0,0.0,0.0,0.0
1565342042969182689,-0.0,-0.0,0.0,0.0,0.0,0.0
1565342043072384564,-0.0,0.251236408949,0.0,0.0,0.0,0.0
1565342043177036596,-0.0,0.294669061899,0.0,0.0,0.0,0.0
1565342043280411283,-0.0,0.305495113134,0.0,0.0,0.0,0.0
1565342043384599773,-0.0,0.305495113134,0.0,0.0,0.0,0.0
1565342043434562741,-0.0,0.305495113134,0.0,0.0,0.0,0.0
1565342043485363054,-0.0,0.305495113134,0.0,0.0,0.0,0.0
1565342043535172689,-0.0,0.305495113134,0.0,0.0,0.0,0.0
1565342043585628210,-0.0,0.305495113134,0.0,0.0,0.0,0.0
1565342043634896127,-0.0,0.305495113134,0.0,0.0,0.0,0.0
1565342043687207429,-0.0,0.305495113134,0.0,0.0,0.0,0.0
1565342043735410554,-0.0,0.305495113134,0.0,0.0,0.0,0.0
1565342043785724824,-0.0,0.305495113134,0.0,0.0,0.0,0.0
1565342043924057272,-0.0,0.468303322792,0.0,0.0,0.0,0.0
1565342044035906074,-0.0,0.489987522364,0.0,0.0,0.0,0.0
1565342044086327897,-0.0,0.489987522364,0.0,0.0,0.0,0.0
1565342044231846595,-0.0,0.489987522364,0.0,0.0,0.0,0.0
1565342044281967637,-0.0,0.489987522364,0.0,0.0,0.0,0.0
1565342044407881595,-0.0,0.522562026978,0.0,0.0,0.0,0.0
1565342044512575033,-0.0,0.641937553883,0.0,0.0,0.0,0.0
1565342044619918157,-0.0,0.707054436207,0.0,0.0,0.0,0.0
1565342044670357949,-0.0,0.707054436207,0.0,0.0,0.0,0.0
1565342044720894876,-0.0,0.707054436207,0.0,0.0,0.0,0.0
1565342044771217116,-0.0,0.707054436207,0.0,0.0,0.0,0.0
1565342044908204928,-0.0,0.717880487442,0.0,0.0,0.0,0.0
1565342044958704512,-0.0,0.717880487442,0.0,0.0,0.0,0.0
1565342045008708366,-0.0,0.717880487442,0.0,0.0,0.0,0.0
1565342045059461855,-0.0,0.717880487442,0.0,0.0,0.0,0.0
1565342045168275657,-0.0,-0.0,0.0,0.0,0.0,0.0
1565342045271468991,-0.0,-0.0,0.0,0.0,0.0,0.0
1565342045322083678,-0.0,-0.0,0.0,0.0,0.0,0.0
1565342045372194407,-0.0,-0.0,0.0,0.0,0.0,0.0
1565342045422149876,-0.0,-0.0,0.0,0.0,0.0,0.0
1565342045472325397,-0.0,-0.0,0.0,0.0,0.0,0.0
1565342045522478626,-0.0,-0.0,0.0,0.0,0.0,0.0
1565342045573444772,-0.0,-0.0,0.0,0.0,0.0,0.0
1565342045622869095,-0.0,-0.0,0.0,0.0,0.0,0.0
1565342045673103001,-0.0,-0.0,0.0,0.0,0.0,0.0
1565342045723703678,-0.0,-0.0,0.0,0.0,0.0,0.0
1565342045773917480,-0.0,-0.0,0.0,0.0,0.0,0.0
1565342045849459928,-0.0,-0.0,0.0,0.0,0.0,0.0
1565342045876930657,-0.0,-0.0,0.0,0.0,0.0,0.0
1565342045928546594,-0.0,-0.0,0.0,0.0,0.0,0.0
1565342045973607844,-0.0,-0.0,0.0,0.0,0.0,0.0
1565342046049653990,-0.0,-0.0,0.0,0.0,0.0,0.0
1565342046074019824,-0.0,-0.0,0.0,0.0,0.0,0.0
1565342046124326855,-0.0,-0.0,0.0,0.0,0.0,0.0
1565342046174512636,-0.0,-0.0,0.0,0.0,0.0,0.0
1565342046296621751,-0.0,0.674479961395,0.0,0.0,0.0,0.0
1565342046400061282,-0.0,0.728738665581,0.0,0.0,0.0,0.0
1565342046532406386,-0.0,0.696196258068,0.0,0.0,0.0,0.0
1565342046582252480,-0.0,0.696196258068,0.0,0.0,0.0,0.0
1565342046632410709,-0.0,0.696196258068,0.0,0.0,0.0,0.0
1565342046744379615,-0.0,0.685338079929,0.0,0.0,0.0,0.0
1565342046848591646,-0.0,0.685338079929,0.0,0.0,0.0,0.0
1565342046898292636,-0.0,0.685338079929,0.0,0.0,0.0,0.0
1565342046958200917,-0.0,0.685338079929,0.0,0.0,0.0,0.0
1565342047096052479,-0.0,0.685338079929,0.0,0.0,0.0,0.0
1565342047201010813,-0.0,-0.0,0.0,0.0,0.0,0.0
1565342047250188209,-0.0,-0.0,0.0,0.0,0.0,0.0
1565342047306792063,-0.0,-0.0,0.0,0.0,0.0,0.0
1565342047350382115,-0.0,-0.0,0.0,0.0,0.0,0.0
1565342047400719667,-0.0,-0.0,0.0,0.0,0.0,0.0
1565342047451003156,-0.0,-0.0,0.0,0.0,0.0,0.0
1565342047501349927,-0.0,-0.0,0.0,0.0,0.0,0.0
1565342047551700969,-0.0,-0.0,0.0,0.0,0.0,0.0
1565342047601366333,-0.0,-0.0,0.0,0.0,0.0,0.0
1565342047652558052,-0.0,-0.0,0.0,0.0,0.0,0.0
1565342047701710188,-0.0,-0.0,0.0,0.0,0.0,0.0
1565342047751959667,-0.0,-0.0,0.0,0.0,0.0,0.0
1565342047805466281,-0.0,-0.0,0.0,0.0,0.0,0.0
1565342047875325917,-0.0,-0.0,0.0,0.0,0.0,0.0
1565342047904188833,-0.0,-0.0,0.0,0.0,0.0,0.0
1565342047953623781,-0.0,-0.0,0.0,0.0,0.0,0.0
1565342048002703312,-0.0,-0.0,0.0,0.0,0.0,0.0
1565342048052762375,-0.0,-0.0,0.0,0.0,0.0,0.0
1565342048102897479,-0.0,-0.0,0.0,0.0,0.0,0.0
1565342048153177896,-0.0,-0.0,0.0,0.0,0.0,0.0
1565342048203038937,-0.0,-0.0,0.0,0.0,0.0,0.0
1565342048258320396,-0.0,-0.0,0.0,0.0,0.0,0.0
1565342048303907323,-0.0,-0.0,0.0,0.0,0.0,0.0
1565342048353923312,-0.0,-0.0,0.0,0.0,0.0,0.0
1565342048403900604,-0.0,-0.0,0.0,0.0,0.0,0.0
1565342048454677375,-0.0,-0.0,0.0,0.0,0.0,0.0
1565342048504331958,-0.0,-0.0,0.0,0.0,0.0,0.0
1565342048555167687,-0.0,-0.0,0.0,0.0,0.0,0.0
1565342048606392635,-0.0,-0.0,0.0,0.0,0.0,0.0
1565342048657061906,-0.0,-0.0,0.0,0.0,0.0,0.0
1565342048704773833,-0.0,-0.0,0.0,0.0,0.0,0.0
1565342048754987791,-0.0,-0.0,0.0,0.0,0.0,0.0
1565342048805489927,-0.0,-0.0,0.0,0.0,0.0,0.0
1565342048855490812,-0.0,-0.0,0.0,0.0,0.0,0.0
1565342048907698937,-0.0,-0.0,0.0,0.0,0.0,0.0
1565342048955617843,-0.0,-0.0,0.0,0.0,0.0,0.0
1565342049005650187,-0.0,-0.0,0.0,0.0,0.0,0.0
1565342049055946593,-0.0,-0.0,0.0,0.0,0.0,0.0
1565342049106156072,-0.0,-0.0,0.0,0.0,0.0,0.0
1565342049156510031,-0.0,-0.0,0.0,0.0,0.0,0.0
1565342049206411541,-0.0,-0.0,0.0,0.0,0.0,0.0
1565342049312492791,-0.0,0.457445144653,0.0,0.0,0.0,0.0
1565342049416525551,-0.0,0.685338079929,0.0,0.0,0.0,0.0
1565342049530273572,-0.0,0.728738665581,0.0,0.0,0.0,0.0
1565342049579097999,-0.0,0.728738665581,0.0,0.0,0.0,0.0
1565342049629784093,-0.0,0.728738665581,0.0,0.0,0.0,0.0
1565342049680716228,-0.0,0.728738665581,0.0,0.0,0.0,0.0
1565342049731950916,-0.0,0.728738665581,0.0,0.0,0.0,0.0
1565342049778784041,-0.0,0.728738665581,0.0,0.0,0.0,0.0
1565342049904232322,-0.0,0.728738665581,0.0,0.0,0.0,0.0
1565342050024526697,-0.0,0.717880487442,0.0,0.0,0.0,0.0
1565342050167906853,-0.0,0.815571844578,0.0,0.0,0.0,0.0
1565342050272592947,-0.0,1.0,0.0,0.0,0.0,0.0
1565342050322475187,-0.0,1.0,0.0,0.0,0.0,0.0
1565342050372779926,-0.0,1.0,0.0,0.0,0.0,0.0
1565342050422769822,-0.0,1.0,0.0,0.0,0.0,0.0
1565342050472859197,-0.0,1.0,0.0,0.0,0.0,0.0
1565342050523077999,-0.0,1.0,0.0,0.0,0.0,0.0
1565342050573039301,-0.0,1.0,0.0,0.0,0.0,0.0
1565342050623545082,-0.0,1.0,0.0,0.0,0.0,0.0
1565342050673489405,-0.0,1.0,0.0,0.0,0.0,0.0
1565342050724306801,-0.0,1.0,0.0,0.0,0.0,0.0
1565342050774001853,-0.0,1.0,0.0,0.0,0.0,0.0
1565342050824242582,-0.0,1.0,0.0,0.0,0.0,0.0
1565342050874131124,-0.0,1.0,0.0,0.0,0.0,0.0
1565342050924522582,-0.0,1.0,0.0,0.0,0.0,0.0
1565342050974630811,-0.0,1.0,0.0,0.0,0.0,0.0
1565342051024724978,-0.0,1.0,0.0,0.0,0.0,0.0
1565342051074899665,-0.0,1.0,0.0,0.0,0.0,0.0
1565342051125498936,-0.0,1.0,0.0,0.0,0.0,0.0
1565342051175404613,-0.0,1.0,0.0,0.0,0.0,0.0
1565342051225455551,-0.0,1.0,0.0,0.0,0.0,0.0
1565342051275782634,-0.0,1.0,0.0,0.0,0.0,0.0
1565342051325503311,-0.0,1.0,0.0,0.0,0.0,0.0
1565342051375607634,-0.0,1.0,0.0,0.0,0.0,0.0
1565342051426090967,-0.0,1.0,0.0,0.0,0.0,0.0
1565342051476185811,-0.0,1.0,0.0,0.0,0.0,0.0
1565342051592528207,-0.0,-0.0,0.0,0.0,0.0,0.0
1565342051642475603,-0.0,-0.0,0.0,0.0,0.0,0.0
1565342051692849509,-0.0,-0.0,0.0,0.0,0.0,0.0
1565342051743039301,-0.0,-0.0,0.0,0.0,0.0,0.0
1565342051793457582,-0.0,-0.0,0.0,0.0,0.0,0.0
1565342051845348155,-0.0,-0.0,0.0,0.0,0.0,0.0
1565342051901801905,-0.0,-0.0,0.0,0.0,0.0,0.0
1565342051950201436,-0.0,-0.0,0.0,0.0,0.0,0.0
1565342051993818519,-0.0,-0.0,0.0,0.0,0.0,0.0
1565342052044212321,-0.0,-0.0,0.0,0.0,0.0,0.0
1565342052094085915,-0.0,-0.0,0.0,0.0,0.0,0.0
1565342052144190394,-0.0,-0.0,0.0,0.0,0.0,0.0
1565342052194860446,-0.0,-0.0,0.0,0.0,0.0,0.0
1565342052244708884,-0.0,-0.0,0.0,0.0,0.0,0.0
1565342052294970550,-0.0,-0.0,0.0,0.0,0.0,0.0
1565342052344806071,-0.0,-0.0,0.0,0.0,0.0,0.0
1565342052396077061,-0.0,-0.0,0.0,0.0,0.0,0.0
1565342052445000863,-0.0,-0.0,0.0,0.0,0.0,0.0
1565342052496043207,-0.0,-0.0,0.0,0.0,0.0,0.0
1565342052545578884,-0.0,-0.0,0.0,0.0,0.0,0.0
1565342052598137842,-0.0,-0.0,0.0,0.0,0.0,0.0
1565342052649038623,-0.0,-0.0,0.0,0.0,0.0,0.0
1565342052702299092,-0.0,-0.0,0.0,0.0,0.0,0.0
1565342052745831175,-0.0,-0.0,0.0,0.0,0.0,0.0
1565342052796555915,-0.0,-0.0,0.0,0.0,0.0,0.0
1565342052846665706,-0.0,-0.0,0.0,0.0,0.0,0.0
1565342052897051644,-0.0,-0.0,0.0,0.0,0.0,0.0
1565342052947068467,-0.0,-0.0,0.0,0.0,0.0,0.0
1565342052997522946,-0.0,-0.0,0.0,0.0,0.0,0.0
1565342053047452790,-0.0,-0.0,0.0,0.0,0.0,0.0
1565342053097238258,-0.0,-0.0,0.0,0.0,0.0,0.0
1565342053147522581,-0.0,-0.0,0.0,0.0,0.0,0.0
1565342053197325967,-0.0,-0.0,0.0,0.0,0.0,0.0
1565342053247972685,-0.0,-0.0,0.0,0.0,0.0,0.0
1565342053297972529,-0.0,-0.0,0.0,0.0,0.0,0.0
1565342053348367998,-0.0,-0.0,0.0,0.0,0.0,0.0
1565342053398902737,-0.0,-0.0,0.0,0.0,0.0,0.0
1565342053448652790,-0.0,-0.0,0.0,0.0,0.0,0.0
1565342053498614196,-0.0,-0.0,0.0,0.0,0.0,0.0
1565342053548593519,-0.0,-0.0,0.0,0.0,0.0,0.0
1565342053599127112,-0.0,-0.0,0.0,0.0,0.0,0.0
1565342053649464404,-0.0,-0.0,0.0,0.0,0.0,0.0
1565342053706974664,-0.0,-0.0,0.0,0.0,0.0,0.0
1565342053749483883,-0.0,-0.0,0.0,0.0,0.0,0.0
1565342053799982737,-0.0,-0.0,0.0,0.0,0.0,0.0
1565342053857319091,-0.0,-0.0,0.0,0.0,0.0,0.0
1565342053900067216,-0.0,-0.0,0.0,0.0,0.0,0.0
1565342053950225185,-0.0,-0.0,0.0,0.0,0.0,0.0
1565342054000242008,-0.0,-0.0,0.0,0.0,0.0,0.0
1565342054050705706,-0.0,-0.0,0.0,0.0,0.0,0.0
1565342054100853310,-0.0,-0.0,0.0,0.0,0.0,0.0
1565342054151675289,-0.0,-0.0,0.0,0.0,0.0,0.0
1565342054201150914,-0.0,-0.0,0.0,0.0,0.0,0.0
1565342054251701123,-0.0,-0.0,0.0,0.0,0.0,0.0
1565342054301567060,-0.0,-0.0,0.0,0.0,0.0,0.0
1565342054352059091,-0.0,-0.0,0.0,0.0,0.0,0.0
1565342054401634612,-0.0,-0.0,0.0,0.0,0.0,0.0
1565342054452818570,-0.0,-0.0,0.0,0.0,0.0,0.0
1565342054502183727,-0.0,-0.0,0.0,0.0,0.0,0.0
1565342054552398935,-0.0,-0.0,0.0,0.0,0.0,0.0
1565342054602222789,-0.0,-0.0,0.0,0.0,0.0,0.0
1565342054653443258,-0.0,-0.0,0.0,0.0,0.0,0.0
1565342054702614768,-0.0,-0.0,0.0,0.0,0.0,0.0
1565342054816949195,-0.0,0.28381088376,0.0,0.0,0.0,0.0
1565342054956633570,-0.0,0.272952735424,0.0,0.0,0.0,0.0
1565342055092711799,-0.0,0.837256014347,0.0,0.0,0.0,0.0
1565342055196806226,-0.0,0.869830548763,0.0,0.0,0.0,0.0
1565342055246137320,-0.0,0.869830548763,0.0,0.0,0.0,0.0
1565342055296704820,-0.0,0.869830548763,0.0,0.0,0.0,0.0
1565342055346630080,-0.0,0.869830548763,0.0,0.0,0.0,0.0
1565342055398053570,-0.0,0.869830548763,0.0,0.0,0.0,0.0
1565342055447432060,-0.0,0.869830548763,0.0,0.0,0.0,0.0
1565342055497588987,-0.0,0.869830548763,0.0,0.0,0.0,0.0
1565342055547873935,-0.0,0.869830548763,0.0,0.0,0.0,0.0
1565342055598126018,-0.0,0.869830548763,0.0,0.0,0.0,0.0
1565342055744683934,-0.0,-0.0,0.0,0.0,0.0,0.0
1565342055795297216,-0.0,-0.0,0.0,0.0,0.0,0.0
1565342055884428987,-0.0,-0.0,0.0,0.0,0.0,0.0
1565342055894628778,-0.0,-0.0,0.0,0.0,0.0,0.0
1565342055948207320,-0.0,-0.0,0.0,0.0,0.0,0.0
1565342055995959091,-0.0,-0.0,0.0,0.0,0.0,0.0
1565342056045662424,-0.0,-0.0,0.0,0.0,0.0,0.0
1565342056096040601,-0.0,-0.0,0.0,0.0,0.0,0.0
1565342056146090288,-0.0,-0.0,0.0,0.0,0.0,0.0
1565342056196771695,-0.0,-0.0,0.0,0.0,0.0,0.0
1565342056245835288,-0.0,-0.0,0.0,0.0,0.0,0.0
1565342056296318570,-0.0,-0.0,0.0,0.0,0.0,0.0
1565342056346469663,-0.0,-0.0,0.0,0.0,0.0,0.0
1565342056397467736,-0.0,-0.0,0.0,0.0,0.0,0.0
1565342056447141538,-0.0,-0.0,0.0,0.0,0.0,0.0
1565342056496846486,-0.0,-0.0,0.0,0.0,0.0,0.0
1565342056546849090,-0.0,-0.0,0.0,0.0,0.0,0.0
1565342056597873778,-0.0,-0.0,0.0,0.0,0.0,0.0
1565342056647569299,-0.0,-0.0,0.0,0.0,0.0,0.0
1565342056697508726,-0.0,-0.0,0.0,0.0,0.0,0.0
1565342056747735809,-0.0,-0.0,0.0,0.0,0.0,0.0
1565342056798176851,-0.0,-0.0,0.0,0.0,0.0,0.0
1565342056856323674,-0.0,-0.0,0.0,0.0,0.0,0.0
1565342056898210601,-0.0,-0.0,0.0,0.0,0.0,0.0
1565342056948597424,-0.0,-0.0,0.0,0.0,0.0,0.0
1565342056998887684,-0.0,-0.0,0.0,0.0,0.0,0.0
1565342057048717632,-0.0,-0.0,0.0,0.0,0.0,0.0
1565342057102511799,-0.0,-0.0,0.0,0.0,0.0,0.0
1565342057150920861,-0.0,-0.0,0.0,0.0,0.0,0.0
1565342057199453517,-0.0,-0.0,0.0,0.0,0.0,0.0
1565342057249740392,-0.0,-0.0,0.0,0.0,0.0,0.0
1565342057299855236,-0.0,-0.0,0.0,0.0,0.0,0.0
1565342057349913257,-0.0,-0.0,0.0,0.0,0.0,0.0
1565342057399883621,-0.0,-0.0,0.0,0.0,0.0,0.0
1565342057450547840,-0.0,-0.0,0.0,0.0,0.0,0.0
1565342057500536850,-0.0,-0.0,0.0,0.0,0.0,0.0
1565342057550580496,-0.0,-0.0,0.0,0.0,0.0,0.0
1565342057601256278,-0.0,-0.0,0.0,0.0,0.0,0.0
1565342057651174403,-0.0,-0.0,0.0,0.0,0.0,0.0
1565342057820104194,-0.0,-0.0,0.0,0.0,0.0,0.0
1565342057880998309,-0.0,-0.0,0.0,0.0,0.0,0.0
1565342057969937579,-0.0,-0.392296165228,0.0,0.0,0.0,0.0
1565342058080441329,-0.0,-0.403154343367,0.0,0.0,0.0,0.0
1565342058184837579,-0.0,-0.707022309303,0.0,0.0,0.0,0.0
1565342058288449767,-0.0,-0.772107064724,0.0,0.0,0.0,0.0
1565342058404493413,-0.0,-0.0,0.0,0.0,0.0,0.0
1565342058454943256,-0.0,-0.0,0.0,0.0,0.0,0.0
1565342058504722944,-0.0,-0.0,0.0,0.0,0.0,0.0
1565342058555079558,-0.0,-0.0,0.0,0.0,0.0,0.0
1565342058604977215,-0.0,-0.0,0.0,0.0,0.0,0.0
1565342058655238881,-0.0,-0.0,0.0,0.0,0.0,0.0
1565342058705235027,-0.0,-0.0,0.0,0.0,0.0,0.0
1565342058755741850,-0.0,-0.0,0.0,0.0,0.0,0.0
1565342058806029454,-0.0,-0.0,0.0,0.0,0.0,0.0
1565342058859847267,-0.0,-0.0,0.0,0.0,0.0,0.0
1565342058985238048,-0.0,-0.913198947906,0.0,0.0,0.0,0.0
1565342059088665964,-0.0,-0.989173948765,0.0,0.0,0.0,0.0
1565342059199333725,-0.0,-0.0,0.0,0.0,0.0,0.0
1565342059251318569,-0.0,-0.0,0.0,0.0,0.0,0.0
1565342059296924089,-0.0,-0.0,0.0,0.0,0.0,0.0
1565342059347356016,-0.0,-0.0,0.0,0.0,0.0,0.0
1565342059397797371,-0.0,-0.0,0.0,0.0,0.0,0.0
1565342059447503933,-0.0,-0.0,0.0,0.0,0.0,0.0
1565342059497487162,-0.0,-0.0,0.0,0.0,0.0,0.0
1565342059547965339,-0.0,-0.0,0.0,0.0,0.0,0.0
1565342059597733256,-0.0,-0.0,0.0,0.0,0.0,0.0
1565342059648217995,-0.0,-0.0,0.0,0.0,0.0,0.0
1565342059698487787,-0.0,-0.0,0.0,0.0,0.0,0.0
1565342059748460808,-0.0,-0.0,0.0,0.0,0.0,0.0
1565342059798853933,-0.0,-0.0,0.0,0.0,0.0,0.0
1565342059848669402,-0.0,-0.0,0.0,0.0,0.0,0.0
1565342059899163829,-0.0,-0.0,0.0,0.0,0.0,0.0
1565342059950015443,-0.0,-0.0,0.0,0.0,0.0,0.0
1565342059999903360,-0.0,-0.0,0.0,0.0,0.0,0.0
1565342060049797735,-0.0,-0.0,0.0,0.0,0.0,0.0
1565342060109549037,-0.0,-0.0,0.0,0.0,0.0,0.0
1565342060149929089,-0.0,-0.0,0.0,0.0,0.0,0.0
1565342060199989662,-0.0,-0.0,0.0,0.0,0.0,0.0
1565342060250242631,-0.0,-0.0,0.0,0.0,0.0,0.0
1565342060300134297,-0.0,-0.0,0.0,0.0,0.0,0.0
1565342060420600599,-0.0,-0.262062430382,0.0,0.0,0.0,0.0
1565342060529352422,-0.0,-0.370579838753,0.0,0.0,0.0,0.0
1565342060640401120,-0.0,-0.479097217321,0.0,0.0,0.0,0.0
1565342060745530912,-0.0,-0.587646722794,0.0,0.0,0.0,0.0
1565342060795034089,-0.0,-0.587646722794,0.0,0.0,0.0,0.0
1565342060844944662,-0.0,-0.587646722794,0.0,0.0,0.0,0.0
1565342060895330287,-0.0,-0.587646722794,0.0,0.0,0.0,0.0
1565342060945695599,-0.0,-0.587646722794,0.0,0.0,0.0,0.0
1565342060996963620,-0.0,-0.587646722794,0.0,0.0,0.0,0.0
1565342061113322526,-0.0,-0.598472774029,0.0,0.0,0.0,0.0
1565342061262930234,-0.0,-0.598472774029,0.0,0.0,0.0,0.0
1565342061368389037,-0.0,-0.587646722794,0.0,0.0,0.0,0.0
1565342061512492839,-0.0,-0.674447834492,0.0,0.0,0.0,0.0
1565342061617100651,-0.0,-0.728706538677,0.0,0.0,0.0,0.0
1565342061760542109,-0.0,-0.739564657211,0.0,0.0,0.0,0.0
1565342061817570495,-0.0,-0.739564657211,0.0,0.0,0.0,0.0
1565342061927017265,-0.0,-0.772107064724,0.0,0.0,0.0,0.0
1565342062037119870,-0.0,-1.0,0.0,0.0,0.0,0.0
1565342062086737995,-0.0,-1.0,0.0,0.0,0.0,0.0
1565342062137105390,-0.0,-1.0,0.0,0.0,0.0,0.0
1565342062187191380,-0.0,-1.0,0.0,0.0,0.0,0.0
1565342062237571536,-0.0,-1.0,0.0,0.0,0.0,0.0
1565342062287748463,-0.0,-1.0,0.0,0.0,0.0,0.0
1565342062338146588,-0.0,-1.0,0.0,0.0,0.0,0.0
1565342062387914192,-0.0,-1.0,0.0,0.0,0.0,0.0
1565342062437795703,-0.0,-1.0,0.0,0.0,0.0,0.0
1565342062488135546,-0.0,-1.0,0.0,0.0,0.0,0.0
1565342062538279609,-0.0,-1.0,0.0,0.0,0.0,0.0
1565342062588949921,-0.0,-1.0,0.0,0.0,0.0,0.0
1565342062638298724,-0.0,-1.0,0.0,0.0,0.0,0.0
1565342062688700807,-0.0,-1.0,0.0,0.0,0.0,0.0
1565342062739128203,-0.0,-1.0,0.0,0.0,0.0,0.0
1565342062804738046,-0.0,-1.0,0.0,0.0,0.0,0.0
1565342062839061432,-0.0,-1.0,0.0,0.0,0.0,0.0
1565342062890167682,-0.0,-1.0,0.0,0.0,0.0,0.0
1565342062939794244,-0.0,-1.0,0.0,0.0,0.0,0.0
1565342062990210963,-0.0,-1.0,0.0,0.0,0.0,0.0
1565342063040681796,-0.0,-1.0,0.0,0.0,0.0,0.0
1565342063090224869,-0.0,-1.0,0.0,0.0,0.0,0.0
1565342063142848150,-0.0,-1.0,0.0,0.0,0.0,0.0
1565342063190529400,-0.0,-1.0,0.0,0.0,0.0,0.0
1565342063240738932,-0.0,-1.0,0.0,0.0,0.0,0.0
1565342063298974296,-0.0,-1.0,0.0,0.0,0.0,0.0
1565342063351147317,-0.0,-1.0,0.0,0.0,0.0,0.0
1565342063393643411,-0.0,-1.0,0.0,0.0,0.0,0.0
1565342063441609088,-0.0,-1.0,0.0,0.0,0.0,0.0
1565342063491945077,-0.0,-1.0,0.0,0.0,0.0,0.0
1565342063541842682,-0.0,-1.0,0.0,0.0,0.0,0.0
1565342063592342004,-0.0,-1.0,0.0,0.0,0.0,0.0
1565342063642037681,-0.0,-1.0,0.0,0.0,0.0,0.0
1565342063692309661,-0.0,-1.0,0.0,0.0,0.0,0.0
1565342063742641275,-0.0,-1.0,0.0,0.0,0.0,0.0
1565342063793842213,-0.0,-1.0,0.0,0.0,0.0,0.0
1565342063859513098,-0.0,-1.0,0.0,0.0,0.0,0.0
1565342063892405129,-0.0,-1.0,0.0,0.0,0.0,0.0
1565342063946996588,-0.0,-1.0,0.0,0.0,0.0,0.0
1565342063993940546,-0.0,-1.0,0.0,0.0,0.0,0.0
1565342064043512004,-0.0,-1.0,0.0,0.0,0.0,0.0
1565342064093642369,-0.0,-1.0,0.0,0.0,0.0,0.0
1565342064143594973,-0.0,-1.0,0.0,0.0,0.0,0.0
1565342064194177004,-0.0,-1.0,0.0,0.0,0.0,0.0
1565342064243879452,-0.0,-1.0,0.0,0.0,0.0,0.0
1565342064294267473,-0.0,-1.0,0.0,0.0,0.0,0.0
1565342064344577837,-0.0,-1.0,0.0,0.0,0.0,0.0
1565342064453171639,-0.0,-0.0,0.0,0.0,0.0,0.0
1565342064508656587,-0.0,-0.0,0.0,0.0,0.0,0.0
1565342064553305129,-0.0,-0.0,0.0,0.0,0.0,0.0
1565342064602943619,-0.0,-0.0,0.0,0.0,0.0,0.0
1565342064653726171,-0.0,-0.0,0.0,0.0,0.0,0.0
1565342064703540337,-0.0,-0.0,0.0,0.0,0.0,0.0
1565342064753544816,-0.0,-0.0,0.0,0.0,0.0,0.0
1565342064803735233,-0.0,-0.0,0.0,0.0,0.0,0.0
1565342064854343879,-0.0,-0.0,0.0,0.0,0.0,0.0
1565342064904146535,-0.0,-0.0,0.0,0.0,0.0,0.0
1565342064954808775,-0.0,-0.0,0.0,0.0,0.0,0.0
1565342065005174400,-0.0,-0.0,0.0,0.0,0.0,0.0
1565342065055175910,-0.0,-0.0,0.0,0.0,0.0,0.0
1565342065105122264,-0.0,-0.0,0.0,0.0,0.0,0.0
1565342065155445129,-0.0,-0.0,0.0,0.0,0.0,0.0
1565342065205727941,-0.0,-0.0,0.0,0.0,0.0,0.0
1565342065258969452,-0.0,-0.0,0.0,0.0,0.0,0.0
1565342065305853931,-0.0,-0.0,0.0,0.0,0.0,0.0
1565342065355896743,-0.0,-0.0,0.0,0.0,0.0,0.0
1565342065406029139,-0.0,-0.0,0.0,0.0,0.0,0.0
1565342065456206118,-0.0,-0.0,0.0,0.0,0.0,0.0
1565342065506179347,-0.0,-0.0,0.0,0.0,0.0,0.0
1565342065556656587,-0.0,-0.0,0.0,0.0,0.0,0.0
1565342065607459347,-0.0,-0.0,0.0,0.0,0.0,0.0
1565342065657654139,-0.0,-0.0,0.0,0.0,0.0,0.0
1565342065707386743,-0.0,-0.0,0.0,0.0,0.0,0.0
1565342065757659295,-0.0,-0.0,0.0,0.0,0.0,0.0
1565342065810777056,-0.0,-0.0,0.0,0.0,0.0,0.0
1565342065948598618,-0.0,-1.0,0.0,0.0,0.0,0.0
1565342065960923358,-0.0,-1.0,0.0,0.0,0.0,0.0
1565342066009268983,-0.0,-1.0,0.0,0.0,0.0,0.0
1565342066061811483,-0.0,-1.0,0.0,0.0,0.0,0.0
1565342066110426743,-0.0,-1.0,0.0,0.0,0.0,0.0
1565342066160172472,-0.0,-1.0,0.0,0.0,0.0,0.0
1565342066210360753,-0.0,-1.0,0.0,0.0,0.0,0.0
1565342066261168045,-0.0,-1.0,0.0,0.0,0.0,0.0
1565342066311203983,-0.0,-1.0,0.0,0.0,0.0,0.0
1565342066361094816,-0.0,-1.0,0.0,0.0,0.0,0.0
1565342066412089607,-0.0,-1.0,0.0,0.0,0.0,0.0
1565342066464743462,-0.0,-1.0,0.0,0.0,0.0,0.0
1565342066523385337,-0.0,-1.0,0.0,0.0,0.0,0.0
1565342066561361378,-0.0,-1.0,0.0,0.0,0.0,0.0
1565342066611354868,-0.0,-1.0,0.0,0.0,0.0,0.0
1565342066662922003,-0.0,-1.0,0.0,0.0,0.0,0.0
1565342066711624347,-0.0,-1.0,0.0,0.0,0.0,0.0
1565342066867408253,-0.0,-1.0,0.0,0.0,0.0,0.0
1565342066934182784,-0.0,-1.0,0.0,0.0,0.0,0.0
1565342067026729451,-0.0,-1.0,0.0,0.0,0.0,0.0
1565342067077468670,-0.0,-1.0,0.0,0.0,0.0,0.0
1565342067125077628,-0.0,-1.0,0.0,0.0,0.0,0.0
1565342067239435857,-0.0,-1.0,0.0,0.0,0.0,0.0
1565342067364929815,-0.0,-0.0,0.0,0.0,0.0,0.0
1565342067428038670,-0.0,-0.0,0.0,0.0,0.0,0.0
1565342067465442159,-0.0,-0.0,0.0,0.0,0.0,0.0
1565342067516466586,-0.0,-0.0,0.0,0.0,0.0,0.0
1565342067565795492,-0.0,-0.0,0.0,0.0,0.0,0.0
1565342067615770909,-0.0,-0.0,0.0,0.0,0.0,0.0
1565342067665816065,-0.0,-0.0,0.0,0.0,0.0,0.0
1565342067716280597,-0.0,-0.0,0.0,0.0,0.0,0.0
1565342067766365649,-0.0,-0.0,0.0,0.0,0.0,0.0
1565342067818664242,-0.0,-0.0,0.0,0.0,0.0,0.0
1565342067877899034,-0.0,-0.0,0.0,0.0,0.0,0.0
1565342067947707159,-0.0,-0.0,0.0,0.0,0.0,0.0
1565342067966745284,-0.0,-0.0,0.0,0.0,0.0,0.0
1565342068017000388,-0.0,-0.0,0.0,0.0,0.0,0.0
1565342068067451169,-0.0,-0.0,0.0,0.0,0.0,0.0
1565342068117780180,-0.0,-0.0,0.0,0.0,0.0,0.0
1565342068256639555,-0.0,0.28381088376,0.0,0.0,0.0,0.0
1565342068364291326,-0.0,0.7938554883,0.0,0.0,0.0,0.0
1565342068466822732,-0.0,0.91323107481,0.0,0.0,0.0,0.0
1565342068600677471,-0.0,0.815571844578,0.0,0.0,0.0,0.0
1565342068650757419,-0.0,0.815571844578,0.0,0.0,0.0,0.0
1565342068752513148,-0.0,0.804713666439,0.0,0.0,0.0,0.0
1565342068802974034,-0.0,0.804713666439,0.0,0.0,0.0,0.0
1565342068904585596,-0.0,0.739596784115,0.0,0.0,0.0,0.0
1565342069008533461,-0.0,0.598504900932,0.0,0.0,0.0,0.0
1565342069129377784,-0.0,0.641937553883,0.0,0.0,0.0,0.0
1565342069248476690,-0.0,0.674479961395,0.0,0.0,0.0,0.0
1565342069365285440,-0.0,-0.0,0.0,0.0,0.0,0.0
1565342069416123148,-0.0,-0.0,0.0,0.0,0.0,0.0
1565342069465073617,-0.0,-0.0,0.0,0.0,0.0,0.0
1565342069515472106,-0.0,-0.0,0.0,0.0,0.0,0.0
1565342069565624815,-0.0,-0.0,0.0,0.0,0.0,0.0
1565342069615889554,-0.0,-0.0,0.0,0.0,0.0,0.0
1565342069666292054,-0.0,-0.0,0.0,0.0,0.0,0.0
1565342069716321481,-0.0,-0.0,0.0,0.0,0.0,0.0
1565342069766755492,-0.0,-0.0,0.0,0.0,0.0,0.0
1565342069820833148,-0.0,-0.0,0.0,0.0,0.0,0.0
1565342069876409085,-0.0,-0.0,0.0,0.0,0.0,0.0
1565342069916838200,-0.0,-0.0,0.0,0.0,0.0,0.0
1565342069967102783,-0.0,-0.0,0.0,0.0,0.0,0.0
1565342070017517939,-0.0,-0.0,0.0,0.0,0.0,0.0
1565342070067390804,-0.0,-0.0,0.0,0.0,0.0,0.0
1565342070117331377,-0.0,-0.0,0.0,0.0,0.0,0.0
1565342070167468252,-0.0,-0.0,0.0,0.0,0.0,0.0
1565342070217797679,-0.0,-0.0,0.0,0.0,0.0,0.0
1565342070268220231,-0.0,-0.0,0.0,0.0,0.0,0.0
1565342070318719346,-0.0,-0.0,0.0,0.0,0.0,0.0
1565342070368583408,-0.0,-0.0,0.0,0.0,0.0,0.0
1565342070418732939,-0.0,-0.0,0.0,0.0,0.0,0.0
1565342070469186012,-0.0,-0.0,0.0,0.0,0.0,0.0
1565342070519147366,-0.0,-0.0,0.0,0.0,0.0,0.0
1565342070569051637,-0.0,-0.0,0.0,0.0,0.0,0.0
1565342070619049970,-0.0,-0.0,0.0,0.0,0.0,0.0
1565342070669668564,-0.0,-0.0,0.0,0.0,0.0,0.0
1565342070720157679,-0.0,-0.0,0.0,0.0,0.0,0.0
1565342070853639502,-0.0,0.945773422718,0.0,0.0,0.0,0.0
1565342070957067939,-0.0,1.0,0.0,0.0,0.0,0.0
1565342071007065908,-0.0,1.0,0.0,0.0,0.0,0.0
1565342071057565595,-0.0,1.0,0.0,0.0,0.0,0.0
1565342071107217366,-0.0,1.0,0.0,0.0,0.0,0.0
1565342071157451533,-0.0,1.0,0.0,0.0,0.0,0.0
1565342071207371637,-0.0,1.0,0.0,0.0,0.0,0.0
1565342071257619710,-0.0,1.0,0.0,0.0,0.0,0.0
1565342071307979710,-0.0,1.0,0.0,0.0,0.0,0.0
1565342071358016272,-0.0,1.0,0.0,0.0,0.0,0.0
1565342071408039085,-0.0,1.0,0.0,0.0,0.0,0.0
1565342071458564658,-0.0,1.0,0.0,0.0,0.0,0.0
1565342071508794085,-0.0,1.0,0.0,0.0,0.0,0.0
1565342071558654397,-0.0,1.0,0.0,0.0,0.0,0.0
1565342071608837366,-0.0,1.0,0.0,0.0,0.0,0.0
1565342071658846168,-0.0,1.0,0.0,0.0,0.0,0.0
1565342071709202991,-0.0,1.0,0.0,0.0,0.0,0.0
1565342071759293199,-0.0,1.0,0.0,0.0,0.0,0.0
1565342071814944085,-0.0,1.0,0.0,0.0,0.0,0.0
1565342071876207053,-0.0,1.0,0.0,0.0,0.0,0.0
1565342071935189710,-0.0,1.0,0.0,0.0,0.0,0.0
1565342071960009762,-0.0,1.0,0.0,0.0,0.0,0.0
1565342072009698616,-0.0,1.0,0.0,0.0,0.0,0.0
1565342072060344970,-0.0,1.0,0.0,0.0,0.0,0.0
1565342072110321220,-0.0,1.0,0.0,0.0,0.0,0.0
1565342072160719032,-0.0,1.0,0.0,0.0,0.0,0.0
1565342072210769137,-0.0,1.0,0.0,0.0,0.0,0.0
1565342072261365230,-0.0,1.0,0.0,0.0,0.0,0.0
1565342072311296064,-0.0,1.0,0.0,0.0,0.0,0.0
1565342072361207626,-0.0,1.0,0.0,0.0,0.0,0.0
1565342072411834814,-0.0,1.0,0.0,0.0,0.0,0.0
1565342072461906168,-0.0,1.0,0.0,0.0,0.0,0.0
1565342072512188459,-0.0,1.0,0.0,0.0,0.0,0.0
1565342072562980178,-0.0,1.0,0.0,0.0,0.0,0.0
1565342072612058563,-0.0,1.0,0.0,0.0,0.0,0.0
1565342072662311480,-0.0,1.0,0.0,0.0,0.0,0.0
1565342072712605543,-0.0,1.0,0.0,0.0,0.0,0.0
1565342072762336480,-0.0,1.0,0.0,0.0,0.0,0.0
1565342072812599188,-0.0,1.0,0.0,0.0,0.0,0.0
1565342072862682365,-0.0,1.0,0.0,0.0,0.0,0.0
1565342072913240438,-0.0,1.0,0.0,0.0,0.0,0.0
1565342072963281324,-0.0,1.0,0.0,0.0,0.0,0.0
1565342073013206740,-0.0,1.0,0.0,0.0,0.0,0.0
1565342073065309449,-0.0,1.0,0.0,0.0,0.0,0.0
1565342073115522470,-0.0,1.0,0.0,0.0,0.0,0.0
1565342073167327626,-0.0,1.0,0.0,0.0,0.0,0.0
1565342073214040178,-0.0,1.0,0.0,0.0,0.0,0.0
1565342073264619657,-0.0,1.0,0.0,0.0,0.0,0.0
1565342073313987834,-0.0,1.0,0.0,0.0,0.0,0.0
1565342073364352886,-0.0,1.0,0.0,0.0,0.0,0.0
1565342073415524917,-0.0,1.0,0.0,0.0,0.0,0.0
1565342073465734761,-0.0,1.0,0.0,0.0,0.0,0.0
1565342073515158563,-0.0,1.0,0.0,0.0,0.0,0.0
1565342073565003407,-0.0,1.0,0.0,0.0,0.0,0.0
1565342073615572053,-0.0,1.0,0.0,0.0,0.0,0.0
1565342073665251636,-0.0,1.0,0.0,0.0,0.0,0.0
1565342073715566636,-0.0,1.0,0.0,0.0,0.0,0.0
1565342073766181532,-0.0,1.0,0.0,0.0,0.0,0.0
1565342073820425751,-0.0,1.0,0.0,0.0,0.0,0.0
1565342073869611219,-0.0,1.0,0.0,0.0,0.0,0.0
1565342073916313719,-0.0,1.0,0.0,0.0,0.0,0.0
1565342073966149813,-0.0,1.0,0.0,0.0,0.0,0.0
1565342074016815959,-0.0,1.0,0.0,0.0,0.0,0.0
1565342074067300855,-0.0,1.0,0.0,0.0,0.0,0.0
1565342074117769136,-0.0,1.0,0.0,0.0,0.0,0.0
1565342074166792209,-0.0,1.0,0.0,0.0,0.0,0.0
1565342074217322052,-0.0,1.0,0.0,0.0,0.0,0.0
1565342074267392938,-0.0,1.0,0.0,0.0,0.0,0.0
1565342074317354396,-0.0,1.0,0.0,0.0,0.0,0.0
1565342074367553250,-0.0,1.0,0.0,0.0,0.0,0.0
1565342074417646063,-0.0,1.0,0.0,0.0,0.0,0.0
1565342074468840021,-0.0,1.0,0.0,0.0,0.0,0.0
1565342074518640698,-0.0,1.0,0.0,0.0,0.0,0.0
1565342074569471531,-0.0,1.0,0.0,0.0,0.0,0.0
1565342074618968979,-0.0,1.0,0.0,0.0,0.0,0.0
1565342074668948927,-0.0,1.0,0.0,0.0,0.0,0.0
1565342074719222938,-0.0,1.0,0.0,0.0,0.0,0.0
1565342074769239552,-0.0,1.0,0.0,0.0,0.0,0.0
1565342074819064292,-0.0,1.0,0.0,0.0,0.0,0.0
1565342074957199865,-0.0,-0.0,0.0,0.0,0.0,0.0
1565342075008094292,-0.0,-0.0,0.0,0.0,0.0,0.0
1565342075059979813,-0.0,-0.0,0.0,0.0,0.0,0.0
1565342075110903719,-0.0,-0.0,0.0,0.0,0.0,0.0
1565342075158335229,-0.0,-0.0,0.0,0.0,0.0,0.0
1565342075208648562,-0.0,-0.0,0.0,0.0,0.0,0.0
1565342075258772625,-0.0,-0.0,0.0,0.0,0.0,0.0
1565342075308853302,-0.0,-0.0,0.0,0.0,0.0,0.0
1565342075358848771,-0.0,-0.0,0.0,0.0,0.0,0.0
1565342075408948614,-0.0,-0.0,0.0,0.0,0.0,0.0
1565342075473093510,-0.0,-0.0,0.0,0.0,0.0,0.0
1565342075509408458,-0.0,-0.0,0.0,0.0,0.0,0.0
1565342075560395750,-0.0,-0.0,0.0,0.0,0.0,0.0
1565342075609906687,-0.0,-0.0,0.0,0.0,0.0,0.0
1565342075660038771,-0.0,-0.0,0.0,0.0,0.0,0.0
1565342075710174604,-0.0,-0.0,0.0,0.0,0.0,0.0
1565342075760081010,-0.0,-0.0,0.0,0.0,0.0,0.0
1565342075816274552,-0.0,-0.0,0.0,0.0,0.0,0.0
1565342075866971062,-0.0,-0.0,0.0,0.0,0.0,0.0
1565342075911407260,-0.0,-0.0,0.0,0.0,0.0,0.0
1565342075961055698,-0.0,-0.0,0.0,0.0,0.0,0.0
1565342076011062833,-0.0,-0.0,0.0,0.0,0.0,0.0
1565342076061004083,-0.0,-0.0,0.0,0.0,0.0,0.0
1565342076111260177,-0.0,-0.0,0.0,0.0,0.0,0.0
1565342076161661218,-0.0,-0.0,0.0,0.0,0.0,0.0
1565342076211746323,-0.0,-0.0,0.0,0.0,0.0,0.0
1565342076263535281,-0.0,-0.0,0.0,0.0,0.0,0.0
1565342076312186531,-0.0,-0.0,0.0,0.0,0.0,0.0
1565342076362302364,-0.0,-0.0,0.0,0.0,0.0,0.0
1565342076412767104,-0.0,-0.0,0.0,0.0,0.0,0.0
1565342076463218614,-0.0,-0.0,0.0,0.0,0.0,0.0
1565342076513140958,-0.0,-0.0,0.0,0.0,0.0,0.0
1565342076563453718,-0.0,-0.0,0.0,0.0,0.0,0.0
1565342076613544083,-0.0,-0.0,0.0,0.0,0.0,0.0
1565342076663385802,-0.0,-0.0,0.0,0.0,0.0,0.0
1565342076715607781,-0.0,-0.0,0.0,0.0,0.0,0.0
1565342076764736010,-0.0,-0.0,0.0,0.0,0.0,0.0
1565342076815072520,-0.0,-0.0,0.0,0.0,0.0,0.0
1565342076871724812,-0.0,-0.0,0.0,0.0,0.0,0.0
1565342076922950072,-0.0,-0.0,0.0,0.0,0.0,0.0
1565342076966627312,-0.0,-0.0,0.0,0.0,0.0,0.0
1565342077014460333,-0.0,-0.0,0.0,0.0,0.0,0.0
1565342077064566843,-0.0,-0.0,0.0,0.0,0.0,0.0
1565342077115091010,-0.0,-0.0,0.0,0.0,0.0,0.0
1565342077164603353,-0.0,-0.0,0.0,0.0,0.0,0.0
1565342077215441687,-0.0,-0.0,0.0,0.0,0.0,0.0
1565342077266215489,-0.0,-0.0,0.0,0.0,0.0,0.0
1565342077315652312,-0.0,-0.0,0.0,0.0,0.0,0.0
1565342077365491791,-0.0,-0.0,0.0,0.0,0.0,0.0
1565342077416372780,-0.0,-0.0,0.0,0.0,0.0,0.0
1565342077466352937,-0.0,-0.0,0.0,0.0,0.0,0.0
1565342077516065801,-0.0,-0.0,0.0,0.0,0.0,0.0
1565342077566628978,-0.0,-0.0,0.0,0.0,0.0,0.0
1565342077617405384,-0.0,-0.0,0.0,0.0,0.0,0.0
1565342077669170749,-0.0,-0.0,0.0,0.0,0.0,0.0
1565342077717037728,-0.0,-0.0,0.0,0.0,0.0,0.0
1565342077767545176,-0.0,-0.0,0.0,0.0,0.0,0.0
1565342077824834239,-0.0,-0.0,0.0,0.0,0.0,0.0
1565342077880143249,-0.0,-0.0,0.0,0.0,0.0,0.0
1565342077926017520,-0.0,-0.0,0.0,0.0,0.0,0.0
1565342077967701166,-0.0,-0.0,0.0,0.0,0.0,0.0
1565342078032539707,-0.0,-0.0,0.0,0.0,0.0,0.0
1565342078068169134,-0.0,-0.0,0.0,0.0,0.0,0.0
1565342078118106947,-0.0,-0.0,0.0,0.0,0.0,0.0
1565342078168536270,-0.0,-0.0,0.0,0.0,0.0,0.0
1565342078218882936,-0.0,-0.0,0.0,0.0,0.0,0.0
1565342078268921686,-0.0,-0.0,0.0,0.0,0.0,0.0
1565342078318997468,-0.0,-0.0,0.0,0.0,0.0,0.0
1565342078369450801,-0.0,-0.0,0.0,0.0,0.0,0.0
1565342078419770280,-0.0,-0.0,0.0,0.0,0.0,0.0
1565342078470066270,-0.0,-0.0,0.0,0.0,0.0,0.0
1565342078520064603,-0.0,-0.0,0.0,0.0,0.0,0.0
1565342078569935176,-0.0,-0.0,0.0,0.0,0.0,0.0
1565342078620420072,-0.0,-0.0,0.0,0.0,0.0,0.0
1565342078669969030,-0.0,-0.0,0.0,0.0,0.0,0.0
1565342078720566269,-0.0,-0.0,0.0,0.0,0.0,0.0
1565342078770780384,-0.0,-0.0,0.0,0.0,0.0,0.0
1565342078820832311,-0.0,-0.0,0.0,0.0,0.0,0.0
1565342078870897103,-0.0,-0.0,0.0,0.0,0.0,0.0
1565342078922014551,-0.0,-0.0,0.0,0.0,0.0,0.0
1565342078971330749,-0.0,-0.0,0.0,0.0,0.0,0.0
1565342079028559082,-0.0,-0.0,0.0,0.0,0.0,0.0
1565342079071782832,-0.0,-0.0,0.0,0.0,0.0,0.0
1565342079221528926,-0.0,-0.175261378288,0.0,0.0,0.0,0.0
1565342079325226998,-0.0,-0.414012491703,0.0,0.0,0.0,0.0
1565342079462363040,-0.0,-0.446554869413,0.0,0.0,0.0,0.0
1565342079569569915,-0.0,-0.620189130306,0.0,0.0,0.0,0.0
1565342079673488457,-0.0,-0.696164131165,0.0,0.0,0.0,0.0
1565342079789985540,-0.0,-0.707022309303,0.0,0.0,0.0,0.0
1565342079859721321,-0.0,-0.707022309303,0.0,0.0,0.0,0.0
1565342079891288561,-0.0,-0.707022309303,0.0,0.0,0.0,0.0
1565342079939608509,-0.0,-0.707022309303,0.0,0.0,0.0,0.0
