%time,field.header.seq,field.header.stamp,field.header.frame_id,field.pose.position.x,field.pose.position.y,field.pose.position.z,field.pose.orientation.x,field.pose.orientation.y,field.pose.orientation.z,field.pose.orientation.w
1565342003591039788,55855,1565342003535906706,map,1.60320568085,0.0896968841553,0.0,0.0,0.0,-0.749992837245,0.661445949478
1565342003657393173,55856,1565342003602343424,map,1.60411167145,0.0918025970459,0.0,0.0,0.0,-0.750850257113,0.660472475879
1565342003724222496,55857,1565342003669068268,map,1.6058883667,0.095573425293,0.0,0.0,0.0,-0.751889565017,0.659289073183
1565342003791720881,55858,1565342003735750455,map,1.60796451569,0.0989360809326,0.0,0.0,0.0,-0.753300161808,0.657676870674
1565342003857633486,55859,1565342003802389778,map,1.60923290253,0.102577209473,0.0,0.0,0.0,-0.754325359336,0.656500763338
1565342003931554058,55860,1565342003870902695,map,1.61110973358,0.105726242065,0.0,0.0,0.0,-0.755501035393,0.655147453265
1565342003998372808,55861,1565342003937793789,map,1.61322116852,0.109069824219,0.0,0.0,0.0,-0.756483302949,0.654013006261
1565342004066228902,55862,1565342004004311445,map,1.61347770691,0.11095905304,0.0,0.0,0.0,-0.757434291239,0.652911398625
1565342004130756298,55863,1565342004070889257,map,1.61588382721,0.114416122437,0.0,0.0,0.0,-0.758782763975,0.651343777966
1565342004198526402,55864,1565342004138041341,map,1.61728191376,0.116361618042,0.0,0.0,0.0,-0.759784122795,0.650175427672
1565342004265639423,55865,1565342004204159674,map,1.61841869354,0.11797618866,0.0,0.0,0.0,-0.760854237281,0.648922822538
1565342004330880829,55866,1565342004271141549,map,1.61937522888,0.120496749878,0.0,0.0,0.0,-0.762078996808,0.647484055884
1565342004397369214,55867,1565342004337528945,map,1.6209897995,0.122217178345,0.0,0.0,0.0,-0.76330611857,0.646036972126
1565342004467064527,55868,1565342004404164934,map,1.621925354,0.124194145203,0.0,0.0,0.0,-0.76429653872,0.6448649478
1565342004531935152,55869,1565342004470996028,map,1.62363243103,0.126457214355,0.0,0.0,0.0,-0.765561791347,0.643362373495
1565342004598321037,55870,1565342004538256497,map,1.62546825409,0.129885673523,0.0,0.0,0.0,-0.766795625517,0.641891321556
1565342004667260204,55871,1565342004604887538,map,1.62727165222,0.133311271667,0.0,0.0,0.0,-0.768244015786,0.640157115252
1565342004731522600,55872,1565342004671692018,map,1.628657341,0.136408805847,0.0,0.0,0.0,-0.769304163771,0.638882699409
1565342004796983433,55873,1565342004737545559,map,1.63017368317,0.139108657837,0.0,0.0,0.0,-0.770493676202,0.637447640935
1565342004864112964,55874,1565342004804288580,map,1.63121509552,0.141917228699,0.0,0.0,0.0,-0.771944596229,0.635689814574
1565342004931543746,55875,1565342004871053788,map,1.63181114197,0.144558906555,0.0,0.0,0.0,-0.772928508025,0.634493121698
1565342004997460256,55876,1565342004937581601,map,1.63372516632,0.147535324097,0.0,0.0,0.0,-0.774235089917,0.632898116241
1565342005064451714,55877,1565342005004458892,map,1.63428497314,0.149362564087,0.0,0.0,0.0,-0.775425031031,0.631439641811
1565342005130804423,55878,1565342005071038736,map,1.63549804688,0.150503158569,0.0,0.0,0.0,-0.776413473244,0.630223863849
1565342005197044318,55879,1565342005137457955,map,1.63644218445,0.15246295929,0.0,0.0,0.0,-0.77739775975,0.629009318799
1565342005265030412,55880,1565342005204085194,map,1.63835906982,0.153940200806,0.0,0.0,0.0,-0.778767961952,0.627312092533
1565342005330988641,55881,1565342005271340038,map,1.6392698288,0.15679359436,0.0,0.0,0.0,-0.780190538835,0.625541943528
1565342005397219787,55882,1565342005337478788,map,1.6407957077,0.158363342285,0.0,0.0,0.0,-0.781278382244,0.624182737216
1565342005463915152,55883,1565342005404213944,map,1.64250183105,0.16134929657,0.0,0.0,0.0,-0.782646506343,0.622466421672
1565342005530654735,55884,1565342005470931965,map,1.64360904694,0.165100097656,0.0,0.0,0.0,-0.7836696071,0.621177870587
1565342005597116714,55885,1565342005537476028,map,1.64472293854,0.168313980103,0.0,0.0,0.0,-0.78474718773,0.619815981844
1565342005665026922,55886,1565342005604145351,map,1.64575195312,0.170877456665,0.0,0.0,0.0,-0.785980442893,0.618251359392
1565342005730832235,55887,1565342005671024830,map,1.64671802521,0.173566818237,0.0,0.0,0.0,-0.786987189873,0.616969337143
1565342005798027704,55888,1565342005737660455,map,1.64802646637,0.174344062805,0.0,0.0,0.0,-0.788086663311,0.615564302987
1565342005864088172,55889,1565342005804273476,map,1.64869689941,0.177320480347,0.0,0.0,0.0,-0.789297534548,0.614010913548
1565342005931174735,55890,1565342005870893944,map,1.64920330048,0.178993225098,0.0,0.0,0.0,-0.790459637245,0.612514131989
1565342005999928901,55891,1565342005938589986,map,1.64950847626,0.181159973145,0.0,0.0,0.0,-0.791531195603,0.611128764163
1565342006065471558,55892,1565342006004940923,map,1.65068340302,0.183100700378,0.0,0.0,0.0,-0.792917424114,0.609329105276
1565342006132095464,55893,1565342006071567486,map,1.65034198761,0.184900283813,0.0,0.0,0.0,-0.794926608044,0.606705602269
1565342006197261037,55894,1565342006137477121,map,1.64877891541,0.187685966492,0.0,0.0,0.0,-0.796351955957,0.604833499604
1565342006263952755,55895,1565342006204136652,map,1.64665222168,0.191795349121,0.0,0.0,0.0,-0.797829243985,0.602883485793
1565342006331187183,55896,1565342006270954725,map,1.64214611053,0.194982528687,0.0,0.0,0.0,-0.799059561074,0.601251875553
1565342006397165151,55897,1565342006337511861,map,1.63633537292,0.199358940125,0.0,0.0,0.0,-0.80060022905,0.599198859516
1565342006464097547,55898,1565342006404643632,map,1.62868595123,0.203329086304,0.0,0.0,0.0,-0.801864325199,0.597506153921
1565342006530804057,55899,1565342006471319465,map,1.61829471588,0.207670211792,0.0,0.0,0.0,-0.803278090394,0.595604155034
1565342006597563328,55900,1565342006537471652,map,1.60861492157,0.211931228638,0.0,0.0,0.0,-0.80467984196,0.593708979167
1565342006665116141,55901,1565342006604093527,map,1.59876728058,0.216636657715,0.0,0.0,0.0,-0.806272076775,0.591544874217
1565342006731372182,55902,1565342006670829361,map,1.58906841278,0.221076965332,0.0,0.0,0.0,-0.807783448142,0.589479347312
1565342006797832911,55903,1565342006737657329,map,1.58115386963,0.223402023315,0.0,0.0,0.0,-0.809204509517,0.587527073229
1565342006866248120,55904,1565342006804307069,map,1.57436084747,0.228289604187,0.0,0.0,0.0,-0.810384564667,0.58589833363
1565342006932059995,55905,1565342006870885142,map,1.56693458557,0.231435775757,0.0,0.0,0.0,-0.811019393922,0.585019266933
1565342006999032807,55906,1565342006937643215,map,1.56166553497,0.236585617065,0.0,0.0,0.0,-0.810884635253,0.585206039196
1565342007065171297,55907,1565342007004532277,map,1.55660057068,0.24063873291,0.0,0.0,0.0,-0.810248485685,0.586086505088
1565342007132090047,55908,1565342007071037746,map,1.55279064178,0.246398925781,0.0,0.0,0.0,-0.809042689476,0.587749884395
1565342007197440203,55909,1565342007137515038,map,1.55087566376,0.251991271973,0.0,0.0,0.0,-0.807676200599,0.589626284172
1565342007263970568,55910,1565342007204398944,map,1.54627513885,0.257227897644,0.0,0.0,0.0,-0.805052246396,0.593203911461
1565342007331484265,55911,1565342007270974100,map,1.54284191132,0.261735916138,0.0,0.0,0.0,-0.801991093492,0.597335990846
1565342007397558849,55912,1565342007338075610,map,1.5382566452,0.265783309937,0.0,0.0,0.0,-0.798025835984,0.602623236444
1565342007464571870,55913,1565342007404887069,map,1.53365898132,0.269601821899,0.0,0.0,0.0,-0.793818714808,0.60815446066
1565342007532089942,55914,1565342007471701392,map,1.5289516449,0.273971557617,0.0,0.0,0.0,-0.788893029817,0.61453054237
1565342007597798380,55915,1565342007537610037,map,1.52453899384,0.27729511261,0.0,0.0,0.0,-0.783600587503,0.621264934843
1565342007665448484,55916,1565342007604168162,map,1.51856708527,0.278898239136,0.0,0.0,0.0,-0.778231494702,0.627977500118
1565342007730276713,55917,1565342007670868423,map,1.51345825195,0.281225204468,0.0,0.0,0.0,-0.773147659298,0.634226061371
1565342007800321505,55918,1565342007737364308,map,1.50946331024,0.284197807312,0.0,0.0,0.0,-0.768421031809,0.639944620943
1565342007863908067,55919,1565342007804093579,map,1.5059709549,0.28652381897,0.0,0.0,0.0,-0.764160301131,0.645026382542
1565342007931088224,55920,1565342007870893318,map,1.50208759308,0.289364814758,0.0,0.0,0.0,-0.759256205313,0.650791836683
1565342007997575776,55921,1565342007937744829,map,1.49985218048,0.292775154114,0.0,0.0,0.0,-0.754698542285,0.65607172647
1565342008065047182,55922,1565342008004101652,map,1.49777793884,0.297693252563,0.0,0.0,0.0,-0.750696704641,0.660646999267
1565342008131597442,55923,1565342008070887433,map,1.4964017868,0.301816940308,0.0,0.0,0.0,-0.746595758101,0.665277967458
1565342008197555515,55924,1565342008137459516,map,1.49286842346,0.304430007935,0.0,0.0,0.0,-0.742428231288,0.669925608846
1565342008264058223,55925,1565342008204380714,map,1.48917579651,0.307121276855,0.0,0.0,0.0,-0.738474248634,0.674281680089
1565342008331772338,55926,1565342008270971912,map,1.48396778107,0.311319351196,0.0,0.0,0.0,-0.73454372963,0.678561352614
1565342008397894578,55927,1565342008337664464,map,1.47689056396,0.31248664856,0.0,0.0,0.0,-0.730582385567,0.682824558652
1565342008465647390,55928,1565342008404295089,map,1.46922111511,0.316645622253,0.0,0.0,0.0,-0.727141226234,0.686487900193
1565342008531080827,55929,1565342008470941704,map,1.45924854279,0.319157600403,0.0,0.0,0.0,-0.723662446566,0.69015408673
1565342008597667702,55930,1565342008537464933,map,1.44809246063,0.322377204895,0.0,0.0,0.0,-0.720550158706,0.693402818561
1565342008663633015,55931,1565342008603983422,map,1.43572711945,0.32435131073,0.0,0.0,0.0,-0.718027256785,0.696014984403
1565342008731192546,55932,1565342008671053110,map,1.42333507538,0.326505661011,0.0,0.0,0.0,-0.715668089249,0.69844053865
1565342008797785723,55933,1565342008737798474,map,1.40809059143,0.328677177429,0.0,0.0,0.0,-0.713297386081,0.700861497737
1565342008865181661,55934,1565342008804554620,map,1.39441204071,0.331436157227,0.0,0.0,0.0,-0.711411111739,0.702776088163
1565342008932995254,55935,1565342008871349881,map,1.37838935852,0.333383560181,0.0,0.0,0.0,-0.709672234966,0.704531985731
1565342008997339577,55936,1565342008937580401,map,1.36327171326,0.335545539856,0.0,0.0,0.0,-0.708578041248,0.70563245352
1565342009065298848,55937,1565342009004035662,map,1.34744739532,0.338114738464,0.0,0.0,0.0,-0.707545493419,0.706667796593
1565342009134358431,55938,1565342009071154985,map,1.33031272888,0.340166091919,0.0,0.0,0.0,-0.707005299749,0.707208248062
1565342009198594838,55939,1565342009137487953,map,1.31302833557,0.341952323914,0.0,0.0,0.0,-0.706500296578,0.707712746059
1565342009266002390,55940,1565342009204121078,map,1.29485607147,0.342741012573,0.0,0.0,0.0,-0.706034106012,0.708177831585
1565342009330327598,55941,1565342009270857589,map,1.2772693634,0.345151901245,0.0,0.0,0.0,-0.706231118173,0.707981361142
1565342009397000202,55942,1565342009337325870,map,1.2592420578,0.347241401672,0.0,0.0,0.0,-0.706196514167,0.708015877914
1565342009464937598,55943,1565342009404189047,map,1.2405500412,0.349981307983,0.0,0.0,0.0,-0.706212212779,0.708000219295
1565342009530356296,55944,1565342009470880870,map,1.22075939178,0.351400375366,0.0,0.0,0.0,-0.706354159723,0.707858602435
1565342009597684733,55945,1565342009537451391,map,1.19922351837,0.353344917297,0.0,0.0,0.0,-0.706336607775,0.707876116645
1565342009665484056,55946,1565342009604025557,map,1.17794513702,0.355741500854,0.0,0.0,0.0,-0.706490847531,0.707722178793
1565342009731678796,55947,1565342009671179359,map,1.15915393829,0.359037399292,0.0,0.0,0.0,-0.707141187632,0.707072373067
1565342009799053692,55948,1565342009737997432,map,1.13579845428,0.36136341095,0.0,0.0,0.0,-0.707613220227,0.706599979167
1565342009865955306,55949,1565342009804727432,map,1.11369037628,0.363389968872,0.0,0.0,0.0,-0.708121974123,0.706090128641
1565342009930552442,55950,1565342009870846547,map,1.09266471863,0.36597442627,0.0,0.0,0.0,-0.708775017854,0.705434599426
1565342009998664264,55951,1565342009937527641,map,1.0688495636,0.366435050964,0.0,0.0,0.0,-0.708921831248,0.705287060125
1565342010064423952,55952,1565342010004116026,map,1.04876422882,0.369976997375,0.0,0.0,0.0,-0.709587739185,0.704617087785
1565342010131919056,55953,1565342010071264203,map,1.02633857727,0.371891975403,0.0,0.0,0.0,-0.710022707825,0.704178780121
1565342010197632650,55954,1565342010138103318,map,1.00298118591,0.372059822083,0.0,0.0,0.0,-0.710039496554,0.70416185166
1565342010266617962,55955,1565342010204674255,map,0.98114490509,0.374872207642,0.0,0.0,0.0,-0.710271643276,0.703927690006
1565342010333544525,55956,1565342010271365557,map,0.958317756653,0.376118659973,0.0,0.0,0.0,-0.710332562703,0.70386621624
1565342010397630202,55957,1565342010337378526,map,0.935171127319,0.377963066101,0.0,0.0,0.0,-0.710456734586,0.703740881491
1565342010468253900,55958,1565342010404357276,map,0.912973403931,0.380055427551,0.0,0.0,0.0,-0.710828446752,0.703365423723
1565342010532658848,55959,1565342010470812692,map,0.88911151886,0.380414009094,0.0,0.0,0.0,-0.710489284097,0.703708019837
1565342010597321556,55960,1565342010537371703,map,0.867914199829,0.382125854492,0.0,0.0,0.0,-0.710689581123,0.703505735075
1565342010666630618,55961,1565342010604100140,map,0.846588134766,0.382316589355,0.0,0.0,0.0,-0.710406061704,0.703792034264
1565342010732985045,55962,1565342010671063890,map,0.828140258789,0.384508132935,0.0,0.0,0.0,-0.71077863944,0.703415755948
1565342010798687025,55963,1565342010737432849,map,0.808250427246,0.386416435242,0.0,0.0,0.0,-0.710652176588,0.703543519557
1565342010864969108,55964,1565342010804105974,map,0.790519714355,0.388593673706,0.0,0.0,0.0,-0.710579374558,0.703617049575
1565342010932182181,55965,1565342010870888265,map,0.773077011108,0.39035320282,0.0,0.0,0.0,-0.710115208705,0.70408549933
1565342010998567910,55966,1565342010937460921,map,0.757374763489,0.394022941589,0.0,0.0,0.0,-0.710177484608,0.704022684547
1565342011064690358,55967,1565342011004021807,map,0.740575790405,0.396304130554,0.0,0.0,0.0,-0.709778218223,0.704425213161
1565342011131221660,55968,1565342011070892744,map,0.72534942627,0.399202346802,0.0,0.0,0.0,-0.709590259088,0.704614550097
1565342011197954056,55969,1565342011137709776,map,0.710639953613,0.40148639679,0.0,0.0,0.0,-0.709502561142,0.704702856339
1565342011264579472,55970,1565342011204161963,map,0.69574546814,0.403707504272,0.0,0.0,0.0,-0.709123754582,0.705084038032
1565342011331341191,55971,1565342011270823734,map,0.680706977844,0.406089782715,0.0,0.0,0.0,-0.709162921985,0.705044644035
1565342011397488170,55972,1565342011337477900,map,0.666087150574,0.407386779785,0.0,0.0,0.0,-0.708762235395,0.70544744218
1565342011465125618,55973,1565342011404764255,map,0.651479721069,0.409013748169,0.0,0.0,0.0,-0.708628341978,0.705581939215
1565342011530426243,55974,1565342011470921182,map,0.637089729309,0.410524368286,0.0,0.0,0.0,-0.708505864346,0.705704924304
1565342011598023274,55975,1565342011537954463,map,0.624302864075,0.413627624512,0.0,0.0,0.0,-0.70840541003,0.705805762969
1565342011665780201,55976,1565342011604699932,map,0.610389709473,0.415141105652,0.0,0.0,0.0,-0.708251587844,0.705960118078
1565342011731771451,55977,1565342011671517223,map,0.597979545593,0.417150497437,0.0,0.0,0.0,-0.707937107046,0.706275479164
1565342011797814107,55978,1565342011737433473,map,0.585958480835,0.418553352356,0.0,0.0,0.0,-0.70762181197,0.706591375
1565342011863791555,55979,1565342011804149567,map,0.575182914734,0.420453071594,0.0,0.0,0.0,-0.707473379126,0.706739993086
1565342011931220305,55980,1565342011871213994,map,0.564496040344,0.423147201538,0.0,0.0,0.0,-0.707275026838,0.706938495494
1565342011996980149,55981,1565342011937454827,map,0.555066108704,0.424206733704,0.0,0.0,0.0,-0.706773589499,0.707439815947
1565342012063738691,55982,1565342012004135713,map,0.546299934387,0.42615032196,0.0,0.0,0.0,-0.706300489901,0.707912154131
1565342012132948899,55983,1565342012070966286,map,0.538424491882,0.428126335144,0.0,0.0,0.0,-0.705784174789,0.708426918332
1565342012197734107,55984,1565342012137669515,map,0.530019760132,0.42901802063,0.0,0.0,0.0,-0.704942713949,0.709264245574
1565342012264471920,55985,1565342012204167900,map,0.524024963379,0.430414199829,0.0,0.0,0.0,-0.704388352336,0.709814799151
1565342012332278847,55986,1565342012271925400,map,0.517623901367,0.431347846985,0.0,0.0,0.0,-0.703532198542,0.71066338418
1565342012400078586,55987,1565342012337628733,map,0.512211799622,0.433848381042,0.0,0.0,0.0,-0.703295797315,0.7108973354
1565342012464357649,55988,1565342012404095608,map,0.507321357727,0.436950683594,0.0,0.0,0.0,-0.703091531479,0.711099358995
1565342012530699107,55989,1565342012471044567,map,0.50087928772,0.437711715698,0.0,0.0,0.0,-0.702007699417,0.71216935483
1565342012597355826,55990,1565342012537503213,map,0.49674987793,0.441284179688,0.0,0.0,0.0,-0.701825826725,0.712348586678
1565342012664154784,55991,1565342012604399827,map,0.48996925354,0.442792892456,0.0,0.0,0.0,-0.700794861026,0.713362854906
1565342012732998899,55992,1565342012670874775,map,0.485237121582,0.444845199585,0.0,0.0,0.0,-0.700429269376,0.713721821581
1565342012798540097,55993,1565342012737448890,map,0.477415084839,0.445360183716,0.0,0.0,0.0,-0.69959532605,0.714539277975
1565342012866173482,55994,1565342012804847483,map,0.470791816711,0.446928024292,0.0,0.0,0.0,-0.698897541348,0.715221802448
1565342012931278430,55995,1565342012871371806,map,0.464189529419,0.447641372681,0.0,0.0,0.0,-0.698043409799,0.716055443409
1565342012998085097,55996,1565342012938126233,map,0.456283569336,0.4477186203,0.0,0.0,0.0,-0.696959045299,0.717110932266
1565342013064989628,55997,1565342013004730504,map,0.451395988464,0.449445724487,0.0,0.0,0.0,-0.696088795448,0.717955701176
1565342013131366555,55998,1565342013071548577,map,0.444874763489,0.449264526367,0.0,0.0,0.0,-0.695312800139,0.718707249138
1565342013198017544,55999,1565342013137726598,map,0.44123840332,0.450197219849,0.0,0.0,0.0,-0.694709392224,0.719290525696
1565342013264318117,56000,1565342013204115816,map,0.437225341797,0.451090812683,0.0,0.0,0.0,-0.693834955302,0.720134053355
1565342013331215826,56001,1565342013271016129,map,0.435480117798,0.45386505127,0.0,0.0,0.0,-0.693471907473,0.720483666398
1565342013397558013,56002,1565342013337721650,map,0.433929443359,0.455853462219,0.0,0.0,0.0,-0.692793769849,0.721135765622
1565342013464469419,56003,1565342013404216441,map,0.433097839355,0.459020614624,0.0,0.0,0.0,-0.692122590841,0.72177996595
1565342013531156086,56004,1565342013470983733,map,0.431513786316,0.461277961731,0.0,0.0,0.0,-0.691013543182,0.722841810591
1565342013596866867,56005,1565342013537549410,map,0.43182182312,0.4633436203,0.0,0.0,0.0,-0.69044271378,0.723387074109
1565342013663820773,56006,1565342013604274150,map,0.431384086609,0.465092658997,0.0,0.0,0.0,-0.689741648729,0.724055562791
1565342013731162076,56007,1565342013670996806,map,0.43025970459,0.466035842896,0.0,0.0,0.0,-0.688863327151,0.724891244606
1565342013797044107,56008,1565342013737450139,map,0.427221298218,0.464579582214,0.0,0.0,0.0,-0.6877794484,0.725919713439
1565342013863740982,56009,1565342013804135452,map,0.426503181458,0.467837333679,0.0,0.0,0.0,-0.687520314697,0.726165144357
1565342013930621659,56010,1565342013871095920,map,0.42355632782,0.466966629028,0.0,0.0,0.0,-0.687357727214,0.7263190448
1565342013997193742,56011,1565342013937556389,map,0.421073913574,0.467515945435,0.0,0.0,0.0,-0.687406385866,0.726272993213
1565342014064059992,56012,1565342014004155035,map,0.419346809387,0.466038703918,0.0,0.0,0.0,-0.686759372101,0.726884836017
1565342014130585617,56013,1565342014071064931,map,0.419543266296,0.467781066895,0.0,0.0,0.0,-0.686133494518,0.727475654369
1565342014196941711,56014,1565342014137479514,map,0.420364379883,0.470861434937,0.0,0.0,0.0,-0.685770391417,0.727817951315
1565342014264537700,56015,1565342014204130191,map,0.421979904175,0.475187301636,0.0,0.0,0.0,-0.685644401761,0.727936641703
1565342014330378273,56016,1565342014271038264,map,0.422152519226,0.477781295776,0.0,0.0,0.0,-0.68509369366,0.728454961482
1565342014398116971,56017,1565342014338756076,map,0.422401428223,0.47865486145,0.0,0.0,0.0,-0.684257160573,0.729240795763
1565342014465551554,56018,1565342014404878368,map,0.425053596497,0.482679367065,0.0,0.0,0.0,-0.684011103294,0.729471596822
1565342014531428950,56019,1565342014471890191,map,0.425274848938,0.484616279602,0.0,0.0,0.0,-0.68331406957,0.730124566309
1565342014596685669,56020,1565342014537621597,map,0.424786567688,0.483815193176,0.0,0.0,0.0,-0.682282340813,0.73108878217
1565342014664168169,56021,1565342014604455764,map,0.425005912781,0.486254692078,0.0,0.0,0.0,-0.681833725315,0.731507191368
1565342014730451554,56022,1565342014670984670,map,0.421716690063,0.48624420166,0.0,0.0,0.0,-0.68071080238,0.7325522531
1565342014796922336,56023,1565342014737724097,map,0.420373916626,0.486585617065,0.0,0.0,0.0,-0.679800504623,0.733397077928
1565342014864900981,56024,1565342014804544514,map,0.415908813477,0.484741210938,0.0,0.0,0.0,-0.678335786753,0.734752040086
1565342014930102023,56025,1565342014870948732,map,0.414317131042,0.486852645874,0.0,0.0,0.0,-0.677541481795,0.735484561665
1565342014997895200,56026,1565342014937644878,map,0.411776542664,0.486757278442,0.0,0.0,0.0,-0.676402628982,0.736532065498
1565342015063710356,56027,1565342015004216441,map,0.409304618835,0.488027572632,0.0,0.0,0.0,-0.675309283717,0.737534657711
1565342015130656554,56028,1565342015071124462,map,0.408380508423,0.491416931152,0.0,0.0,0.0,-0.674574633078,0.738206654269
1565342015196976294,56029,1565342015137614149,map,0.406606674194,0.493861198425,0.0,0.0,0.0,-0.673552647112,0.739139250459
1565342015263961606,56030,1565342015204217691,map,0.406448364258,0.495775222778,0.0,0.0,0.0,-0.672324138659,0.740256882829
1565342015330210564,56031,1565342015270947847,map,0.40565776825,0.495801925659,0.0,0.0,0.0,-0.671003094366,0.741454548406
1565342015397137700,56032,1565342015337805243,map,0.403291702271,0.495801925659,0.0,0.0,0.0,-0.669441557287,0.742864726163
1565342015463337804,56033,1565342015404226493,map,0.404055595398,0.497369766235,0.0,0.0,0.0,-0.668645760317,0.743581096593
1565342015530224887,56034,1565342015470994461,map,0.402784347534,0.49884223938,0.0,0.0,0.0,-0.667530427904,0.744582519149
1565342015596707596,56035,1565342015537664826,map,0.399131774902,0.496110916138,0.0,0.0,0.0,-0.665967119248,0.745981096329
1565342015663334627,56036,1565342015604263993,map,0.39714050293,0.49599647522,0.0,0.0,0.0,-0.665114043944,0.7467417951
1565342015730022752,56037,1565342015671053003,map,0.393918991089,0.497068405151,0.0,0.0,0.0,-0.664230514985,0.747527807485
1565342015801159210,56038,1565342015738146284,map,0.391914367676,0.49516582489,0.0,0.0,0.0,-0.663325717965,0.74833080378
1565342015864413898,56039,1565342015805203368,map,0.390292167664,0.494203567505,0.0,0.0,0.0,-0.662347968453,0.749196348554
1565342015930770773,56040,1565342015871629930,map,0.386813163757,0.491314888,0.0,0.0,0.0,-0.661242290756,0.750172402129
1565342015997520877,56041,1565342015937695399,map,0.384554862976,0.488718986511,0.0,0.0,0.0,-0.660130876615,0.751150601237
1565342016063345043,56042,1565342016004294045,map,0.382871627808,0.486307144165,0.0,0.0,0.0,-0.659321373041,0.751861241887
1565342016130191762,56043,1565342016071204774,map,0.381846427917,0.482937812805,0.0,0.0,0.0,-0.658084141927,0.752944395121
1565342016196715929,56044,1565342016137694669,map,0.381054878235,0.481287956238,0.0,0.0,0.0,-0.657403687628,0.753538579964
1565342016264936918,56045,1565342016204594722,map,0.380495071411,0.478734016418,0.0,0.0,0.0,-0.656849445937,0.754021753912
1565342016330701710,56046,1565342016270971440,map,0.37865447998,0.472612380981,0.0,0.0,0.0,-0.655453645778,0.755235405842
1565342016397522022,56047,1565342016337591753,map,0.376333236694,0.466125488281,0.0,0.0,0.0,-0.654078687784,0.756426513408
1565342016464647283,56048,1565342016404200763,map,0.37678527832,0.462948799133,0.0,0.0,0.0,-0.653415664754,0.756999319058
1565342016531004679,56049,1565342016470880399,map,0.374585151672,0.453715324402,0.0,0.0,0.0,-0.651865576306,0.758334537277
1565342016597010043,56050,1565342016537773992,map,0.373087882996,0.447288513184,0.0,0.0,0.0,-0.650774129657,0.759271382425
1565342016663420199,56051,1565342016604194930,map,0.371836662292,0.43826007843,0.0,0.0,0.0,-0.64941758256,0.760431984771
1565342016729965824,56052,1565342016670942742,map,0.371164321899,0.430653572083,0.0,0.0,0.0,-0.648434388582,0.761270545669
1565342016797699366,56053,1565342016737630555,map,0.370742797852,0.421902656555,0.0,0.0,0.0,-0.647516611793,0.762051335182
1565342016864285408,56054,1565342016804407586,map,0.368763923645,0.411491394043,0.0,0.0,0.0,-0.646212059369,0.763157896065
1565342016930023481,56055,1565342016870953263,map,0.369699478149,0.404706001282,0.0,0.0,0.0,-0.645469393584,0.763786136262
1565342016997324939,56056,1565342016937665242,map,0.369554519653,0.396326065063,0.0,0.0,0.0,-0.644287698814,0.764783211869
1565342017063563533,56057,1565342017004283315,map,0.368535995483,0.385732650757,0.0,0.0,0.0,-0.642459560827,0.766319589141
1565342017130849522,56058,1565342017071001075,map,0.368000984192,0.377003669739,0.0,0.0,0.0,-0.640978271619,0.767559023993
1565342017198412230,56059,1565342017138057846,map,0.367149353027,0.366500854492,0.0,0.0,0.0,-0.6392856112,0.768969379957
1565342017263860876,56060,1565342017204837534,map,0.365992546082,0.356590270996,0.0,0.0,0.0,-0.637819776435,0.770185648262
1565342017331104782,56061,1565342017271859721,map,0.363962173462,0.346995353699,0.0,0.0,0.0,-0.636266470742,0.771469363105
1565342017396788793,56062,1565342017337629252,map,0.363754272461,0.3422498703,0.0,0.0,0.0,-0.635634080742,0.771990489189
1565342017463480043,56063,1565342017404207482,map,0.363304138184,0.3349609375,0.0,0.0,0.0,-0.634552491938,0.772879767477
1565342017531076084,56064,1565342017470942273,map,0.362205505371,0.330212593079,0.0,0.0,0.0,-0.633681603383,0.773593966841
1565342017597950459,56065,1565342017538038731,map,0.36136341095,0.327052116394,0.0,0.0,0.0,-0.633248625456,0.773948433914
1565342017663376241,56066,1565342017604213992,map,0.36102771759,0.324046134949,0.0,0.0,0.0,-0.632943743216,0.774197789924
1565342017730291293,56067,1565342017670954148,map,0.361473083496,0.321584701538,0.0,0.0,0.0,-0.632696738777,0.774399662151
1565342017797685772,56068,1565342017737600242,map,0.361193656921,0.315605163574,0.0,0.0,0.0,-0.632073772993,0.774908217464
1565342017863673949,56069,1565342017804213575,map,0.362156867981,0.311475753784,0.0,0.0,0.0,-0.63167961416,0.77522955636
1565342017933511241,56070,1565342017874091492,map,0.362604141235,0.30553150177,0.0,0.0,0.0,-0.631403069609,0.775454810862
1565342017996872386,56071,1565342017937566700,map,0.363882064819,0.29955291748,0.0,0.0,0.0,-0.630997535267,0.775784835175
1565342018064284834,56072,1565342018004333523,map,0.367540359497,0.293928146362,0.0,0.0,0.0,-0.630923362815,0.775845158685
1565342018131499261,56073,1565342018070888783,map,0.370875358582,0.290324211121,0.0,0.0,0.0,-0.631034341899,0.775754896436
1565342018196713845,56074,1565342018137453887,map,0.375905990601,0.28662109375,0.0,0.0,0.0,-0.631370899452,0.775481003845
1565342018265582751,56075,1565342018204137169,map,0.382090568542,0.283798217773,0.0,0.0,0.0,-0.63143006212,0.775432831812
1565342018330079261,56076,1565342018271141231,map,0.390199661255,0.28387928009,0.0,0.0,0.0,-0.632240589866,0.774772119095
1565342018396594626,56077,1565342018337593523,map,0.398808479309,0.282934188843,0.0,0.0,0.0,-0.632579675326,0.774495290085
1565342018463587595,56078,1565342018404433054,map,0.410680770874,0.284871101379,0.0,0.0,0.0,-0.633759249084,0.773530357647
1565342018530774001,56079,1565342018471031960,map,0.420640945435,0.284929275513,0.0,0.0,0.0,-0.634225173502,0.773148387631
1565342018597134730,56080,1565342018537977012,map,0.432423591614,0.286924362183,0.0,0.0,0.0,-0.635471176259,0.772124591076
1565342018664186813,56081,1565342018604870502,map,0.445086479187,0.288042068481,0.0,0.0,0.0,-0.636589032929,0.771203217806
1565342018732218740,56082,1565342018671549981,map,0.458692550659,0.289697647095,0.0,0.0,0.0,-0.637911952404,0.770109304567
1565342018797408011,56083,1565342018737740137,map,0.470311164856,0.287673950195,0.0,0.0,0.0,-0.638779647285,0.769389733629
1565342018865917699,56084,1565342018804411960,map,0.484807014465,0.289680480957,0.0,0.0,0.0,-0.640172717611,0.768231014491
1565342018931552334,56085,1565342018870959929,map,0.497282028198,0.287890434265,0.0,0.0,0.0,-0.640922820846,0.767605326792
1565342018998149990,56086,1565342018937481543,map,0.510606765747,0.28740978241,0.0,0.0,0.0,-0.641999211529,0.766705296966
1565342019064802594,56087,1565342019004390554,map,0.525787353516,0.28741645813,0.0,0.0,0.0,-0.642950539437,0.765907699294
1565342019130410563,56088,1565342019070993366,map,0.54039478302,0.288320541382,0.0,0.0,0.0,-0.643646370255,0.765323036409
1565342019197169105,56089,1565342019137615085,map,0.556962966919,0.289904594421,0.0,0.0,0.0,-0.644662691667,0.764467143815
1565342019264930042,56090,1565342019204327377,map,0.572317123413,0.291044235229,0.0,0.0,0.0,-0.644967020054,0.764210404956
1565342019330609782,56091,1565342019271238939,map,0.588508605957,0.292795181274,0.0,0.0,0.0,-0.645968758026,0.76336384749
1565342019398242386,56092,1565342019337584408,map,0.6048412323,0.294904708862,0.0,0.0,0.0,-0.646632268201,0.762801881042
1565342019463701865,56093,1565342019404180033,map,0.622630119324,0.298162460327,0.0,0.0,0.0,-0.647926586027,0.761702789229
1565342019530355927,56094,1565342019471096387,map,0.640687942505,0.301305770874,0.0,0.0,0.0,-0.649065244827,0.760732744108
1565342019597536292,56095,1565342019537568627,map,0.659176826477,0.304563522339,0.0,0.0,0.0,-0.650014769272,0.759921574722
1565342019664534000,56096,1565342019604218731,map,0.676633834839,0.305369377136,0.0,0.0,0.0,-0.650548544537,0.759464674096
1565342019730359573,56097,1565342019670994929,map,0.694989204407,0.307589530945,0.0,0.0,0.0,-0.651136466368,0.758960672345
1565342019799181552,56098,1565342019737805085,map,0.713331222534,0.30966758728,0.0,0.0,0.0,-0.651784573721,0.758404159706
1565342019863740407,56099,1565342019804243939,map,0.731666564941,0.310404777527,0.0,0.0,0.0,-0.652121191933,0.758114734741
1565342019931382073,56100,1565342019870926231,map,0.75011920929,0.311762809753,0.0,0.0,0.0,-0.652576018806,0.757723260616
1565342019997539781,56101,1565342019938048887,map,0.768716812134,0.313133239746,0.0,0.0,0.0,-0.652867728738,0.757471932663
1565342020065763844,56102,1565342020005030293,map,0.78835773468,0.315500259399,0.0,0.0,0.0,-0.653423425476,0.756992620201
1565342020131019729,56103,1565342020071510033,map,0.807955741882,0.318211555481,0.0,0.0,0.0,-0.654638663484,0.755941942395
1565342020197258896,56104,1565342020137550137,map,0.826115608215,0.321571350098,0.0,0.0,0.0,-0.655580580335,0.755125223183
1565342020265132073,56105,1565342020204138783,map,0.843976020813,0.325843811035,0.0,0.0,0.0,-0.656773039127,0.754088307213
1565342020331661708,56106,1565342020270871074,map,0.861810684204,0.329496383667,0.0,0.0,0.0,-0.657776755839,0.753212944312
1565342020396836500,56107,1565342020337458210,map,0.878578186035,0.332101821899,0.0,0.0,0.0,-0.658757063562,0.75235572119
1565342020464308219,56108,1565342020404138730,map,0.894160270691,0.334114074707,0.0,0.0,0.0,-0.659865784901,0.751383487919
1565342020533159573,56109,1565342020471112012,map,0.908700942993,0.335825920105,0.0,0.0,0.0,-0.660695534292,0.750653988844
1565342020597436083,56110,1565342020537578887,map,0.922739028931,0.337310791016,0.0,0.0,0.0,-0.661776720516,0.749700988517
1565342020665438740,56111,1565342020604451282,map,0.936752319336,0.338910102844,0.0,0.0,0.0,-0.662646572352,0.748932253378
1565342020730775771,56112,1565342020670960918,map,0.948941230774,0.339996337891,0.0,0.0,0.0,-0.663522666212,0.74815618117
1565342020797538635,56113,1565342020737688730,map,0.960835456848,0.340138435364,0.0,0.0,0.0,-0.664028740642,0.747707049319
1565342020865043739,56114,1565342020804086074,map,0.972372055054,0.339291572571,0.0,0.0,0.0,-0.66412286049,0.74762345213
1565342020931988323,56115,1565342020870962428,map,0.984782218933,0.340304374695,0.0,0.0,0.0,-0.664774636535,0.747043962976
1565342020997595979,56116,1565342020937450136,map,0.995893478394,0.341306686401,0.0,0.0,0.0,-0.665524674944,0.746375848377
1565342021066091396,56117,1565342021004278938,map,1.0076675415,0.343564987183,0.0,0.0,0.0,-0.666748074149,0.745283171431
1565342021130900510,56118,1565342021071064563,map,1.01979827881,0.346380233765,0.0,0.0,0.0,-0.667586523058,0.744532225113
1565342021197538843,56119,1565342021137751074,map,1.03080940247,0.347623825073,0.0,0.0,0.0,-0.668606934309,0.743616008027
1565342021265615458,56120,1565342021204588886,map,1.0436706543,0.348813056946,0.0,0.0,0.0,-0.669915551742,0.742437306131
1565342021330552489,56121,1565342021270986855,map,1.05580329895,0.348611831665,0.0,0.0,0.0,-0.670868025958,0.741576760522
1565342021397536448,56122,1565342021338136022,map,1.06750202179,0.34947681427,0.0,0.0,0.0,-0.672076307641,0.740481894922
1565342021465456031,56123,1565342021404897167,map,1.07919597626,0.351760864258,0.0,0.0,0.0,-0.673423111741,0.739257270896
1565342021531404989,56124,1565342021471784095,map,1.09227466583,0.354623794556,0.0,0.0,0.0,-0.675295040392,0.737547699082
1565342021597176083,56125,1565342021537709824,map,1.10473442078,0.356424331665,0.0,0.0,0.0,-0.676725322209,0.736235586128
1565342021664045875,56126,1565342021604401022,map,1.11635398865,0.357618331909,0.0,0.0,0.0,-0.678294268357,0.734790368414
1565342021731164364,56127,1565342021671225709,map,1.12919807434,0.359304428101,0.0,0.0,0.0,-0.679892123594,0.73331214382
1565342021798140614,56128,1565342021737636126,map,1.1403503418,0.36053276062,0.0,0.0,0.0,-0.681177339887,0.73211845464
1565342021864906343,56129,1565342021804315969,map,1.15118217468,0.36157989502,0.0,0.0,0.0,-0.682569717266,0.730820484846
1565342021931171499,56130,1565342021871015865,map,1.16214752197,0.360989570618,0.0,0.0,0.0,-0.683648570469,0.729811367475
1565342021997553374,56131,1565342021937894094,map,1.17299842834,0.360816955566,0.0,0.0,0.0,-0.684709250681,0.728816329421
1565342022068563479,56132,1565342022004500292,map,1.18385505676,0.361740112305,0.0,0.0,0.0,-0.685761020993,0.727826780276
1565342022132144520,56133,1565342022071291594,map,1.19490242004,0.364214897156,0.0,0.0,0.0,-0.68702326706,0.72663541788
1565342022197520145,56134,1565342022137689563,map,1.20599365234,0.366335868835,0.0,0.0,0.0,-0.688371474366,0.725358334397
1565342022264704260,56135,1565342022204632376,map,1.21658611298,0.367098808289,0.0,0.0,0.0,-0.689459003679,0.724324707742
1565342022330850926,56136,1565342022271089875,map,1.2271938324,0.368884086609,0.0,0.0,0.0,-0.690764817234,0.723079502732
1565342022399547437,56137,1565342022338033886,map,1.2370557785,0.370389938354,0.0,0.0,0.0,-0.69179813931,0.722090946106
1565342022465877958,56138,1565342022404358886,map,1.24656963348,0.370813369751,0.0,0.0,0.0,-0.692820246935,0.7211103282
1565342022531112593,56139,1565342022471112584,map,1.25655937195,0.371968269348,0.0,0.0,0.0,-0.693913243363,0.720058616145
1565342022597529260,56140,1565342022537685292,map,1.26608848572,0.372242927551,0.0,0.0,0.0,-0.694859947175,0.71914508537
1565342022664019885,56141,1565342022604390396,map,1.27470111847,0.371309280396,0.0,0.0,0.0,-0.695615690746,0.718414094229
1565342022731378947,56142,1565342022671371854,map,1.28416728973,0.369090080261,0.0,0.0,0.0,-0.696356120926,0.717696421092
1565342022797656968,56143,1565342022738159198,map,1.29300403595,0.368852615356,0.0,0.0,0.0,-0.696676715599,0.717385220047
1565342022865088530,56144,1565342022804981750,map,1.30382728577,0.368989944458,0.0,0.0,0.0,-0.697433170742,0.716649825471
1565342022936738843,56145,1565342022872349198,map,1.31503486633,0.369997024536,0.0,0.0,0.0,-0.697888720361,0.716206209128
1565342022999376551,56146,1565342022938080761,map,1.32669830322,0.372383117676,0.0,0.0,0.0,-0.698620390383,0.715492522771
1565342023065257228,56147,1565342023004428573,map,1.33714771271,0.375211715698,0.0,0.0,0.0,-0.699054063955,0.715068818833
1565342023131970145,56148,1565342023071118209,map,1.35000419617,0.379438400269,0.0,0.0,0.0,-0.700299081851,0.713849561153
1565342023198672228,56149,1565342023137703417,map,1.36054039001,0.380027770996,0.0,0.0,0.0,-0.700704203283,0.713451904127
1565342023264991864,56150,1565342023204369771,map,1.37136650085,0.382650375366,0.0,0.0,0.0,-0.701424390209,0.712743870419
1565342023332299936,56151,1565342023271108417,map,1.38065052032,0.383030891418,0.0,0.0,0.0,-0.701816825301,0.712357455022
1565342023398235249,56152,1565342023337704302,map,1.39071178436,0.384302139282,0.0,0.0,0.0,-0.702499086962,0.711684644219
1565342023466038738,56153,1565342023404646438,map,1.39844036102,0.3842420578,0.0,0.0,0.0,-0.702712850601,0.711473576178
1565342023531797280,56154,1565342023471321125,map,1.40680980682,0.384855270386,0.0,0.0,0.0,-0.702873640487,0.711314730277
1565342023598457124,56155,1565342023537781906,map,1.41461181641,0.38196849823,0.0,0.0,0.0,-0.702828527961,0.71135930463
1565342023666242384,56156,1565342023605018104,map,1.42373466492,0.382878303528,0.0,0.0,0.0,-0.702901452816,0.711287246919
1565342023732771290,56157,1565342023671596646,map,1.43279457092,0.383604049683,0.0,0.0,0.0,-0.702984374661,0.711205293135
1565342023798342488,56158,1565342023737749094,map,1.44193744659,0.383982658386,0.0,0.0,0.0,-0.703103060059,0.711087960056
1565342023867478270,56159,1565342023804382635,map,1.451130867,0.385088920593,0.0,0.0,0.0,-0.7031318807,0.71105946189
1565342023932650926,56160,1565342023871175760,map,1.46080589294,0.387728691101,0.0,0.0,0.0,-0.703525421096,0.710670093554
1565342023999542072,56161,1565342023938336177,map,1.47071552277,0.391199111938,0.0,0.0,0.0,-0.704049128945,0.710151268416
1565342024066268113,56162,1565342024004421750,map,1.48131370544,0.392971992493,0.0,0.0,0.0,-0.704665163992,0.709539996516
1565342024130755092,56163,1565342024071129406,map,1.49061870575,0.393763542175,0.0,0.0,0.0,-0.704643341049,0.70956166886
1565342024197951342,56164,1565342024138450448,map,1.49984550476,0.39507484436,0.0,0.0,0.0,-0.704889444903,0.709317186077
1565342024265646499,56165,1565342024205031177,map,1.509516716,0.395663261414,0.0,0.0,0.0,-0.705108245381,0.709099684315
1565342024331288113,56166,1565342024271746385,map,1.51874542236,0.396133422852,0.0,0.0,0.0,-0.70506783829,0.70913986167
1565342024398145561,56167,1565342024337848937,map,1.52756786346,0.395848274231,0.0,0.0,0.0,-0.704963174971,0.709243908635
1565342024467538373,56168,1565342024404556385,map,1.53749275208,0.395910263062,0.0,0.0,0.0,-0.705152200287,0.709055974117
1565342024530719936,56169,1565342024471228312,map,1.54717826843,0.395899772644,0.0,0.0,0.0,-0.705023032771,0.709184407092
1565342024597416915,56170,1565342024537729770,map,1.55716133118,0.396667480469,0.0,0.0,0.0,-0.705097594362,0.709110275222
1565342024664310405,56171,1565342024604424823,map,1.56707954407,0.396621704102,0.0,0.0,0.0,-0.70529638716,0.708912551913
1565342024724206863,56172,1565342024669262895,map,1.57858562469,0.398498535156,0.0,0.0,0.0,-0.705359428056,0.70884982701
1565342024790868425,56173,1565342024735898468,map,1.58762645721,0.399663925171,0.0,0.0,0.0,-0.70565208105,0.708558494769
1565342024857565300,56174,1565342024802532843,map,1.59777259827,0.399435043335,0.0,0.0,0.0,-0.705754616301,0.708456365326
1565342024924535352,56175,1565342024869473416,map,1.60753631592,0.401527404785,0.0,0.0,0.0,-0.706058756626,0.708153254735
1565342024991437852,56176,1565342024935973364,map,1.61850452423,0.402158737183,0.0,0.0,0.0,-0.706412381825,0.707800499296
1565342025057638113,56177,1565342025002530552,map,1.62779808044,0.402844429016,0.0,0.0,0.0,-0.706485110548,0.707727905748
1565342025124470821,56178,1565342025069194249,map,1.63836956024,0.403744697571,0.0,0.0,0.0,-0.706624809759,0.707588424321
1565342025191268998,56179,1565342025136064926,map,1.64893817902,0.403841018677,0.0,0.0,0.0,-0.706697179318,0.707516145924
1565342025257613061,56180,1565342025202558208,map,1.65959739685,0.403607368469,0.0,0.0,0.0,-0.706554120001,0.70765901076
1565342025324304988,56181,1565342025269251072,map,1.67057323456,0.404954910278,0.0,0.0,0.0,-0.706365804526,0.707846982191
1565342025398570873,56182,1565342025337719978,map,1.68144035339,0.404470443726,0.0,0.0,0.0,-0.706277704315,0.70793488711
1565342025465642644,56183,1565342025404899197,map,1.69158649445,0.405044555664,0.0,0.0,0.0,-0.70588973079,0.708321740429
1565342025531307488,56184,1565342025471138312,map,1.70207500458,0.404907226562,0.0,0.0,0.0,-0.705631639802,0.708578851583
1565342025598808894,56185,1565342025538247478,map,1.71242523193,0.404962539673,0.0,0.0,0.0,-0.705524862746,0.708685168496
1565342025668115925,56186,1565342025605260083,map,1.72301006317,0.405157089233,0.0,0.0,0.0,-0.70547670646,0.708733106777
1565342025732259988,56187,1565342025671661541,map,1.73427867889,0.405507087708,0.0,0.0,0.0,-0.705666609184,0.708544025931
1565342025799179519,56188,1565342025737716072,map,1.74460124969,0.406616210938,0.0,0.0,0.0,-0.705452711586,0.708756990594
1565342025865271915,56189,1565342025804470968,map,1.75562286377,0.407629013062,0.0,0.0,0.0,-0.705460653641,0.708749085477
1565342025930910352,56190,1565342025871340968,map,1.76660251617,0.40832233429,0.0,0.0,0.0,-0.705141549924,0.709066565684
1565342025998022852,56191,1565342025937705291,map,1.77883243561,0.409823417664,0.0,0.0,0.0,-0.705343710607,0.70886546672
1565342026066738269,56192,1565342026004353103,map,1.79061698914,0.411432266235,0.0,0.0,0.0,-0.705229283885,0.708979306575
1565342026130723946,56193,1565342026071142062,map,1.80214500427,0.411211967468,0.0,0.0,0.0,-0.705329175882,0.708879928937
1565342026198224206,56194,1565342026137877062,map,1.81446170807,0.412343978882,0.0,0.0,0.0,-0.705304499974,0.70890448039
1565342026266360300,56195,1565342026204565811,map,1.82615756989,0.412925720215,0.0,0.0,0.0,-0.705270526948,0.708938279273
1565342026331294623,56196,1565342026271292791,map,1.83749485016,0.41394329071,0.0,0.0,0.0,-0.705009336938,0.709198022297
1565342026398508112,56197,1565342026337795655,map,1.84870243073,0.413297653198,0.0,0.0,0.0,-0.704507990085,0.709696056003
1565342026464300248,56198,1565342026404377166,map,1.86106681824,0.413760185242,0.0,0.0,0.0,-0.704557396157,0.709647007688
1565342026530695821,56199,1565342026471158468,map,1.8722486496,0.414125442505,0.0,0.0,0.0,-0.704131918342,0.710069180835
1565342026597460091,56200,1565342026537727582,map,1.88384246826,0.415060043335,0.0,0.0,0.0,-0.703667056414,0.710529854206
1565342026664249362,56201,1565342026604564405,map,1.8961725235,0.416730880737,0.0,0.0,0.0,-0.703542703457,0.710652984524
1565342026732260612,56202,1565342026671084770,map,1.90778160095,0.41756439209,0.0,0.0,0.0,-0.703406297036,0.710788000244
1565342026798854727,56203,1565342026738518884,map,1.91984844208,0.419207572937,0.0,0.0,0.0,-0.702968944121,0.71122054498
1565342026866046602,56204,1565342026805039353,map,1.93221378326,0.420385360718,0.0,0.0,0.0,-0.702559659764,0.711624848127
1565342026931445977,56205,1565342026871823728,map,1.94497394562,0.421320915222,0.0,0.0,0.0,-0.702192242359,0.711987397901
1565342026998185508,56206,1565342026938500707,map,1.95819854736,0.422076225281,0.0,0.0,0.0,-0.70208936591,0.71208884437
1565342027065449206,56207,1565342027004979145,map,1.97111797333,0.423011779785,0.0,0.0,0.0,-0.701573574593,0.712597024575
1565342027132302800,56208,1565342027071719197,map,1.98446655273,0.423072814941,0.0,0.0,0.0,-0.701353355409,0.712813770109
1565342027198440456,56209,1565342027137682686,map,1.99725818634,0.423588752747,0.0,0.0,0.0,-0.700999267153,0.713161992433
1565342027265660456,56210,1565342027204635030,map,2.01028728485,0.42529296875,0.0,0.0,0.0,-0.700757272603,0.713399779152
1565342027332355195,56211,1565342027271124665,map,2.02402210236,0.425790786743,0.0,0.0,0.0,-0.700539357501,0.713613767098
1565342027399884779,56212,1565342027338547634,map,2.03825473785,0.426577568054,0.0,0.0,0.0,-0.700633948508,0.71352089682
1565342027466609362,56213,1565342027405559717,map,2.05174350739,0.428094863892,0.0,0.0,0.0,-0.700545992883,0.713607253225
1565342027531407226,56214,1565342027471135134,map,2.06632041931,0.429412841797,0.0,0.0,0.0,-0.700589886963,0.713564159894
1565342027598274883,56215,1565342027537733623,map,2.08052062988,0.430399894714,0.0,0.0,0.0,-0.700617447007,0.713537099911
1565342027666643685,56216,1565342027604806436,map,2.09557914734,0.431614875793,0.0,0.0,0.0,-0.700766967541,0.713390255893
1565342027731677070,56217,1565342027671300759,map,2.11009216309,0.433062553406,0.0,0.0,0.0,-0.700604007363,0.713550295962
1565342027808012695,56218,1565342027737881644,map,2.12462425232,0.43399810791,0.0,0.0,0.0,-0.700688043585,0.713467774729
1565342027864547070,56219,1565342027804463884,map,2.13915061951,0.434580802917,0.0,0.0,0.0,-0.700667460713,0.713487988335
1565342027931799414,56220,1565342027871707478,map,2.15420246124,0.435205459595,0.0,0.0,0.0,-0.70078040417,0.713377056774
1565342027998833789,56221,1565342027938279977,map,2.16917419434,0.436327934265,0.0,0.0,0.0,-0.700468236012,0.713683578582
1565342028066171862,56222,1565342028005157009,map,2.18388462067,0.436381340027,0.0,0.0,0.0,-0.700516048115,0.713636648676
1565342028132672747,56223,1565342028071384405,map,2.1989774704,0.437703132629,0.0,0.0,0.0,-0.700329886494,0.713819339948
1565342028199640924,56224,1565342028137906123,map,2.21379852295,0.440196037292,0.0,0.0,0.0,-0.699932559775,0.714208941254
1565342028266151132,56225,1565342028204993050,map,2.22878265381,0.441347122192,0.0,0.0,0.0,-0.699782697371,0.714355777228
1565342028331606549,56226,1565342028271372477,map,2.24309539795,0.442934036255,0.0,0.0,0.0,-0.698964212478,0.715156646949
1565342028398853737,56227,1565342028338434144,map,2.25964450836,0.442861557007,0.0,0.0,0.0,-0.699312985872,0.714815604048
1565342028466218320,56228,1565342028405353154,map,2.27548217773,0.444181442261,0.0,0.0,0.0,-0.699099923169,0.715023983811
1565342028532209205,56229,1565342028471977269,map,2.29127788544,0.445592880249,0.0,0.0,0.0,-0.699002063971,0.715119650523
1565342028597966132,56230,1565342028537692009,map,2.30654144287,0.44665813446,0.0,0.0,0.0,-0.698684528178,0.715429891802
1565342028666523111,56231,1565342028604540394,map,2.32257556915,0.447694778442,0.0,0.0,0.0,-0.698773390684,0.71534309843
1565342028732606914,56232,1565342028671189821,map,2.33754730225,0.450548171997,0.0,0.0,0.0,-0.698513595321,0.715596783917
1565342028798503372,56233,1565342028737867842,map,2.35289096832,0.451169013977,0.0,0.0,0.0,-0.698357469116,0.715749149724
1565342028865680716,56234,1565342028804763102,map,2.36860179901,0.451927185059,0.0,0.0,0.0,-0.698785499711,0.715331269688
1565342028931545038,56235,1565342028871214717,map,2.38248920441,0.453297615051,0.0,0.0,0.0,-0.698611178642,0.715501517172
1565342028998102695,56236,1565342028937724040,map,2.39626789093,0.454808235168,0.0,0.0,0.0,-0.698562218005,0.715549318758
1565342029066024934,56237,1565342029004456071,map,2.409116745,0.455103874207,0.0,0.0,0.0,-0.698599919691,0.715512510168
1565342029131919361,56238,1565342029071337894,map,2.42085266113,0.455594062805,0.0,0.0,0.0,-0.698567847792,0.715543822579
1565342029197401705,56239,1565342029137781383,map,2.43404388428,0.456108093262,0.0,0.0,0.0,-0.698738256318,0.715377417282
1565342029264087799,56240,1565342029204460185,map,2.44564914703,0.457275390625,0.0,0.0,0.0,-0.698534921457,0.715575966271
1565342029330947851,56241,1565342029271156748,map,2.45737266541,0.457963943481,0.0,0.0,0.0,-0.698381359432,0.71572583913
1565342029397325142,56242,1565342029337792529,map,2.46896457672,0.457452774048,0.0,0.0,0.0,-0.69828511084,0.715819742658
1565342029464102226,56243,1565342029404385810,map,2.48045921326,0.458700180054,0.0,0.0,0.0,-0.697978191512,0.716119015369
1565342029530786601,56244,1565342029471099925,map,2.4919052124,0.458669662476,0.0,0.0,0.0,-0.697924919925,0.71617093361
1565342029599115038,56245,1565342029537987269,map,2.5020904541,0.460087776184,0.0,0.0,0.0,-0.697508004773,0.716576990475
1565342029664365247,56246,1565342029604365810,map,2.51280212402,0.460538864136,0.0,0.0,0.0,-0.697454186546,0.716629372597
1565342029733002538,56247,1565342029671111435,map,2.52179431915,0.461851119995,0.0,0.0,0.0,-0.696730932644,0.717332564085
1565342029804638788,56248,1565342029738329143,map,2.53119182587,0.462550163269,0.0,0.0,0.0,-0.696634810109,0.717425913488
1565342029866921288,56249,1565342029805477529,map,2.53910827637,0.462452888489,0.0,0.0,0.0,-0.696305127745,0.717745894503
1565342029931684986,56250,1565342029871707164,map,2.5460357666,0.463502883911,0.0,0.0,0.0,-0.69581829118,0.718217867822
1565342029997180194,56251,1565342029937723623,map,2.55316162109,0.462931632996,0.0,0.0,0.0,-0.695469571735,0.718555547464
1565342030064331028,56252,1565342030004391800,map,2.55901050568,0.463331222534,0.0,0.0,0.0,-0.694926298289,0.719080968978
1565342030131419257,56253,1565342030071467164,map,2.56424045563,0.463775634766,0.0,0.0,0.0,-0.694155266396,0.719825302511
1565342030197448580,56254,1565342030137770185,map,2.5685043335,0.464108467102,0.0,0.0,0.0,-0.693765244556,0.720201211777
1565342030264330975,56255,1565342030204441747,map,2.57369041443,0.463304519653,0.0,0.0,0.0,-0.693701881122,0.720262243997
1565342030331127330,56256,1565342030271403154,map,2.57759380341,0.464541435242,0.0,0.0,0.0,-0.693123807007,0.720818554257
1565342030397392277,56257,1565342030337725289,map,2.58261871338,0.4651927948,0.0,0.0,0.0,-0.692700576832,0.7212252844
1565342030464698892,56258,1565342030404397581,map,2.58614349365,0.464813232422,0.0,0.0,0.0,-0.6924118114,0.721502517968
1565342030532113527,56259,1565342030471700081,map,2.59013462067,0.465553283691,0.0,0.0,0.0,-0.691613733508,0.722267570657
1565342030600293892,56260,1565342030538516435,map,2.59307956696,0.464666366577,0.0,0.0,0.0,-0.690936503762,0.722915449945
1565342030665215454,56261,1565342030605004039,map,2.59707736969,0.464475631714,0.0,0.0,0.0,-0.690452371978,0.72337785564
1565342030731889673,56262,1565342030671768154,map,2.59891605377,0.464970588684,0.0,0.0,0.0,-0.689629950015,0.724161951529
1565342030797993215,56263,1565342030738337320,map,2.60165405273,0.463569641113,0.0,0.0,0.0,-0.689250189846,0.72452341287
1565342030868041496,56264,1565342030806037216,map,2.60303497314,0.464381217957,0.0,0.0,0.0,-0.68826147731,0.725462706727
1565342030933985454,56265,1565342030871766799,map,2.60465240479,0.464889526367,0.0,0.0,0.0,-0.687377987597,0.726299870692
1565342030998216965,56266,1565342030938288622,map,2.60554504395,0.465039253235,0.0,0.0,0.0,-0.686564728387,0.727068685707
1565342031067230142,56267,1565342031004965966,map,2.60484790802,0.464601516724,0.0,0.0,0.0,-0.685416492267,0.72815124262
1565342031132829465,56268,1565342031071712841,map,2.60501861572,0.464343070984,0.0,0.0,0.0,-0.685119918472,0.728430296811
1565342031200229621,56269,1565342031138760445,map,2.60468578339,0.464818000793,0.0,0.0,0.0,-0.684234731721,0.729261840429
1565342031264983944,56270,1565342031205221643,map,2.6035823822,0.464784622192,0.0,0.0,0.0,-0.68367397414,0.729787569833
1565342031332137642,56271,1565342031271936643,map,2.60254192352,0.464269638062,0.0,0.0,0.0,-0.683146765309,0.730281108237
1565342031397739985,56272,1565342031337704403,map,2.60138988495,0.464121818542,0.0,0.0,0.0,-0.682435365784,0.730945942958
1565342031465246392,56273,1565342031404446018,map,2.59960174561,0.463928222656,0.0,0.0,0.0,-0.681898426867,0.731446878068
1565342031531152381,56274,1565342031471146278,map,2.59703350067,0.462823867798,0.0,0.0,0.0,-0.681292011302,0.732011745354
1565342031598220558,56275,1565342031538239455,map,2.59470844269,0.461733818054,0.0,0.0,0.0,-0.680879150921,0.732395782239
1565342031668064621,56276,1565342031604367580,map,2.59129047394,0.461206436157,0.0,0.0,0.0,-0.680262337931,0.732968724839
1565342031731263006,56277,1565342031671237268,map,2.58666229248,0.461433410645,0.0,0.0,0.0,-0.679455964339,0.73371628885
1565342031798429725,56278,1565342031737778934,map,2.58232116699,0.460737228394,0.0,0.0,0.0,-0.679001011677,0.73413733466
1565342031864647433,56279,1565342031804574143,map,2.57809448242,0.460113525391,0.0,0.0,0.0,-0.678562260366,0.73454289106
1565342031930896183,56280,1565342031871129611,map,2.57189464569,0.45910358429,0.0,0.0,0.0,-0.677905607271,0.735148956084
1565342031997949204,56281,1565342031938186070,map,2.56578159332,0.459045410156,0.0,0.0,0.0,-0.677306473954,0.735700985686
1565342032066175766,56282,1565342032004607372,map,2.55960178375,0.458898544312,0.0,0.0,0.0,-0.676422823065,0.736513519521
1565342032133354933,56283,1565342032071157788,map,2.55237865448,0.457524299622,0.0,0.0,0.0,-0.675973516315,0.736925915707
1565342032198637121,56284,1565342032137713309,map,2.54507541656,0.456207275391,0.0,0.0,0.0,-0.675215554498,0.737620468103
1565342032265283318,56285,1565342032204457424,map,2.53770256042,0.455454826355,0.0,0.0,0.0,-0.674743401536,0.738052397925
1565342032331426756,56286,1565342032271489195,map,2.52961444855,0.455411911011,0.0,0.0,0.0,-0.673704009856,0.739001290326
1565342032399433995,56287,1565342032338261955,map,2.52105712891,0.453866958618,0.0,0.0,0.0,-0.673085165052,0.739564980639
1565342032464811652,56288,1565342032404470184,map,2.5122127533,0.452217102051,0.0,0.0,0.0,-0.672503610235,0.740093841496
1565342032532041287,56289,1565342032471170445,map,2.50235748291,0.45157623291,0.0,0.0,0.0,-0.671832109871,0.740703460331
1565342032598044256,56290,1565342032538317788,map,2.49269962311,0.450286865234,0.0,0.0,0.0,-0.670743545312,0.741689353046
1565342032666640245,56291,1565342032605025288,map,2.48191165924,0.449499130249,0.0,0.0,0.0,-0.670312668188,0.742078787507
1565342032731933735,56292,1565342032671797424,map,2.47102451324,0.448527336121,0.0,0.0,0.0,-0.669385056383,0.742915638745
1565342032799477954,56293,1565342032738028569,map,2.45959281921,0.446452140808,0.0,0.0,0.0,-0.668889312031,0.743362016954
1565342032867123631,56294,1565342032804401434,map,2.44851493835,0.445844650269,0.0,0.0,0.0,-0.668677493463,0.74355256017
1565342032932477120,56295,1565342032871473257,map,2.43699169159,0.444524765015,0.0,0.0,0.0,-0.668503566689,0.743708935891
1565342032997784204,56296,1565342032937767580,map,2.42577934265,0.442379951477,0.0,0.0,0.0,-0.668034970435,0.744129879978
1565342033065537016,56297,1565342033004714767,map,2.41400432587,0.440930366516,0.0,0.0,0.0,-0.667906512466,0.744245181782
1565342033131980089,56298,1565342033071235861,map,2.40248394012,0.438520431519,0.0,0.0,0.0,-0.667956726997,0.744200114794
1565342033198001756,56299,1565342033137790080,map,2.38872051239,0.438432693481,0.0,0.0,0.0,-0.666902471887,0.74514501474
1565342033264927433,56300,1565342033204458100,map,2.37779521942,0.436648368835,0.0,0.0,0.0,-0.66722627653,0.74485508383
1565342033331905453,56301,1565342033271576069,map,2.36424732208,0.434953689575,0.0,0.0,0.0,-0.66730583183,0.744783812127
1565342033398955974,56302,1565342033338207788,map,2.34954166412,0.434440612793,0.0,0.0,0.0,-0.666831050944,0.745208930097
1565342033467285089,56303,1565342033404904923,map,2.3370847702,0.432249069214,0.0,0.0,0.0,-0.667207274473,0.744872105056
1565342033534779724,56304,1565342033471995965,map,2.32423686981,0.430570602417,0.0,0.0,0.0,-0.667363362616,0.744732262117
1565342033599201651,56305,1565342033538376642,map,2.30904960632,0.429388046265,0.0,0.0,0.0,-0.667194487797,0.744883558318
1565342033666500610,56306,1565342033604413621,map,2.29600811005,0.427655220032,0.0,0.0,0.0,-0.667797201066,0.744343266409
1565342033731086755,56307,1565342033671094715,map,2.28412723541,0.424989700317,0.0,0.0,0.0,-0.668344146023,0.743852204727
1565342033799933526,56308,1565342033737933673,map,2.268658638,0.42361164093,0.0,0.0,0.0,-0.668246421406,0.743939997767
1565342033864462380,56309,1565342033804329663,map,2.25684070587,0.421667098999,0.0,0.0,0.0,-0.668784561684,0.743456259677
1565342033931572172,56310,1565342033871036798,map,2.24509906769,0.420198440552,0.0,0.0,0.0,-0.669460508134,0.74284764794
1565342033998629828,56311,1565342033938174038,map,2.23410129547,0.418911933899,0.0,0.0,0.0,-0.670128822163,0.742244812515
1565342034064783787,56312,1565342034004859298,map,2.22372150421,0.417675971985,0.0,0.0,0.0,-0.671142735929,0.741328151367
1565342034131625818,56313,1565342034071696850,map,2.21364116669,0.417610168457,0.0,0.0,0.0,-0.671864603159,0.740673987003
1565342034197569568,56314,1565342034137702840,map,2.20461368561,0.416844367981,0.0,0.0,0.0,-0.672959963926,0.739678908008
1565342034264279880,56315,1565342034204507163,map,2.19500541687,0.417811393738,0.0,0.0,0.0,-0.673602869548,0.739093481325
1565342034331407641,56316,1565342034271185027,map,2.18791294098,0.417367935181,0.0,0.0,0.0,-0.675171939436,0.737660390829
1565342034398675766,56317,1565342034337745444,map,2.17977714539,0.417551994324,0.0,0.0,0.0,-0.676073832941,0.736833883866
1565342034465833995,56318,1565342034404349402,map,2.17052173615,0.416003227234,0.0,0.0,0.0,-0.677249465366,0.735753465273
1565342034532402484,56319,1565342034471355965,map,2.16277313232,0.414776802063,0.0,0.0,0.0,-0.678583976025,0.73452282979
1565342034598800245,56320,1565342034537729506,map,2.15364170074,0.413789749146,0.0,0.0,0.0,-0.679415903991,0.733753384595
1565342034665957120,56321,1565342034604686694,map,2.14507770538,0.41330242157,0.0,0.0,0.0,-0.680844925292,0.73242759895
1565342034732078578,56322,1565342034671096954,map,2.13782501221,0.412683486938,0.0,0.0,0.0,-0.68216310702,0.731200037897
1565342034801160922,56323,1565342034737722579,map,2.12774753571,0.413871765137,0.0,0.0,0.0,-0.683247047716,0.730187285419
1565342034867864359,56324,1565342034804790079,map,2.120013237,0.411870002747,0.0,0.0,0.0,-0.684984442999,0.728557693562
1565342034933545505,56325,1565342034871101642,map,2.10915088654,0.413119316101,0.0,0.0,0.0,-0.686015196837,0.727587211067
1565342034999359307,56326,1565342034937903777,map,2.0992975235,0.412324905396,0.0,0.0,0.0,-0.687228186654,0.726441614631
1565342035063977744,56327,1565342035004334089,map,2.08868980408,0.413174629211,0.0,0.0,0.0,-0.688705692151,0.725041012356
1565342035131073317,56328,1565342035071335131,map,2.07688713074,0.41130065918,0.0,0.0,0.0,-0.689892338292,0.723911984681
1565342035198353474,56329,1565342035137746381,map,2.0646905899,0.411074638367,0.0,0.0,0.0,-0.691238412018,0.722626776248
1565342035266333317,56330,1565342035204753933,map,2.05033397675,0.411842346191,0.0,0.0,0.0,-0.691858565011,0.722033050504
1565342035333006338,56331,1565342035271186121,map,2.03687286377,0.411297798157,0.0,0.0,0.0,-0.692962588245,0.7209735441
1565342035398533942,56332,1565342035338278360,map,2.02326774597,0.409388542175,0.0,0.0,0.0,-0.693755972194,0.72021014367
1565342035465648369,56333,1565342035405033308,map,2.00953483582,0.410049438477,0.0,0.0,0.0,-0.694732543314,0.719268165054
1565342035532780505,56334,1565342035472374350,map,1.99461650848,0.410186767578,0.0,0.0,0.0,-0.695500579463,0.718525534666
1565342035597526651,56335,1565342035537709766,map,1.97951316833,0.410039901733,0.0,0.0,0.0,-0.696481706589,0.717574548313
1565342035663980921,56336,1565342035604306016,map,1.96368980408,0.410016059875,0.0,0.0,0.0,-0.697447352204,0.716636024006
1565342035732059411,56337,1565342035671148464,map,1.94788360596,0.409645080566,0.0,0.0,0.0,-0.698059457391,0.716039799137
1565342035798577848,56338,1565342035737656954,map,1.92997455597,0.409837722778,0.0,0.0,0.0,-0.698577571867,0.715534329074
1565342035864090661,56339,1565342035804310860,map,1.91410160065,0.410034179688,0.0,0.0,0.0,-0.699815737867,0.714323409272
1565342035931550505,56340,1565342035871271745,map,1.89784812927,0.409589767456,0.0,0.0,0.0,-0.700912035972,0.713247725429
1565342035998315869,56341,1565342035938480183,map,1.88074207306,0.410130500793,0.0,0.0,0.0,-0.701730881532,0.71244211688
1565342036064113317,56342,1565342036004427631,map,1.86326313019,0.409772872925,0.0,0.0,0.0,-0.702831580778,0.711356288411
1565342036131742223,56343,1565342036071237683,map,1.84465026855,0.408918380737,0.0,0.0,0.0,-0.703630972557,0.710565587725
1565342036197838369,56344,1565342036137898568,map,1.82787418365,0.40810585022,0.0,0.0,0.0,-0.704893334523,0.709313320716
