%time,field.linear.x,field.linear.y,field.linear.z,field.angular.x,field.angular.y,field.angular.z
1565342003614336246,1550.0,1550.0,1550.0,1550.0,0.0,0.0
1565342003664189736,1550.0,1550.0,1550.0,1550.0,0.0,0.0
1565342003714168538,1550.0,1550.0,1550.0,1550.0,0.0,0.0
1565342003764085517,1550.0,1550.0,1550.0,1550.0,0.0,0.0
1565342003814378590,1550.0,1550.0,1550.0,1550.0,0.0,0.0
1565342003864170465,1550.0,1550.0,1550.0,1550.0,0.0,0.0
1565342003914606663,1550.0,1550.0,1550.0,1550.0,0.0,0.0
1565342003965052860,1550.0,1550.0,1550.0,1550.0,0.0,0.0
1565342004014928381,1550.0,1550.0,1550.0,1550.0,0.0,0.0
1565342004065081246,1550.0,1550.0,1550.0,1550.0,0.0,0.0
1565342004114709631,1550.0,1550.0,1550.0,1550.0,0.0,0.0
1565342004164946194,1550.0,1550.0,1550.0,1550.0,0.0,0.0
1565342004214899319,1550.0,1550.0,1550.0,1550.0,0.0,0.0
1565342004266186975,1550.0,1550.0,1550.0,1550.0,0.0,0.0
1565342004314884371,1550.0,1550.0,1550.0,1550.0,0.0,0.0
1565342004364866454,1550.0,1550.0,1550.0,1550.0,0.0,0.0
1565342004414889110,1550.0,1550.0,1550.0,1550.0,0.0,0.0
1565342004466734787,1550.0,1550.0,1550.0,1550.0,0.0,0.0
1565342004516049423,1550.0,1550.0,1550.0,1550.0,0.0,0.0
1565342004565336246,1550.0,1550.0,1550.0,1550.0,0.0,0.0
1565342004615330412,1550.0,1550.0,1550.0,1550.0,0.0,0.0
1565342004665402235,1550.0,1550.0,1550.0,1550.0,0.0,0.0
1565342004714868694,1550.0,1550.0,1550.0,1550.0,0.0,0.0
1565342004765003694,1550.0,1550.0,1550.0,1550.0,0.0,0.0
1565342004815071975,1550.0,1550.0,1550.0,1550.0,0.0,0.0
1565342004866559318,1550.0,1550.0,1550.0,1550.0,0.0,0.0
1565342004915659318,1550.0,1550.0,1550.0,1550.0,0.0,0.0
1565342004964931818,1550.0,1550.0,1550.0,1550.0,0.0,0.0
1565342005016316402,1550.0,1550.0,1550.0,1550.0,0.0,0.0
1565342005066576037,1550.0,1550.0,1550.0,1550.0,0.0,0.0
1565342005115508277,1550.0,1550.0,1550.0,1550.0,0.0,0.0
1565342005165094527,1550.0,1550.0,1550.0,1550.0,0.0,0.0
1565342005215188225,1550.0,1550.0,1550.0,1550.0,0.0,0.0
1565342005265687600,1550.0,1550.0,1550.0,1550.0,0.0,0.0
1565342005315221193,1550.0,1550.0,1550.0,1550.0,0.0,0.0
1565342005365802600,1550.0,1550.0,1550.0,1550.0,0.0,0.0
1565342005415812443,1550.0,1550.0,1550.0,1550.0,0.0,0.0
1565342005465807860,1550.0,1550.0,1550.0,1550.0,0.0,0.0
1565342005515273120,1550.0,1550.0,1550.0,1550.0,0.0,0.0
1565342005564606193,1550.0,1550.0,1550.0,1550.0,0.0,0.0
1565342005614972756,1550.0,1550.0,1550.0,1550.0,0.0,0.0
1565342005665525672,1550.0,1550.0,1550.0,1550.0,0.0,0.0
1565342005715237756,1550.0,1550.0,1550.0,1550.0,0.0,0.0
1565342005764933589,1550.0,1550.0,1550.0,1550.0,0.0,0.0
1565342005815168172,1550.0,1650.0,1550.0,1650.0,0.0,0.0
1565342005865718485,1550.0,1650.0,1550.0,1650.0,0.0,0.0
1565342005914951922,1550.0,1650.0,1550.0,1650.0,0.0,0.0
1565342005964767339,1550.0,1650.0,1550.16592431,1650.16592431,0.0,0.0
1565342006015356453,1550.0,1650.0,1550.16592431,1650.16592431,0.0,0.0
1565342006065379474,1550.0,1650.0,1554.50597778,1654.50597778,0.0,0.0
1565342006115093068,1550.0,1650.0,1554.50597778,1654.50597778,0.0,0.0
1565342006165090933,1550.0,1650.0,1554.50597778,1654.50597778,0.0,0.0
1565342006215345985,1550.0,1650.0,1554.50597778,1654.50597778,0.0,0.0
1565342006265421505,1550.0,1650.0,1554.50597778,1654.50597778,0.0,0.0
1565342006315418641,1550.0,1650.0,1554.50597778,1654.50597778,0.0,0.0
1565342006365108380,1550.0,1650.0,1554.50597778,1654.50597778,0.0,0.0
1565342006415165255,1550.0,1550.0,1550.0,1550.0,0.0,0.0
1565342006465898849,1550.0,1550.0,1550.0,1550.0,0.0,0.0
1565342006515059839,1550.0,1550.0,1550.0,1550.0,0.0,0.0
1565342006565036505,1550.0,1550.0,1550.0,1550.0,0.0,0.0
1565342006614954422,1550.0,1550.0,1550.0,1550.0,0.0,0.0
1565342006665208016,1550.0,1550.0,1550.0,1550.0,0.0,0.0
1565342006714886193,1550.0,1575.58519244,1575.58519244,1550.0,0.0,0.0
1565342006764937495,1550.0,1575.58519244,1575.58519244,1550.0,0.0,0.0
1565342006815156922,1550.0,1585.89402437,1585.89402437,1550.0,0.0,0.0
1565342006866011245,1550.0,1585.89402437,1585.89402437,1550.0,0.0,0.0
1565342006915437807,1550.0,1585.89402437,1585.89402437,1550.0,0.0,0.0
1565342006964911505,1550.0,1585.89402437,1585.89402437,1550.0,0.0,0.0
1565342007015480203,1550.0,1585.35272181,1585.35272181,1550.0,0.0,0.0
1565342007065097859,1550.0,1585.35272181,1585.35272181,1550.0,0.0,0.0
1565342007114943484,1550.0,1585.35272181,1585.35272181,1550.0,0.0,0.0
1565342007164961557,1550.0,1586.43693328,1586.43693328,1550.0,0.0,0.0
1565342007214948797,1550.0,1586.43693328,1586.43693328,1550.0,0.0,0.0
1565342007265302651,1550.0,1586.43693328,1586.43693328,1550.0,0.0,0.0
1565342007315142651,1550.0,1586.43693328,1586.43693328,1550.0,0.0,0.0
1565342007364967443,1550.0,1586.43693328,1586.43693328,1550.0,0.0,0.0
1565342007414966193,1550.0,1586.43693328,1586.43693328,1550.0,0.0,0.0
1565342007465784422,1550.0,1550.0,1550.0,1550.0,0.0,0.0
1565342007515310932,1550.0,1550.0,1550.0,1550.0,0.0,0.0
1565342007565202130,1550.0,1550.0,1550.0,1550.0,0.0,0.0
1565342007615702859,1550.0,1550.0,1550.0,1550.0,0.0,0.0
1565342007665073015,1550.0,1550.0,1550.0,1550.0,0.0,0.0
1565342007714967390,1550.0,1550.0,1550.0,1550.0,0.0,0.0
1565342007764964161,1550.0,1550.0,1550.0,1550.0,0.0,0.0
1565342007815175984,1550.0,1550.0,1550.0,1550.0,0.0,0.0
1565342007865473224,1550.0,1550.0,1550.0,1550.0,0.0,0.0
1565342007915223224,1550.0,1550.0,1550.0,1550.0,0.0,0.0
1565342007964921140,1550.0,1628.29651833,1550.0,1628.29651833,0.0,0.0
1565342008015091401,1550.0,1628.29651833,1550.0,1628.29651833,0.0,0.0
1565342008065136453,1550.0,1628.29651833,1550.0,1628.29651833,0.0,0.0
1565342008115240046,1550.0,1628.29651833,1550.0,1628.29651833,0.0,0.0
1565342008165211661,1550.0,1645.6599474,1550.0,1645.6599474,0.0,0.0
1565342008215139421,1550.0,1645.6599474,1550.0,1645.6599474,0.0,0.0
1565342008266965411,1550.0,1650.0,1550.0,1650.0,0.0,0.0
1565342008315268588,1550.0,1650.0,1550.0,1650.0,0.0,0.0
1565342008365871921,1550.0,1650.0,1550.0,1650.0,0.0,0.0
1565342008415143328,1550.0,1650.0,1550.0,1650.0,0.0,0.0
1565342008467471973,1550.0,1650.0,1550.0,1650.0,0.0,0.0
1565342008515682338,1550.0,1650.0,1550.0,1650.0,0.0,0.0
1565342008565461505,1550.0,1650.0,1550.0,1650.0,0.0,0.0
1565342008615292182,1550.0,1650.0,1550.0,1650.0,0.0,0.0
1565342008665197494,1550.0,1650.0,1550.0,1650.0,0.0,0.0
1565342008715666348,1550.0,1650.0,1550.0,1650.0,0.0,0.0
1565342008765215150,1550.0,1650.0,1550.0,1650.0,0.0,0.0
1565342008815347442,1550.0,1650.0,1550.0,1650.0,0.0,0.0
1565342008866611348,1550.0,1650.0,1550.0,1650.0,0.0,0.0
1565342008915250411,1550.0,1650.0,1550.0,1650.0,0.0,0.0
1565342008965114942,1550.0,1650.0,1550.0,1650.0,0.0,0.0
1565342009015250411,1550.0,1650.0,1550.0,1650.0,0.0,0.0
1565342009065266817,1550.0,1650.0,1550.0,1650.0,0.0,0.0
1565342009115173744,1550.0,1650.0,1550.0,1650.0,0.0,0.0
1565342009165100254,1550.0,1650.0,1550.0,1650.0,0.0,0.0
1565342009215057858,1550.0,1650.0,1550.0,1650.0,0.0,0.0
1565342009264982650,1550.0,1650.0,1550.0,1650.0,0.0,0.0
1565342009315027025,1550.0,1650.0,1550.0,1650.0,0.0,0.0
1565342009365004265,1550.0,1650.0,1550.0,1650.0,0.0,0.0
1565342009415086140,1550.0,1650.0,1550.0,1650.0,0.0,0.0
1565342009465511556,1550.0,1650.0,1550.0,1650.0,0.0,0.0
1565342009514905254,1550.0,1650.0,1550.0,1650.0,0.0,0.0
1565342009564861192,1550.0,1650.0,1550.0,1650.0,0.0,0.0
1565342009614981556,1550.0,1650.0,1550.0,1650.0,0.0,0.0
1565342009665394108,1550.0,1650.0,1550.0,1650.0,0.0,0.0
1565342009714861817,1550.0,1650.0,1550.0,1650.0,0.0,0.0
1565342009765044629,1550.0,1650.0,1550.0,1650.0,0.0,0.0
1565342009815360567,1550.0,1650.0,1550.0,1650.0,0.0,0.0
1565342009866648431,1550.0,1650.0,1550.0,1650.0,0.0,0.0
1565342009915269942,1550.0,1650.0,1550.0,1650.0,0.0,0.0
1565342009964858171,1550.0,1650.0,1550.0,1650.0,0.0,0.0
1565342010014974369,1550.0,1650.0,1550.0,1650.0,0.0,0.0
1565342010065623223,1550.0,1650.0,1550.0,1650.0,0.0,0.0
1565342010114974525,1550.0,1650.0,1550.0,1650.0,0.0,0.0
1565342010165176035,1550.0,1650.0,1550.0,1650.0,0.0,0.0
1565342010214929577,1550.0,1650.0,1550.0,1650.0,0.0,0.0
1565342010264958744,1550.0,1650.0,1550.0,1650.0,0.0,0.0
1565342010315172754,1550.0,1550.0,1550.0,1550.0,0.0,0.0
1565342010364940098,1550.0,1550.0,1550.0,1550.0,0.0,0.0
1565342010415108275,1550.0,1550.0,1550.0,1550.0,0.0,0.0
1565342010465088066,1550.0,1550.0,1550.0,1550.0,0.0,0.0
1565342010514608743,1550.0,1550.0,1550.0,1550.0,0.0,0.0
1565342010565277337,1550.0,1550.0,1550.0,1550.0,0.0,0.0
1565342010615132598,1550.0,1550.0,1550.0,1550.0,0.0,0.0
1565342010665129056,1550.0,1550.0,1550.0,1550.0,0.0,0.0
1565342010715050722,1550.0,1550.0,1550.0,1550.0,0.0,0.0
1565342010764961660,1550.0,1550.0,1550.0,1550.0,0.0,0.0
1565342010814930410,1550.0,1550.0,1550.0,1550.0,0.0,0.0
1565342010865793639,1550.0,1550.0,1550.0,1550.0,0.0,0.0
1565342010914612441,1550.0,1550.0,1550.0,1550.0,0.0,0.0
1565342010965641660,1550.0,1550.0,1550.0,1550.0,0.0,0.0
1565342011015086868,1550.0,1550.0,1550.0,1550.0,0.0,0.0
1565342011065061347,1550.0,1550.0,1550.0,1550.0,0.0,0.0
1565342011114987389,1550.0,1550.0,1550.0,1550.0,0.0,0.0
1565342011165306608,1550.0,1550.0,1550.0,1550.0,0.0,0.0
1565342011215202701,1550.0,1550.0,1550.0,1550.0,0.0,0.0
1565342011265123691,1550.0,1550.0,1550.0,1550.0,0.0,0.0
1565342011314949941,1550.0,1550.0,1550.0,1550.0,0.0,0.0
1565342011364603795,1550.0,1550.0,1550.0,1550.0,0.0,0.0
1565342011414750358,1550.0,1550.0,1550.0,1550.0,0.0,0.0
1565342011465059785,1550.0,1550.0,1550.0,1550.0,0.0,0.0
1565342011514851191,1568.61195415,1550.0,1568.61195415,1550.0,0.0,0.0
1565342011565069576,1568.61195415,1550.0,1568.61195415,1550.0,0.0,0.0
1565342011615158795,1568.61195415,1550.0,1568.61195415,1550.0,0.0,0.0
1565342011665366816,1592.48706698,1550.0,1592.48706698,1550.0,0.0,0.0
1565342011715263378,1592.48706698,1550.0,1592.48706698,1550.0,0.0,0.0
1565342011765168795,1595.74451447,1550.0,1595.74451447,1550.0,0.0,0.0
1565342011814840305,1595.74451447,1550.0,1595.74451447,1550.0,0.0,0.0
1565342011865048482,1595.74451447,1550.0,1595.74451447,1550.0,0.0,0.0
1565342011914792285,1595.74451447,1550.0,1595.74451447,1550.0,0.0,0.0
1565342011964829107,1595.74451447,1550.0,1595.74451447,1550.0,0.0,0.0
1565342012014752493,1595.74451447,1550.0,1595.74451447,1550.0,0.0,0.0
1565342012064989472,1595.74451447,1550.0,1595.74451447,1550.0,0.0,0.0
1565342012114838170,1595.74451447,1550.0,1595.74451447,1550.0,0.0,0.0
1565342012164847441,1595.74451447,1550.0,1595.74451447,1550.0,0.0,0.0
1565342012215193795,1550.0,1550.0,1550.0,1550.0,0.0,0.0
1565342012265256295,1550.0,1550.0,1550.0,1550.0,0.0,0.0
1565342012314942180,1550.0,1550.0,1550.0,1550.0,0.0,0.0
1565342012364761920,1550.0,1550.0,1550.0,1550.0,0.0,0.0
1565342012414956086,1550.0,1550.0,1550.0,1550.0,0.0,0.0
1565342012465434420,1550.0,1550.0,1550.0,1550.0,0.0,0.0
1565342012514774316,1550.0,1550.0,1550.0,1550.0,0.0,0.0
1565342012565364888,1550.0,1550.0,1550.0,1550.0,0.0,0.0
1565342012615345774,1550.0,1550.0,1550.0,1550.0,0.0,0.0
1565342012665280461,1550.0,1550.0,1550.0,1550.0,0.0,0.0
1565342012714799732,1550.0,1550.0,1550.0,1550.0,0.0,0.0
1565342012764946451,1550.0,1550.0,1550.0,1550.0,0.0,0.0
1565342012815653222,1550.0,1550.0,1550.0,1550.0,0.0,0.0
1565342012866323065,1550.0,1550.0,1550.0,1550.0,0.0,0.0
1565342012915773430,1620.70544362,1550.0,1620.70544362,1550.0,0.0,0.0
1565342012965748795,1620.70544362,1550.0,1620.70544362,1550.0,0.0,0.0
1565342013014933170,1621.78804874,1550.0,1621.78804874,1550.0,0.0,0.0
1565342013065075253,1621.78804874,1550.0,1621.78804874,1550.0,0.0,0.0
1565342013115044628,1621.78804874,1550.0,1621.78804874,1550.0,0.0,0.0
1565342013164962336,1619.61962581,1550.0,1619.61962581,1550.0,0.0,0.0
1565342013214970305,1619.61962581,1550.0,1619.61962581,1550.0,0.0,0.0
1565342013266467961,1550.0,1550.0,1550.0,1550.0,0.0,0.0
1565342013314860253,1550.0,1550.0,1550.0,1550.0,0.0,0.0
1565342013365686763,1550.0,1550.0,1550.0,1550.0,0.0,0.0
1565342013415245617,1550.0,1550.0,1550.0,1550.0,0.0,0.0
1565342013466336034,1550.0,1550.0,1550.0,1550.0,0.0,0.0
1565342013515100721,1550.0,1550.0,1550.0,1550.0,0.0,0.0
1565342013565078846,1550.0,1550.0,1550.0,1550.0,0.0,0.0
1565342013615344940,1550.0,1550.0,1550.0,1550.0,0.0,0.0
1565342013665297857,1631.55718446,1550.0,1631.55718446,1550.0,0.0,0.0
1565342013714786346,1631.55718446,1550.0,1631.55718446,1550.0,0.0,0.0
1565342013764979419,1650.0,1550.0,1650.0,1550.0,0.0,0.0
1565342013816007909,1650.0,1550.0,1650.0,1550.0,0.0,0.0
1565342013865833794,1650.0,1550.0,1650.0,1550.0,0.0,0.0
1565342013914776294,1578.38108838,1550.0,1578.38108838,1550.0,0.0,0.0
1565342013964696346,1550.0,1550.0,1550.0,1550.0,0.0,0.0
1565342014015264784,1550.0,1550.0,1550.0,1550.0,0.0,0.0
1565342014066301086,1550.0,1550.0,1550.0,1550.0,0.0,0.0
1565342014116281086,1550.0,1550.0,1550.0,1550.0,0.0,0.0
1565342014167709263,1550.0,1550.0,1550.0,1550.0,0.0,0.0
1565342014216773846,1550.0,1550.0,1550.0,1550.0,0.0,0.0
1565342014265544211,1550.0,1550.0,1550.0,1550.0,0.0,0.0
1565342014314992909,1550.0,1550.0,1550.0,1550.0,0.0,0.0
1565342014366388325,1550.0,1550.0,1550.0,1550.0,0.0,0.0
1565342014414813898,1550.0,1550.0,1550.0,1550.0,0.0,0.0
1565342014465057075,1550.0,1550.0,1550.0,1550.0,0.0,0.0
1565342014515358534,1550.0,1550.0,1550.0,1550.0,0.0,0.0
1565342014565165252,1550.0,1550.0,1550.0,1550.0,0.0,0.0
1565342014615778794,1550.0,1550.0,1550.0,1550.0,0.0,0.0
1565342014665475513,1550.0,1550.0,1550.0,1550.0,0.0,0.0
1565342014714665617,1550.0,1550.0,1550.0,1550.0,0.0,0.0
1565342014764923638,1550.0,1550.0,1550.0,1550.0,0.0,0.0
1565342014814949263,1550.0,1550.0,1550.0,1550.0,0.0,0.0
1565342014865835096,1550.0,1550.0,1550.0,1550.0,0.0,0.0
1565342014914842700,1550.0,1550.0,1550.0,1550.0,0.0,0.0
1565342014964611294,1550.0,1550.0,1550.0,1550.0,0.0,0.0
1565342015014731867,1550.0,1550.0,1550.0,1550.0,0.0,0.0
1565342015065381658,1550.0,1550.0,1550.0,1550.0,0.0,0.0
1565342015114902596,1550.0,1550.0,1550.0,1550.0,0.0,0.0
1565342015165100669,1550.0,1550.0,1579.46690619,1579.46690619,0.0,0.0
1565342015214860825,1550.0,1550.0,1579.46690619,1579.46690619,0.0,0.0
1565342015265066762,1550.0,1550.0,1582.72114396,1582.72114396,0.0,0.0
1565342015315546085,1550.0,1550.0,1582.72114396,1582.72114396,0.0,0.0
1565342015364939679,1550.0,1550.0,1597.91293442,1597.91293442,0.0,0.0
1565342015415203637,1550.0,1550.0,1597.91293442,1597.91293442,0.0,0.0
1565342015466773637,1550.0,1550.0,1597.91293442,1597.91293442,0.0,0.0
1565342015515276241,1550.0,1550.0,1597.91293442,1597.91293442,0.0,0.0
1565342015565401866,1550.0,1550.0,1597.91293442,1597.91293442,0.0,0.0
1565342015614938116,1550.0,1550.0,1597.91293442,1597.91293442,0.0,0.0
1565342015665671346,1550.0,1550.0,1597.91293442,1597.91293442,0.0,0.0
1565342015715514210,1550.0,1550.0,1597.91293442,1597.91293442,0.0,0.0
1565342015764719262,1550.0,1550.0,1597.91293442,1597.91293442,0.0,0.0
1565342015814840096,1550.0,1550.0,1604.42461967,1604.42461967,0.0,0.0
1565342015865764731,1550.0,1550.0,1604.42461967,1604.42461967,0.0,0.0
1565342015915139210,1550.0,1550.0,1631.55718446,1631.55718446,0.0,0.0
1565342015965351658,1550.0,1550.0,1631.55718446,1631.55718446,0.0,0.0
1565342016015259002,1550.0,1550.0,1631.55718446,1631.55718446,0.0,0.0
1565342016066029783,1550.0,1550.0,1631.55718446,1631.55718446,0.0,0.0
1565342016115397231,1550.0,1550.0,1631.55718446,1631.55718446,0.0,0.0
1565342016165471866,1550.0,1550.0,1650.0,1650.0,0.0,0.0
1565342016215666241,1550.0,1550.0,1650.0,1650.0,0.0,0.0
1565342016265537856,1550.0,1550.0,1650.0,1650.0,0.0,0.0
1565342016315421866,1550.0,1550.0,1650.0,1650.0,0.0,0.0
1565342016365512804,1550.0,1550.0,1650.0,1650.0,0.0,0.0
1565342016415273637,1550.0,1550.0,1650.0,1650.0,0.0,0.0
1565342016465723793,1550.0,1550.0,1650.0,1650.0,0.0,0.0
1565342016515241137,1550.0,1550.0,1650.0,1650.0,0.0,0.0
1565342016565331241,1550.0,1550.0,1650.0,1650.0,0.0,0.0
1565342016615542804,1550.0,1550.0,1650.0,1650.0,0.0,0.0
1565342016665367908,1550.0,1550.0,1650.0,1650.0,0.0,0.0
1565342016715040772,1550.0,1550.0,1650.0,1650.0,0.0,0.0
1565342016765108533,1550.0,1550.0,1650.0,1650.0,0.0,0.0
1565342016815425824,1550.0,1550.0,1650.0,1650.0,0.0,0.0
1565342016865546033,1550.0,1550.0,1550.0,1550.0,0.0,0.0
1565342016915119783,1550.0,1550.0,1550.0,1550.0,0.0,0.0
1565342016965136970,1550.0,1550.0,1550.0,1550.0,0.0,0.0
1565342017015202231,1550.0,1550.0,1550.0,1550.0,0.0,0.0
1565342017065710199,1550.0,1550.0,1550.0,1550.0,0.0,0.0
1565342017115394314,1550.0,1550.0,1550.0,1550.0,0.0,0.0
1565342017165154887,1550.0,1550.0,1550.0,1550.0,0.0,0.0
1565342017215108949,1550.0,1550.0,1550.0,1550.0,0.0,0.0
1565342017265343376,1550.0,1550.0,1550.0,1550.0,0.0,0.0
1565342017315123428,1550.0,1550.0,1550.0,1550.0,0.0,0.0
1565342017365100095,1550.0,1550.0,1550.0,1550.0,0.0,0.0
1565342017415131345,1550.0,1550.0,1550.0,1550.0,0.0,0.0
1565342017466043949,1550.0,1550.0,1550.0,1550.0,0.0,0.0
1565342017515277282,1550.0,1550.0,1550.0,1550.0,0.0,0.0
1565342017564960407,1550.0,1550.0,1550.0,1550.0,0.0,0.0
1565342017615828689,1584.89277661,1550.0,1584.89277661,1550.0,0.0,0.0
1565342017665102959,1584.89277661,1550.0,1584.89277661,1550.0,0.0,0.0
1565342017715096709,1605.51043749,1550.0,1605.51043749,1550.0,0.0,0.0
1565342017765045095,1605.51043749,1550.0,1605.51043749,1550.0,0.0,0.0
1565342017815424314,1650.0,1550.0,1650.0,1550.0,0.0,0.0
1565342017865693793,1650.0,1550.0,1650.0,1550.0,0.0,0.0
1565342017915633584,1650.0,1550.0,1650.0,1550.0,0.0,0.0
1565342017965110876,1650.0,1550.0,1650.0,1550.0,0.0,0.0
1565342018016082022,1650.0,1550.0,1650.0,1550.0,0.0,0.0
1565342018067060720,1650.0,1550.0,1650.0,1550.0,0.0,0.0
1565342018115323011,1650.0,1550.0,1650.0,1550.0,0.0,0.0
1565342018165529626,1650.0,1550.0,1650.0,1550.0,0.0,0.0
1565342018215229574,1650.0,1550.0,1650.0,1550.0,0.0,0.0
1565342018265519834,1650.0,1550.0,1650.0,1550.0,0.0,0.0
1565342018315712282,1650.0,1550.0,1650.0,1550.0,0.0,0.0
1565342018365252647,1650.0,1550.0,1650.0,1550.0,0.0,0.0
1565342018415635928,1650.0,1550.0,1650.0,1550.0,0.0,0.0
1565342018465704261,1650.0,1550.0,1650.0,1550.0,0.0,0.0
1565342018515587126,1650.0,1550.0,1650.0,1550.0,0.0,0.0
1565342018565284574,1650.0,1550.0,1650.0,1550.0,0.0,0.0
1565342018615579990,1650.0,1550.0,1650.0,1550.0,0.0,0.0
1565342018665772803,1650.0,1550.0,1650.0,1550.0,0.0,0.0
1565342018715315980,1650.0,1550.0,1650.0,1550.0,0.0,0.0
1565342018765248167,1650.0,1550.0,1650.0,1550.0,0.0,0.0
1565342018815551292,1650.0,1550.0,1650.0,1550.0,0.0,0.0
1565342018865642751,1650.0,1550.0,1650.0,1550.0,0.0,0.0
1565342018915299834,1650.0,1550.0,1650.0,1550.0,0.0,0.0
1565342018965359730,1650.0,1550.0,1650.0,1550.0,0.0,0.0
1565342019015301292,1650.0,1550.0,1650.0,1550.0,0.0,0.0
1565342019065985615,1650.0,1550.0,1650.0,1550.0,0.0,0.0
1565342019115446501,1650.0,1550.0,1650.0,1550.0,0.0,0.0
1565342019165603740,1650.0,1550.0,1650.0,1550.0,0.0,0.0
1565342019215543948,1650.0,1550.0,1650.0,1550.0,0.0,0.0
1565342019266572646,1650.0,1550.0,1650.0,1550.0,0.0,0.0
1565342019315731344,1650.0,1550.0,1650.0,1550.0,0.0,0.0
1565342019365610355,1650.0,1550.0,1650.0,1550.0,0.0,0.0
1565342019415577855,1650.0,1550.0,1650.0,1550.0,0.0,0.0
1565342019465630823,1650.0,1550.0,1650.0,1550.0,0.0,0.0
1565342019515294469,1650.0,1550.0,1650.0,1550.0,0.0,0.0
1565342019565247646,1650.0,1550.0,1650.0,1550.0,0.0,0.0
1565342019615225355,1650.0,1550.0,1650.0,1550.0,0.0,0.0
1565342019665588792,1650.0,1550.0,1650.0,1550.0,0.0,0.0
1565342019715317802,1650.0,1550.0,1650.0,1550.0,0.0,0.0
1565342019765235146,1650.0,1550.0,1650.0,1550.0,0.0,0.0
1565342019815896344,1650.0,1550.0,1650.0,1550.0,0.0,0.0
1565342019865903167,1650.0,1550.0,1650.0,1550.0,0.0,0.0
1565342019915345511,1650.0,1550.0,1650.0,1550.0,0.0,0.0
1565342019965265042,1550.0,1550.0,1550.0,1550.0,0.0,0.0
1565342020015325511,1550.0,1550.0,1550.0,1550.0,0.0,0.0
1565342020066538948,1550.0,1550.0,1550.0,1550.0,0.0,0.0
1565342020115638271,1550.0,1550.0,1550.0,1550.0,0.0,0.0
1565342020165292021,1550.0,1550.0,1550.0,1550.0,0.0,0.0
1565342020215586813,1550.0,1550.0,1550.0,1550.0,0.0,0.0
1565342020265853115,1550.0,1550.0,1550.0,1550.0,0.0,0.0
1565342020315618688,1550.0,1550.0,1550.0,1550.0,0.0,0.0
1565342020365281865,1550.0,1550.0,1550.0,1550.0,0.0,0.0
1565342020415249990,1550.0,1550.0,1550.0,1550.0,0.0,0.0
1565342020466150875,1550.0,1550.0,1550.0,1550.0,0.0,0.0
1565342020515174469,1550.0,1550.0,1550.0,1550.0,0.0,0.0
1565342020565069208,1550.0,1550.0,1550.0,1550.0,0.0,0.0
1565342020615563948,1550.0,1550.0,1550.0,1550.0,0.0,0.0
1565342020665505094,1550.0,1550.0,1550.0,1550.0,0.0,0.0
1565342020715056760,1550.0,1550.0,1550.0,1550.0,0.0,0.0
1565342020765093844,1550.0,1550.0,1550.0,1550.0,0.0,0.0
1565342020815062906,1550.0,1550.0,1550.0,1550.0,0.0,0.0
1565342020865679364,1550.0,1550.0,1550.0,1550.0,0.0,0.0
1565342020915133896,1550.0,1550.0,1550.0,1550.0,0.0,0.0
1565342020965140719,1650.0,1550.0,1650.0,1550.0,0.0,0.0
1565342021015111239,1650.0,1550.0,1650.0,1550.0,0.0,0.0
1565342021064993479,1650.0,1550.0,1650.0,1550.0,0.0,0.0
1565342021115171083,1650.0,1550.0,1650.0,1550.0,0.0,0.0
1565342021165100094,1550.0,1550.0,1550.0,1550.0,0.0,0.0
1565342021215097385,1550.0,1550.0,1550.0,1550.0,0.0,0.0
1565342021266692385,1550.0,1550.0,1550.0,1550.0,0.0,0.0
1565342021315088166,1550.0,1550.0,1550.0,1550.0,0.0,0.0
1565342021364624000,1550.0,1550.0,1550.0,1550.0,0.0,0.0
1565342021414982229,1550.0,1550.0,1550.0,1550.0,0.0,0.0
1565342021465781968,1550.0,1550.0,1550.0,1550.0,0.0,0.0
1565342021515631552,1650.0,1550.0,1650.0,1550.0,0.0,0.0
1565342021565378270,1650.0,1550.0,1650.0,1550.0,0.0,0.0
1565342021615595302,1650.0,1550.0,1650.0,1550.0,0.0,0.0
1565342021665665406,1550.0,1550.0,1550.0,1550.0,0.0,0.0
1565342021715079468,1550.0,1550.0,1550.0,1550.0,0.0,0.0
1565342021764932854,1550.0,1550.0,1550.0,1550.0,0.0,0.0
1565342021815637958,1550.0,1550.0,1550.0,1550.0,0.0,0.0
1565342021864991499,1550.0,1550.0,1550.0,1550.0,0.0,0.0
1565342021915145510,1550.0,1550.0,1550.0,1550.0,0.0,0.0
1565342021965305562,1550.0,1550.0,1550.0,1550.0,0.0,0.0
1565342022015101552,1550.0,1550.0,1550.0,1550.0,0.0,0.0
1565342022065050874,1550.0,1550.0,1550.0,1550.0,0.0,0.0
1565342022115156187,1550.0,1550.0,1550.0,1550.0,0.0,0.0
1565342022164883583,1550.0,1550.0,1550.0,1550.0,0.0,0.0
1565342022215119104,1550.0,1550.0,1550.0,1550.0,0.0,0.0
1565342022266447593,1550.0,1550.0,1550.0,1550.0,0.0,0.0
1565342022314815874,1550.0,1550.0,1550.0,1550.0,0.0,0.0
1565342022365341812,1582.72114396,1550.0,1582.72114396,1550.0,0.0,0.0
1565342022415038947,1582.72114396,1550.0,1582.72114396,1550.0,0.0,0.0
1565342022465797385,1582.72114396,1550.0,1582.72114396,1550.0,0.0,0.0
1565342022515344051,1604.42461967,1550.0,1604.42461967,1550.0,0.0,0.0
1565342022565311551,1604.42461967,1550.0,1604.42461967,1550.0,0.0,0.0
1565342022615078062,1604.42461967,1550.0,1604.42461967,1550.0,0.0,0.0
1565342022665887749,1604.42461967,1550.0,1604.42461967,1550.0,0.0,0.0
1565342022714984155,1604.42461967,1550.0,1604.42461967,1550.0,0.0,0.0
1565342022765025353,1550.0,1550.0,1550.0,1550.0,0.0,0.0
1565342022815156655,1550.0,1550.0,1550.0,1550.0,0.0,0.0
1565342022864997697,1550.0,1550.0,1550.0,1550.0,0.0,0.0
1565342022914907385,1550.0,1550.0,1550.0,1550.0,0.0,0.0
1565342022965212801,1550.0,1550.0,1550.0,1550.0,0.0,0.0
1565342023014721759,1550.0,1550.0,1550.0,1550.0,0.0,0.0
1565342023065040093,1550.0,1550.0,1550.0,1550.0,0.0,0.0
1565342023115453062,1564.27190006,1550.0,1564.27190006,1550.0,0.0,0.0
1565342023164757489,1564.27190006,1550.0,1564.27190006,1550.0,0.0,0.0
1565342023215961603,1564.27190006,1550.0,1564.27190006,1550.0,0.0,0.0
1565342023264919468,1563.18608373,1550.0,1563.18608373,1550.0,0.0,0.0
1565342023314727384,1563.18608373,1550.0,1563.18608373,1550.0,0.0,0.0
1565342023364781134,1563.18608373,1550.0,1563.18608373,1550.0,0.0,0.0
1565342023415495509,1563.18608373,1550.0,1563.18608373,1550.0,0.0,0.0
1565342023464995197,1563.18608373,1550.0,1563.18608373,1550.0,0.0,0.0
1565342023515733166,1565.35771638,1550.0,1565.35771638,1550.0,0.0,0.0
1565342023565145093,1565.35771638,1550.0,1565.35771638,1550.0,0.0,0.0
1565342023614900926,1567.52935052,1550.0,1567.52935052,1550.0,0.0,0.0
1565342023664974520,1567.52935052,1550.0,1567.52935052,1550.0,0.0,0.0
1565342023714881395,1567.52935052,1550.0,1567.52935052,1550.0,0.0,0.0
1565342023765193061,1578.38108838,1550.0,1578.38108838,1550.0,0.0,0.0
1565342023815015717,1578.38108838,1550.0,1578.38108838,1550.0,0.0,0.0
1565342023865710405,1578.38108838,1550.0,1578.38108838,1550.0,0.0,0.0
1565342023914908738,1578.38108838,1550.0,1578.38108838,1550.0,0.0,0.0
1565342023964764676,1578.38108838,1550.0,1578.38108838,1550.0,0.0,0.0
1565342024014695040,1578.38108838,1550.0,1578.38108838,1550.0,0.0,0.0
1565342024064817697,1578.38108838,1550.0,1578.38108838,1550.0,0.0,0.0
1565342024114948478,1578.38108838,1550.0,1578.38108838,1550.0,0.0,0.0
1565342024165192384,1578.38108838,1550.0,1578.38108838,1550.0,0.0,0.0
1565342024215005874,1578.38108838,1550.0,1578.38108838,1550.0,0.0,0.0
1565342024265321238,1578.38108838,1550.0,1578.38108838,1550.0,0.0,0.0
1565342024314984259,1578.38108838,1550.0,1578.38108838,1550.0,0.0,0.0
1565342024365151342,1578.38108838,1550.0,1578.38108838,1550.0,0.0,0.0
1565342024414952071,1578.38108838,1550.0,1578.38108838,1550.0,0.0,0.0
1565342024464984467,1578.38108838,1550.0,1578.38108838,1550.0,0.0,0.0
1565342024514946498,1578.38108838,1550.0,1578.38108838,1550.0,0.0,0.0
1565342024565361030,1578.38108838,1550.0,1578.38108838,1550.0,0.0,0.0
1565342024614966082,1578.38108838,1550.0,1578.38108838,1550.0,0.0,0.0
1565342024666059259,1579.46690619,1550.0,1579.46690619,1550.0,0.0,0.0
1565342024714542488,1579.46690619,1550.0,1579.46690619,1550.0,0.0,0.0
1565342024764220873,1579.46690619,1550.0,1579.46690619,1550.0,0.0,0.0
1565342024814093842,1579.46690619,1550.0,1579.46690619,1550.0,0.0,0.0
1565342024864095144,1578.38108838,1550.0,1578.38108838,1550.0,0.0,0.0
1565342024914082957,1578.38108838,1550.0,1578.38108838,1550.0,0.0,0.0
1565342024964101707,1578.38108838,1550.0,1578.38108838,1550.0,0.0,0.0
1565342025014110457,1578.38108838,1550.0,1578.38108838,1550.0,0.0,0.0
1565342025064053165,1578.38108838,1550.0,1578.38108838,1550.0,0.0,0.0
1565342025114090821,1578.38108838,1550.0,1578.38108838,1550.0,0.0,0.0
1565342025164421029,1579.46690619,1550.0,1579.46690619,1550.0,0.0,0.0
1565342025214173061,1579.46690619,1550.0,1579.46690619,1550.0,0.0,0.0
1565342025264704936,1579.46690619,1550.0,1579.46690619,1550.0,0.0,0.0
1565342025314109311,1583.80695879,1550.0,1583.80695879,1550.0,0.0,0.0
1565342025364589988,1583.80695879,1550.0,1583.80695879,1550.0,0.0,0.0
1565342025415310404,1583.80695879,1550.0,1583.80695879,1550.0,0.0,0.0
1565342025465735821,1583.80695879,1550.0,1583.80695879,1550.0,0.0,0.0
1565342025515062175,1583.80695879,1550.0,1583.80695879,1550.0,0.0,0.0
1565342025565317123,1583.80695879,1550.0,1583.80695879,1550.0,0.0,0.0
1565342025615285248,1583.80695879,1550.0,1583.80695879,1550.0,0.0,0.0
1565342025667080665,1583.80695879,1550.0,1583.80695879,1550.0,0.0,0.0
1565342025716604988,1583.80695879,1550.0,1583.80695879,1550.0,0.0,0.0
1565342025765189779,1583.80695879,1550.0,1583.80695879,1550.0,0.0,0.0
1565342025815366133,1583.80695879,1550.0,1583.80695879,1550.0,0.0,0.0
1565342025865707696,1583.80695879,1550.0,1583.80695879,1550.0,0.0,0.0
1565342025914954519,1583.80695879,1550.0,1583.80695879,1550.0,0.0,0.0
1565342025964911394,1583.80695879,1550.0,1583.80695879,1550.0,0.0,0.0
1565342026014862748,1583.80695879,1550.0,1583.80695879,1550.0,0.0,0.0
1565342026065089675,1583.80695879,1550.0,1583.80695879,1550.0,0.0,0.0
1565342026114856758,1583.80695879,1550.0,1583.80695879,1550.0,0.0,0.0
1565342026164963685,1583.80695879,1550.0,1583.80695879,1550.0,0.0,0.0
1565342026214625873,1583.80695879,1550.0,1583.80695879,1550.0,0.0,0.0
1565342026265698269,1583.80695879,1550.0,1583.80695879,1550.0,0.0,0.0
1565342026314946550,1583.80695879,1550.0,1583.80695879,1550.0,0.0,0.0
1565342026364938789,1583.80695879,1550.0,1583.80695879,1550.0,0.0,0.0
1565342026414938060,1583.80695879,1550.0,1583.80695879,1550.0,0.0,0.0
1565342026465209831,1587.06119657,1550.0,1587.06119657,1550.0,0.0,0.0
1565342026515230248,1587.06119657,1550.0,1587.06119657,1550.0,0.0,0.0
1565342026565042435,1587.06119657,1550.0,1587.06119657,1550.0,0.0,0.0
1565342026614857800,1592.48706698,1550.0,1592.48706698,1550.0,0.0,0.0
1565342026664768321,1592.48706698,1550.0,1592.48706698,1550.0,0.0,0.0
1565342026714669779,1595.74451447,1550.0,1595.74451447,1550.0,0.0,0.0
1565342026765267279,1595.74451447,1550.0,1595.74451447,1550.0,0.0,0.0
1565342026815118633,1595.74451447,1550.0,1595.74451447,1550.0,0.0,0.0
1565342026866078633,1595.74451447,1550.0,1595.74451447,1550.0,0.0,0.0
1565342026915414154,1596.83033228,1550.0,1596.83033228,1550.0,0.0,0.0
1565342026964699727,1596.83033228,1550.0,1596.83033228,1550.0,0.0,0.0
1565342027015126289,1596.83033228,1550.0,1596.83033228,1550.0,0.0,0.0
1565342027065015248,1596.83033228,1550.0,1596.83033228,1550.0,0.0,0.0
1565342027114696133,1596.83033228,1550.0,1596.83033228,1550.0,0.0,0.0
1565342027164696966,1597.91293442,1550.0,1597.91293442,1550.0,0.0,0.0
1565342027214717539,1597.91293442,1550.0,1597.91293442,1550.0,0.0,0.0
1565342027265367487,1597.91293442,1550.0,1597.91293442,1550.0,0.0,0.0
1565342027315055195,1597.91293442,1550.0,1597.91293442,1550.0,0.0,0.0
1565342027365166497,1597.91293442,1550.0,1597.91293442,1550.0,0.0,0.0
1565342027414998216,1597.91293442,1550.0,1597.91293442,1550.0,0.0,0.0
1565342027465389883,1597.91293442,1550.0,1597.91293442,1550.0,0.0,0.0
1565342027514975768,1597.91293442,1550.0,1597.91293442,1550.0,0.0,0.0
1565342027564937435,1597.91293442,1550.0,1597.91293442,1550.0,0.0,0.0
1565342027614936237,1598.99875224,1550.0,1598.99875224,1550.0,0.0,0.0
1565342027665434779,1598.99875224,1550.0,1598.99875224,1550.0,0.0,0.0
1565342027714952851,1598.99875224,1550.0,1598.99875224,1550.0,0.0,0.0
1565342027765075299,1598.99875224,1550.0,1598.99875224,1550.0,0.0,0.0
1565342027815028320,1598.99875224,1550.0,1598.99875224,1550.0,0.0,0.0
1565342027865255299,1598.99875224,1550.0,1598.99875224,1550.0,0.0,0.0
1565342027915022070,1598.99875224,1550.0,1598.99875224,1550.0,0.0,0.0
1565342027965151810,1601.17038488,1550.0,1601.17038488,1550.0,0.0,0.0
1565342028014991966,1601.17038488,1550.0,1601.17038488,1550.0,0.0,0.0
1565342028064884414,1604.42461967,1550.0,1604.42461967,1550.0,0.0,0.0
1565342028115591393,1604.42461967,1550.0,1604.42461967,1550.0,0.0,0.0
1565342028164711497,1604.42461967,1550.0,1604.42461967,1550.0,0.0,0.0
1565342028214991601,1604.42461967,1550.0,1604.42461967,1550.0,0.0,0.0
1565342028264708007,1604.42461967,1550.0,1604.42461967,1550.0,0.0,0.0
1565342028314989414,1604.42461967,1550.0,1604.42461967,1550.0,0.0,0.0
1565342028364664101,1604.42461967,1550.0,1604.42461967,1550.0,0.0,0.0
1565342028415424414,1604.42461967,1550.0,1604.42461967,1550.0,0.0,0.0
1565342028466048424,1550.0,1550.0,1550.0,1550.0,0.0,0.0
1565342028515180039,1550.0,1550.0,1550.0,1550.0,0.0,0.0
1565342028564842278,1550.0,1550.0,1550.0,1550.0,0.0,0.0
1565342028614862799,1550.0,1550.0,1550.0,1550.0,0.0,0.0
1565342028665832643,1550.0,1550.0,1550.0,1550.0,0.0,0.0
1565342028715250195,1550.0,1550.0,1550.0,1550.0,0.0,0.0
1565342028764888580,1550.0,1550.0,1550.0,1550.0,0.0,0.0
1565342028814836601,1550.0,1550.0,1550.0,1550.0,0.0,0.0
1565342028865600559,1550.0,1550.0,1550.0,1550.0,0.0,0.0
1565342028914962018,1550.0,1550.0,1550.0,1550.0,0.0,0.0
1565342028965311601,1550.0,1550.0,1550.0,1550.0,0.0,0.0
1565342029014901132,1550.0,1550.0,1550.0,1550.0,0.0,0.0
1565342029066170820,1550.0,1550.0,1550.0,1550.0,0.0,0.0
1565342029115338111,1550.0,1567.52613783,1550.0,1567.52613783,0.0,0.0
1565342029165341861,1550.0,1567.52613783,1550.0,1567.52613783,0.0,0.0
1565342029214875924,1550.0,1567.52613783,1550.0,1567.52613783,0.0,0.0
1565342029265641288,1550.0,1567.52613783,1550.0,1567.52613783,0.0,0.0
1565342029314878840,1550.0,1578.37787569,1550.0,1578.37787569,0.0,0.0
1565342029364952590,1550.0,1578.37787569,1550.0,1578.37787569,0.0,0.0
1565342029414889986,1550.0,1585.97216606,1550.0,1585.97216606,0.0,0.0
1565342029466152486,1550.0,1585.97216606,1550.0,1585.97216606,0.0,0.0
1565342029514888163,1550.0,1585.97216606,1550.0,1585.97216606,0.0,0.0
1565342029564906236,1550.0,1585.97216606,1550.0,1585.97216606,0.0,0.0
1565342029615281132,1550.0,1585.97216606,1550.0,1585.97216606,0.0,0.0
1565342029665991601,1550.0,1585.97216606,1550.0,1585.97216606,0.0,0.0
1565342029715121809,1550.0,1585.97216606,1550.0,1585.97216606,0.0,0.0
1565342029766101028,1550.0,1585.97216606,1550.0,1585.97216606,0.0,0.0
1565342029815092851,1550.0,1585.97216606,1550.0,1585.97216606,0.0,0.0
1565342029865666965,1550.0,1585.97216606,1550.0,1585.97216606,0.0,0.0
1565342029915081601,1550.0,1585.97216606,1550.0,1585.97216606,0.0,0.0
1565342029964962903,1550.0,1585.97216606,1550.0,1585.97216606,0.0,0.0
1565342030014911236,1550.0,1585.97216606,1550.0,1585.97216606,0.0,0.0
1565342030065314465,1550.0,1585.97216606,1550.0,1585.97216606,0.0,0.0
1565342030115304517,1550.0,1585.97216606,1550.0,1585.97216606,0.0,0.0
1565342030165172955,1550.0,1585.97216606,1550.0,1585.97216606,0.0,0.0
1565342030215187278,1550.0,1585.97216606,1550.0,1585.97216606,0.0,0.0
1565342030265584673,1550.0,1585.97216606,1550.0,1585.97216606,0.0,0.0
1565342030315336392,1550.0,1585.97216606,1550.0,1585.97216606,0.0,0.0
1565342030365225975,1550.0,1585.97216606,1550.0,1585.97216606,0.0,0.0
1565342030415281496,1550.0,1585.97216606,1550.0,1585.97216606,0.0,0.0
1565342030465782069,1550.0,1585.97216606,1550.0,1585.97216606,0.0,0.0
1565342030515309152,1550.0,1587.05798388,1550.0,1587.05798388,0.0,0.0
1565342030565294673,1550.0,1587.05798388,1550.0,1587.05798388,0.0,0.0
1565342030615218527,1550.0,1587.05798388,1550.0,1587.05798388,0.0,0.0
1565342030666185507,1550.0,1587.05798388,1550.0,1587.05798388,0.0,0.0
1565342030716276548,1550.0,1593.56966913,1550.0,1593.56966913,0.0,0.0
1565342030765671652,1550.0,1593.56966913,1550.0,1593.56966913,0.0,0.0
1565342030815219361,1550.0,1594.65548694,1550.0,1594.65548694,0.0,0.0
1565342030865268996,1550.0,1594.65548694,1550.0,1594.65548694,0.0,0.0
1565342030915892225,1550.0,1594.65548694,1550.0,1594.65548694,0.0,0.0
1565342030965189725,1550.0,1595.74130177,1550.0,1595.74130177,0.0,0.0
1565342031015273944,1550.0,1595.74130177,1550.0,1595.74130177,0.0,0.0
1565342031065201913,1550.0,1606.59304261,1550.0,1606.59304261,0.0,0.0
1565342031115248163,1550.0,1606.59304261,1550.0,1606.59304261,0.0,0.0
1565342031165317225,1550.0,1610.93309522,1550.0,1610.93309522,0.0,0.0
1565342031216274152,1550.0,1610.93309522,1550.0,1610.93309522,0.0,0.0
1565342031266508110,1550.0,1610.93309522,1550.0,1610.93309522,0.0,0.0
1565342031316789308,1550.0,1610.93309522,1550.0,1610.93309522,0.0,0.0
1565342031366450402,1550.0,1610.93309522,1550.0,1610.93309522,0.0,0.0
1565342031415825975,1550.0,1610.93309522,1550.0,1610.93309522,0.0,0.0
1565342031465328787,1550.0,1612.01891303,1550.0,1612.01891303,0.0,0.0
1565342031515334100,1550.0,1612.01891303,1550.0,1612.01891303,0.0,0.0
1565342031565328162,1550.0,1612.01891303,1550.0,1612.01891303,0.0,0.0
1565342031615253475,1550.0,1612.01891303,1550.0,1612.01891303,0.0,0.0
1565342031665414100,1550.0,1620.70223093,1550.0,1620.70223093,0.0,0.0
1565342031715269256,1550.0,1620.70223093,1550.0,1620.70223093,0.0,0.0
1565342031765385142,1550.0,1620.70223093,1550.0,1620.70223093,0.0,0.0
1565342031816186600,1550.0,1621.78483605,1550.0,1621.78483605,0.0,0.0
1565342031865392069,1550.0,1621.78483605,1550.0,1621.78483605,0.0,0.0
1565342031915467850,1550.0,1621.78483605,1550.0,1621.78483605,0.0,0.0
1565342031965299725,1550.0,1622.87065387,1550.0,1622.87065387,0.0,0.0
1565342032015430871,1550.0,1622.87065387,1550.0,1622.87065387,0.0,0.0
1565342032065788214,1550.0,1622.87065387,1550.0,1622.87065387,0.0,0.0
1565342032114851912,1550.0,1622.87065387,1550.0,1622.87065387,0.0,0.0
1565342032165299464,1550.0,1622.87065387,1550.0,1622.87065387,0.0,0.0
1565342032215654412,1550.0,1621.78483605,1550.0,1621.78483605,0.0,0.0
1565342032267022277,1550.0,1621.78483605,1550.0,1621.78483605,0.0,0.0
1565342032316794725,1550.0,1621.78483605,1550.0,1621.78483605,0.0,0.0
1565342032365387120,1550.0,1621.78483605,1550.0,1621.78483605,0.0,0.0
1565342032415260923,1550.0,1621.78483605,1550.0,1621.78483605,0.0,0.0
1565342032465691600,1550.0,1621.78483605,1550.0,1621.78483605,0.0,0.0
1565342032515261808,1550.0,1621.78483605,1550.0,1621.78483605,0.0,0.0
1565342032566559464,1550.0,1621.78483605,1550.0,1621.78483605,0.0,0.0
1565342032616107797,1550.0,1622.87065387,1550.0,1622.87065387,0.0,0.0
1565342032665677641,1550.0,1622.87065387,1550.0,1622.87065387,0.0,0.0
1565342032715219464,1550.0,1622.87065387,1550.0,1622.87065387,0.0,0.0
1565342032765544725,1550.0,1622.87065387,1550.0,1622.87065387,0.0,0.0
1565342032815515974,1550.0,1622.87065387,1550.0,1622.87065387,0.0,0.0
1565342032865522016,1550.0,1622.87065387,1550.0,1622.87065387,0.0,0.0
1565342032915294777,1550.0,1622.87065387,1550.0,1622.87065387,0.0,0.0
1565342032965465193,1550.0,1622.87065387,1550.0,1622.87065387,0.0,0.0
1565342033015584933,1550.0,1622.87065387,1550.0,1622.87065387,0.0,0.0
1565342033065608214,1550.0,1622.87065387,1550.0,1622.87065387,0.0,0.0
1565342033115334151,1550.0,1622.87065387,1550.0,1622.87065387,0.0,0.0
1565342033165524360,1550.0,1622.87065387,1550.0,1622.87065387,0.0,0.0
1565342033215386703,1550.0,1622.87065387,1550.0,1622.87065387,0.0,0.0
1565342033266640662,1550.0,1622.87065387,1550.0,1622.87065387,0.0,0.0
1565342033315340818,1550.0,1623.95646572,1550.0,1623.95646572,0.0,0.0
1565342033365290193,1550.0,1623.95646572,1550.0,1623.95646572,0.0,0.0
1565342033415270401,1550.0,1623.95646572,1550.0,1623.95646572,0.0,0.0
1565342033464884568,1550.0,1561.01445109,1550.0,1561.01445109,0.0,0.0
1565342033514948474,1550.0,1561.01445109,1550.0,1561.01445109,0.0,0.0
1565342033564913162,1550.0,1550.0,1550.0,1550.0,0.0,0.0
1565342033614858422,1550.0,1550.0,1550.0,1550.0,0.0,0.0
1565342033665501547,1550.0,1550.0,1550.0,1550.0,0.0,0.0
1565342033715306339,1550.0,1550.0,1550.0,1550.0,0.0,0.0
1565342033765268422,1550.0,1550.0,1550.0,1550.0,0.0,0.0
1565342033814822120,1550.0,1550.0,1550.0,1550.0,0.0,0.0
1565342033865215453,1550.0,1550.0,1550.0,1550.0,0.0,0.0
1565342033914905297,1550.0,1550.0,1550.0,1550.0,0.0,0.0
1565342033964942641,1550.0,1550.0,1550.0,1550.0,0.0,0.0
1565342034015027745,1550.0,1550.0,1550.0,1550.0,0.0,0.0
1565342034065158266,1550.0,1550.0,1550.0,1550.0,0.0,0.0
1565342034115072745,1550.0,1550.0,1550.0,1550.0,0.0,0.0
1565342034165372745,1550.0,1550.0,1550.0,1550.0,0.0,0.0
1565342034214909151,1550.0,1550.0,1550.0,1550.0,0.0,0.0
1565342034265105193,1550.0,1550.0,1550.0,1550.0,0.0,0.0
1565342034315218838,1550.0,1550.0,1550.0,1550.0,0.0,0.0
1565342034365066807,1550.0,1564.26868886,1550.0,1564.26868886,0.0,0.0
1565342034415347641,1550.0,1564.26868886,1550.0,1564.26868886,0.0,0.0
1565342034465006130,1550.0,1602.25299001,1550.0,1602.25299001,0.0,0.0
1565342034514953005,1550.0,1602.25299001,1550.0,1602.25299001,0.0,0.0
1565342034564847901,1550.0,1607.67886043,1550.0,1607.67886043,0.0,0.0
1565342034614935140,1550.0,1607.67886043,1550.0,1607.67886043,0.0,0.0
1565342034664974515,1550.0,1608.76467228,1550.0,1608.76467228,0.0,0.0
1565342034714841026,1550.0,1608.76467228,1550.0,1608.76467228,0.0,0.0
1565342034764895453,1550.0,1608.76467228,1550.0,1608.76467228,0.0,0.0
1565342034814871338,1550.0,1608.76467228,1550.16592431,1608.93059659,0.0,0.0
1565342034865550661,1550.0,1608.76467228,1550.16592431,1608.93059659,0.0,0.0
1565342034914877328,1550.0,1627.21070647,1553.42016108,1630.63086756,0.0,0.0
1565342034965164099,1550.0,1627.21070647,1553.42016108,1630.63086756,0.0,0.0
1565342035015347849,1550.0,1631.55397177,1554.50597778,1636.05994955,0.0,0.0
1565342035065254307,1550.0,1631.55397177,1554.50597778,1636.05994955,0.0,0.0
1565342035114899515,1550.0,1631.55397177,1554.50597778,1636.05994955,0.0,0.0
1565342035165362849,1550.0,1631.55397177,1555.5917941,1637.14576587,0.0,0.0
1565342035215281078,1550.0,1631.55397177,1555.5917941,1637.14576587,0.0,0.0
1565342035265346963,1550.0,1631.55397177,1555.5917941,1637.14576587,0.0,0.0
1565342035314895713,1550.0,1631.55397177,1555.5917941,1637.14576587,0.0,0.0
1565342035365443578,1550.0,1631.55397177,1555.5917941,1637.14576587,0.0,0.0
1565342035415587640,1550.0,1631.55397177,1555.5917941,1637.14576587,0.0,0.0
1565342035465347640,1550.0,1631.55397177,1555.5917941,1637.14576587,0.0,0.0
1565342035514898526,1550.0,1631.55397177,1555.5917941,1637.14576587,0.0,0.0
1565342035565335296,1550.0,1632.63657689,1555.5917941,1638.22837099,0.0,0.0
1565342035614903005,1550.0,1632.63657689,1555.5917941,1638.22837099,0.0,0.0
1565342035664963109,1550.0,1632.63657689,1555.5917941,1638.22837099,0.0,0.0
1565342035714888525,1550.0,1632.63657689,1555.5917941,1638.22837099,0.0,0.0
1565342035765250713,1550.0,1631.55397177,1555.5917941,1637.14576587,0.0,0.0
1565342035815607796,1550.0,1631.55397177,1555.5917941,1637.14576587,0.0,0.0
1565342035865798265,1550.0,1631.55397177,1555.5917941,1637.14576587,0.0,0.0
1565342035915738630,1550.0,1631.55397177,1556.67439774,1638.2283695,0.0,0.0
1565342035965271390,1550.0,1631.55397177,1556.67439774,1638.2283695,0.0,0.0
1565342036015301234,1550.0,1645.6599474,1557.76021481,1653.4201622,0.0,0.0
1565342036064929723,1550.0,1645.6599474,1557.76021481,1653.4201622,0.0,0.0
1565342036114929671,1550.0,1645.6599474,1557.76021481,1653.4201622,0.0,0.0
1565342036164868473,1550.0,1645.6599474,1557.76021481,1653.4201622,0.0,0.0
1565342036214865973,1550.0,1645.6599474,1557.76021481,1653.4201622,0.0,0.0
1565342036265126129,1550.0,1645.6599474,1557.76021481,1653.4201622,0.0,0.0
1565342036314917796,1550.0,1623.95646572,1556.67439774,1630.63086346,0.0,0.0
1565342036364869463,1550.0,1623.95646572,1556.67439774,1630.63086346,0.0,0.0
1565342036414858525,1550.0,1550.0,1550.0,1550.0,0.0,0.0
1565342036464791702,1550.0,1550.0,1550.0,1550.0,0.0,0.0
1565342036514907483,1550.0,1550.0,1550.0,1550.0,0.0,0.0
1565342036564928056,1550.0,1550.0,1550.0,1550.0,0.0,0.0
1565342036614896077,1550.0,1550.0,1550.0,1550.0,0.0,0.0
1565342036665043942,1550.0,1550.0,1550.0,1550.0,0.0,0.0
1565342036714896650,1550.0,1550.0,1550.0,1550.0,0.0,0.0
1565342036764831650,1550.0,1550.0,1550.0,1550.0,0.0,0.0
1565342036814887744,1550.0,1550.0,1550.0,1550.0,0.0,0.0
1565342036865115296,1550.0,1550.0,1550.0,1550.0,0.0,0.0
1565342036914964983,1550.0,1550.0,1550.0,1550.0,0.0,0.0
1565342036965046858,1550.0,1550.0,1550.0,1550.0,0.0,0.0
1565342037014862483,1550.0,1550.0,1550.0,1550.0,0.0,0.0
1565342037064936442,1550.0,1550.0,1550.0,1550.0,0.0,0.0
1565342037114903056,1550.0,1550.0,1550.0,1550.0,0.0,0.0
1565342037164916129,1550.0,1550.0,1550.0,1550.0,0.0,0.0
1565342037215266389,1550.0,1550.0,1550.0,1550.0,0.0,0.0
1565342037265363108,1550.0,1550.0,1550.0,1550.0,0.0,0.0
1565342037314891181,1550.0,1550.0,1550.0,1550.0,0.0,0.0
1565342037364936546,1550.0,1550.0,1550.0,1550.0,0.0,0.0
1565342037414875869,1550.0,1571.86619043,1550.0,1571.86619043,0.0,0.0
1565342037464917900,1550.0,1571.86619043,1550.0,1571.86619043,0.0,0.0
1565342037514839983,1550.0,1579.4636935,1550.0,1579.4636935,0.0,0.0
1565342037564851494,1550.0,1579.4636935,1550.0,1579.4636935,0.0,0.0
1565342037614897327,1550.0,1579.4636935,1550.0,1579.4636935,0.0,0.0
1565342037665376493,1550.0,1579.4636935,1550.0,1579.4636935,0.0,0.0
1565342037714848785,1550.0,1606.59304261,1550.0,1606.59304261,0.0,0.0
1565342037764869671,1550.0,1606.59304261,1550.0,1606.59304261,0.0,0.0
1565342037815105504,1550.0,1608.76467228,1550.16592431,1608.93059659,0.0,0.0
1565342037865128056,1550.0,1608.76467228,1550.16592431,1608.93059659,0.0,0.0
1565342037915225139,1550.0,1608.76467228,1550.16592431,1608.93059659,0.0,0.0
1565342037965469358,1550.0,1608.76467228,1550.16592431,1608.93059659,0.0,0.0
1565342038014974514,1550.0,1608.76467228,1550.16592431,1608.93059659,0.0,0.0
1565342038065323472,1550.0,1608.76467228,1550.16592431,1608.93059659,0.0,0.0
1565342038114947066,1550.0,1609.8472774,1550.16592431,1610.01320172,0.0,0.0
1565342038164854462,1550.0,1609.8472774,1550.16592431,1610.01320172,0.0,0.0
1565342038214918785,1550.0,1609.8472774,1550.16592431,1610.01320172,0.0,0.0
1565342038264860295,1550.0,1609.8472774,1550.16592431,1610.01320172,0.0,0.0
1565342038315168316,1550.0,1608.76467228,1550.16592431,1608.93059659,0.0,0.0
1565342038365339774,1550.0,1608.76467228,1550.16592431,1608.93059659,0.0,0.0
1565342038415108577,1550.0,1608.76467228,1550.16592431,1608.93059659,0.0,0.0
1565342038464967899,1550.0,1608.76467228,1551.24852825,1610.01320053,0.0,0.0
1565342038514838316,1550.0,1608.76467228,1551.24852825,1610.01320053,0.0,0.0
1565342038565084879,1550.0,1608.76467228,1551.24852825,1610.01320053,0.0,0.0
1565342038615146389,1550.0,1609.8472774,1551.24852825,1611.09580565,0.0,0.0
1565342038665296701,1550.0,1609.8472774,1551.24852825,1611.09580565,0.0,0.0
1565342038714933733,1550.0,1610.93309522,1554.50597778,1615.439073,0.0,0.0
1565342038765019358,1550.0,1610.93309522,1554.50597778,1615.439073,0.0,0.0
1565342038814826701,1550.0,1550.0,1550.0,1550.0,0.0,0.0
1565342038865778472,1550.0,1550.0,1550.0,1550.0,0.0,0.0
1565342038914927951,1550.0,1550.0,1550.0,1550.0,0.0,0.0
1565342038964954670,1550.0,1550.0,1550.0,1550.0,0.0,0.0
1565342039014870712,1550.0,1550.0,1550.0,1550.0,0.0,0.0
1565342039064966389,1550.0,1550.0,1550.0,1550.0,0.0,0.0
1565342039114890399,1550.0,1550.0,1550.0,1550.0,0.0,0.0
1565342039164966024,1550.0,1550.0,1550.0,1550.0,0.0,0.0
1565342039214942743,1550.0,1550.0,1550.0,1550.0,0.0,0.0
1565342039265638160,1550.0,1550.0,1550.0,1550.0,0.0,0.0
1565342039314923680,1550.0,1550.0,1550.0,1550.0,0.0,0.0
1565342039364932899,1550.0,1550.0,1550.0,1550.0,0.0,0.0
1565342039414864201,1550.0,1550.0,1550.0,1550.0,0.0,0.0
1565342039465184305,1550.0,1550.0,1550.0,1550.0,0.0,0.0
1565342039514957795,1550.0,1550.0,1550.0,1550.0,0.0,0.0
1565342039565291753,1550.0,1550.0,1550.0,1550.0,0.0,0.0
1565342039614818472,1550.0,1550.0,1550.0,1550.0,0.0,0.0
1565342039665960607,1550.0,1550.0,1550.0,1550.0,0.0,0.0
1565342039714784514,1550.0,1550.0,1550.0,1550.0,0.0,0.0
1565342039765180191,1550.0,1550.0,1550.0,1550.0,0.0,0.0
1565342039814829253,1550.0,1550.0,1550.0,1550.0,0.0,0.0
1565342039865032534,1550.0,1550.0,1550.0,1550.0,0.0,0.0
1565342039914880399,1550.0,1614.1905427,1551.24852825,1615.43907095,0.0,0.0
1565342039965183732,1550.0,1612.01891303,1551.24852825,1613.26744128,0.0,0.0
1565342040014945295,1550.0,1612.01891303,1551.24852825,1613.26744128,0.0,0.0
1565342040067231076,1550.0,1612.01891303,1551.24852825,1613.26744128,0.0,0.0
1565342040115822690,1550.0,1550.0,1550.0,1550.0,0.0,0.0
1565342040165616336,1550.0,1550.0,1550.0,1550.0,0.0,0.0
1565342040215512170,1550.0,1550.0,1550.0,1550.0,0.0,0.0
1565342040265604045,1550.0,1550.0,1550.0,1550.0,0.0,0.0
1565342040315320763,1550.0,1550.0,1550.0,1550.0,0.0,0.0
1565342040365205972,1550.0,1650.0,1553.42016108,1653.42016108,0.0,0.0
1565342040415655867,1550.0,1650.0,1553.42016108,1653.42016108,0.0,0.0
1565342040465530972,1550.0,1650.0,1553.42016108,1653.42016108,0.0,0.0
1565342040514948003,1550.0,1550.0,1550.0,1550.0,0.0,0.0
1565342040564842690,1550.0,1550.0,1550.0,1550.0,0.0,0.0
1565342040614858315,1550.0,1550.0,1550.0,1550.0,0.0,0.0
1565342040664891909,1550.0,1550.0,1550.0,1550.0,0.0,0.0
1565342040714902326,1550.0,1550.0,1550.0,1550.0,0.0,0.0
1565342040764847221,1550.0,1550.0,1550.0,1550.0,0.0,0.0
1565342040815182117,1550.0,1550.0,1550.0,1550.0,0.0,0.0
1565342040866021909,1550.0,1550.0,1550.0,1550.0,0.0,0.0
1565342040915278888,1550.0,1550.0,1550.0,1550.0,0.0,0.0
1565342040965277169,1550.0,1550.0,1550.0,1550.0,0.0,0.0
1565342041015961961,1550.0,1550.0,1550.0,1550.0,0.0,0.0
1565342041065318992,1550.0,1550.0,1550.0,1550.0,0.0,0.0
1565342041115253575,1550.0,1550.0,1550.0,1550.0,0.0,0.0
1565342041164851075,1550.0,1550.0,1550.0,1550.0,0.0,0.0
1565342041215153107,1550.0,1550.0,1550.0,1550.0,0.0,0.0
1565342041265831961,1578.38108838,1550.0,1578.38108838,1550.0,0.0,0.0
1565342041315354565,1578.38108838,1550.0,1578.38108838,1550.0,0.0,0.0
1565342041364894982,1582.72114396,1550.0,1582.72114396,1550.0,0.0,0.0
1565342041414852950,1582.72114396,1550.0,1582.72114396,1550.0,0.0,0.0
1565342041465195034,1582.72114396,1550.0,1582.72114396,1550.0,0.0,0.0
1565342041515284982,1583.80695879,1550.0,1583.80695879,1550.0,0.0,0.0
1565342041565242742,1583.80695879,1550.0,1583.80695879,1550.0,0.0,0.0
1565342041615179252,1583.80695879,1550.0,1583.80695879,1550.0,0.0,0.0
1565342041665392169,1583.80695879,1550.0,1583.80695879,1550.0,0.0,0.0
1565342041715398471,1583.80695879,1550.0,1583.80695879,1550.0,0.0,0.0
1565342041765394617,1583.80695879,1550.0,1583.80695879,1550.0,0.0,0.0
1565342041815187377,1550.0,1550.0,1550.0,1550.0,0.0,0.0
1565342041865089669,1550.0,1550.0,1550.0,1550.0,0.0,0.0
1565342041915161127,1550.0,1550.0,1550.0,1550.0,0.0,0.0
1565342041964930502,1550.0,1550.0,1550.0,1550.0,0.0,0.0
1565342042015090763,1550.0,1550.0,1550.0,1550.0,0.0,0.0
1565342042066937169,1550.0,1550.0,1550.0,1550.0,0.0,0.0
1565342042115223315,1550.0,1550.0,1550.0,1550.0,0.0,0.0
1565342042165031960,1550.0,1550.0,1550.0,1550.0,0.0,0.0
1565342042216598679,1550.0,1550.0,1550.0,1550.0,0.0,0.0
1565342042265927065,1550.0,1550.0,1550.0,1550.0,0.0,0.0
1565342042315096752,1550.0,1550.0,1550.0,1550.0,0.0,0.0
1565342042364982013,1550.0,1550.0,1550.0,1550.0,0.0,0.0
1565342042415023419,1550.0,1550.0,1550.0,1550.0,0.0,0.0
1565342042465118835,1550.0,1550.0,1550.0,1550.0,0.0,0.0
1565342042514691544,1550.0,1550.0,1550.0,1550.0,0.0,0.0
1565342042564705294,1550.0,1550.0,1550.0,1550.0,0.0,0.0
1565342042615236387,1550.0,1550.0,1550.0,1550.0,0.0,0.0
1565342042665231283,1550.0,1550.0,1550.0,1550.0,0.0,0.0
1565342042714659148,1550.0,1550.0,1550.0,1550.0,0.0,0.0
1565342042764967846,1550.0,1550.0,1550.0,1550.0,0.0,0.0
1565342042814654044,1550.0,1550.0,1550.0,1550.0,0.0,0.0
1565342042865207950,1550.0,1550.0,1550.0,1550.0,0.0,0.0
1565342042914708835,1550.0,1550.0,1550.0,1550.0,0.0,0.0
1565342042965084148,1550.0,1550.0,1550.0,1550.0,0.0,0.0
1565342043015087169,1550.0,1550.0,1550.0,1550.0,0.0,0.0
1565342043065047898,1550.0,1550.0,1550.0,1550.0,0.0,0.0
1565342043114851491,1575.12364089,1550.0,1575.12364089,1550.0,0.0,0.0
1565342043164853575,1575.12364089,1550.0,1575.12364089,1550.0,0.0,0.0
1565342043215043731,1579.46690619,1550.0,1579.46690619,1550.0,0.0,0.0
1565342043265421179,1579.46690619,1550.0,1579.46690619,1550.0,0.0,0.0
1565342043315339773,1580.54951131,1550.0,1580.54951131,1550.0,0.0,0.0
1565342043365338470,1580.54951131,1550.0,1580.54951131,1550.0,0.0,0.0
1565342043414801700,1580.54951131,1550.0,1580.54951131,1550.0,0.0,0.0
1565342043464875085,1580.54951131,1550.0,1580.54951131,1550.0,0.0,0.0
1565342043514815345,1580.54951131,1550.0,1580.54951131,1550.0,0.0,0.0
1565342043565529147,1580.54951131,1550.0,1580.54951131,1550.0,0.0,0.0
1565342043615287377,1580.54951131,1550.0,1580.54951131,1550.0,0.0,0.0
1565342043665358522,1580.54951131,1550.0,1580.54951131,1550.0,0.0,0.0
1565342043715087741,1580.54951131,1550.0,1580.54951131,1550.0,0.0,0.0
1565342043765119095,1580.54951131,1550.0,1580.54951131,1550.0,0.0,0.0
1565342043815391699,1580.54951131,1550.0,1580.54951131,1550.0,0.0,0.0
1565342043865195293,1580.54951131,1550.0,1580.54951131,1550.0,0.0,0.0
1565342043915876335,1580.54951131,1550.0,1580.54951131,1550.0,0.0,0.0
1565342043965117637,1596.83033228,1550.0,1596.83033228,1550.0,0.0,0.0
1565342044014980554,1596.83033228,1550.0,1596.83033228,1550.0,0.0,0.0
1565342044065893939,1598.99875224,1550.0,1598.99875224,1550.0,0.0,0.0
1565342044115197168,1598.99875224,1550.0,1598.99875224,1550.0,0.0,0.0
1565342044164918522,1598.99875224,1550.0,1598.99875224,1550.0,0.0,0.0
1565342044214718939,1598.99875224,1550.0,1598.99875224,1550.0,0.0,0.0
1565342044266477220,1598.99875224,1550.0,1598.99875224,1550.0,0.0,0.0
1565342044315222741,1598.99875224,1550.0,1598.99875224,1550.0,0.0,0.0
1565342044365272376,1598.99875224,1550.0,1598.99875224,1550.0,0.0,0.0
1565342044415183418,1602.2562027,1550.0,1602.2562027,1550.0,0.0,0.0
1565342044466988678,1602.2562027,1550.0,1602.2562027,1550.0,0.0,0.0
1565342044515249616,1614.19375539,1550.0,1614.19375539,1550.0,0.0,0.0
1565342044565547272,1614.19375539,1550.0,1614.19375539,1550.0,0.0,0.0
1565342044615227012,1614.19375539,1550.0,1614.19375539,1550.0,0.0,0.0
1565342044665635814,1620.70544362,1550.0,1620.70544362,1550.0,0.0,0.0
1565342044715298001,1620.70544362,1550.0,1620.70544362,1550.0,0.0,0.0
1565342044765320137,1620.70544362,1550.0,1620.70544362,1550.0,0.0,0.0
1565342044815602741,1620.70544362,1550.0,1620.70544362,1550.0,0.0,0.0
1565342044866407324,1620.70544362,1550.0,1620.70544362,1550.0,0.0,0.0
1565342044915269564,1621.78804874,1550.0,1621.78804874,1550.0,0.0,0.0
1565342044965287012,1621.78804874,1550.0,1621.78804874,1550.0,0.0,0.0
1565342045015301334,1621.78804874,1550.0,1621.78804874,1550.0,0.0,0.0
1565342045065743105,1621.78804874,1550.0,1621.78804874,1550.0,0.0,0.0
1565342045115565605,1621.78804874,1550.0,1621.78804874,1550.0,0.0,0.0
1565342045165400866,1621.78804874,1550.0,1621.78804874,1550.0,0.0,0.0
1565342045215761178,1550.0,1550.0,1550.0,1550.0,0.0,0.0
1565342045266308157,1550.0,1550.0,1550.0,1550.0,0.0,0.0
1565342045315300709,1550.0,1550.0,1550.0,1550.0,0.0,0.0
1565342045365594668,1550.0,1550.0,1550.0,1550.0,0.0,0.0
1565342045415221386,1550.0,1550.0,1550.0,1550.0,0.0,0.0
1565342045465609824,1550.0,1550.0,1550.0,1550.0,0.0,0.0
1565342045515269459,1550.0,1550.0,1550.0,1550.0,0.0,0.0
1565342045565251803,1550.0,1550.0,1550.0,1550.0,0.0,0.0
1565342045615587168,1550.0,1550.0,1550.0,1550.0,0.0,0.0
1565342045665756647,1550.0,1550.0,1550.0,1550.0,0.0,0.0
1565342045715348886,1550.0,1550.0,1550.0,1550.0,0.0,0.0
1565342045765288417,1550.0,1550.0,1550.0,1550.0,0.0,0.0
1565342045815561542,1550.0,1550.0,1550.0,1550.0,0.0,0.0
1565342045865798470,1550.0,1550.0,1550.0,1550.0,0.0,0.0
1565342045915470761,1550.0,1550.0,1550.0,1550.0,0.0,0.0
1565342045965211959,1550.0,1550.0,1550.0,1550.0,0.0,0.0
1565342046014892324,1550.0,1550.0,1550.0,1550.0,0.0,0.0
1565342046066445032,1550.0,1550.0,1550.0,1550.0,0.0,0.0
1565342046115397792,1550.0,1550.0,1550.0,1550.0,0.0,0.0
1565342046165595344,1550.0,1550.0,1550.0,1550.0,0.0,0.0
1565342046215340188,1550.0,1550.0,1550.0,1550.0,0.0,0.0
1565342046265356334,1550.0,1550.0,1550.0,1550.0,0.0,0.0
1565342046315374719,1617.44799614,1550.0,1617.44799614,1550.0,0.0,0.0
1565342046365303938,1617.44799614,1550.0,1617.44799614,1550.0,0.0,0.0
1565342046415371230,1622.87386656,1550.0,1622.87386656,1550.0,0.0,0.0
1565342046465449459,1622.87386656,1550.0,1622.87386656,1550.0,0.0,0.0
1565342046515365813,1622.87386656,1550.0,1622.87386656,1550.0,0.0,0.0
1565342046565339303,1619.61962581,1550.0,1619.61962581,1550.0,0.0,0.0
1565342046615317532,1619.61962581,1550.0,1619.61962581,1550.0,0.0,0.0
1565342046665536750,1619.61962581,1550.0,1619.61962581,1550.0,0.0,0.0
1565342046715339928,1619.61962581,1550.0,1619.61962581,1550.0,0.0,0.0
1565342046765339250,1618.53380799,1550.0,1618.53380799,1550.0,0.0,0.0
1565342046815538782,1618.53380799,1550.0,1618.53380799,1550.0,0.0,0.0
1565342046865681802,1618.53380799,1550.0,1618.53380799,1550.0,0.0,0.0
1565342046915390761,1618.53380799,1550.0,1618.53380799,1550.0,0.0,0.0
1565342046965312740,1618.53380799,1550.0,1618.53380799,1550.0,0.0,0.0
1565342047015441490,1618.53380799,1550.0,1618.53380799,1550.0,0.0,0.0
1565342047065659302,1618.53380799,1550.0,1618.53380799,1550.0,0.0,0.0
1565342047115349719,1618.53380799,1550.0,1618.53380799,1550.0,0.0,0.0
1565342047165675709,1618.53380799,1550.0,1618.53380799,1550.0,0.0,0.0
1565342047215220552,1550.0,1550.0,1550.0,1550.0,0.0,0.0
1565342047266108104,1550.0,1550.0,1550.0,1550.0,0.0,0.0
1565342047315688938,1550.0,1550.0,1550.0,1550.0,0.0,0.0
1565342047365274615,1550.0,1550.0,1550.0,1550.0,0.0,0.0
1565342047415618990,1550.0,1550.0,1550.0,1550.0,0.0,0.0
1565342047466217688,1550.0,1550.0,1550.0,1550.0,0.0,0.0
1565342047515418938,1550.0,1550.0,1550.0,1550.0,0.0,0.0
1565342047565373156,1550.0,1550.0,1550.0,1550.0,0.0,0.0
1565342047615274823,1550.0,1550.0,1550.0,1550.0,0.0,0.0
1565342047665717375,1550.0,1550.0,1550.0,1550.0,0.0,0.0
1565342047715466125,1550.0,1550.0,1550.0,1550.0,0.0,0.0
1565342047765351281,1550.0,1550.0,1550.0,1550.0,0.0,0.0
1565342047815542635,1550.0,1550.0,1550.0,1550.0,0.0,0.0
1565342047865560812,1550.0,1550.0,1550.0,1550.0,0.0,0.0
1565342047915493260,1550.0,1550.0,1550.0,1550.0,0.0,0.0
1565342047965058521,1550.0,1550.0,1550.0,1550.0,0.0,0.0
1565342048015444198,1550.0,1550.0,1550.0,1550.0,0.0,0.0
1565342048065963521,1550.0,1550.0,1550.0,1550.0,0.0,0.0
1565342048115628469,1550.0,1550.0,1550.0,1550.0,0.0,0.0
1565342048165566542,1550.0,1550.0,1550.0,1550.0,0.0,0.0
1565342048215764042,1550.0,1550.0,1550.0,1550.0,0.0,0.0
1565342048265692792,1550.0,1550.0,1550.0,1550.0,0.0,0.0
1565342048315545448,1550.0,1550.0,1550.0,1550.0,0.0,0.0
1565342048365287271,1550.0,1550.0,1550.0,1550.0,0.0,0.0
1565342048415236698,1550.0,1550.0,1550.0,1550.0,0.0,0.0
1565342048465421177,1550.0,1550.0,1550.0,1550.0,0.0,0.0
1565342048515322531,1550.0,1550.0,1550.0,1550.0,0.0,0.0
1565342048565586854,1550.0,1550.0,1550.0,1550.0,0.0,0.0
1565342048615680343,1550.0,1550.0,1550.0,1550.0,0.0,0.0
1565342048665750656,1550.0,1550.0,1550.0,1550.0,0.0,0.0
1565342048715323416,1550.0,1550.0,1550.0,1550.0,0.0,0.0
1565342048765526125,1550.0,1550.0,1550.0,1550.0,0.0,0.0
1565342048815217739,1550.0,1550.0,1550.0,1550.0,0.0,0.0
1565342048865425552,1550.0,1550.0,1550.0,1550.0,0.0,0.0
1565342048915292218,1550.0,1550.0,1550.0,1550.0,0.0,0.0
1565342048965496229,1550.0,1550.0,1550.0,1550.0,0.0,0.0
1565342049015576385,1550.0,1550.0,1550.0,1550.0,0.0,0.0
1565342049065913312,1550.0,1550.0,1550.0,1550.0,0.0,0.0
1565342049115237947,1550.0,1550.0,1550.0,1550.0,0.0,0.0
1565342049165567843,1550.0,1550.0,1550.0,1550.0,0.0,0.0
1565342049215590552,1550.0,1550.0,1550.0,1550.0,0.0,0.0
1565342049265269093,1550.0,1550.0,1550.0,1550.0,0.0,0.0
1565342049315224093,1595.74451447,1550.0,1595.74451447,1550.0,0.0,0.0
1565342049365302687,1595.74451447,1550.0,1595.74451447,1550.0,0.0,0.0
1565342049415229718,1595.74451447,1550.0,1595.74451447,1550.0,0.0,0.0
1565342049465714926,1618.53380799,1550.0,1618.53380799,1550.0,0.0,0.0
1565342049515211489,1618.53380799,1550.0,1618.53380799,1550.0,0.0,0.0
1565342049565599093,1622.87386656,1550.0,1622.87386656,1550.0,0.0,0.0
1565342049615541489,1622.87386656,1550.0,1622.87386656,1550.0,0.0,0.0
1565342049665856072,1622.87386656,1550.0,1622.87386656,1550.0,0.0,0.0
1565342049715578676,1622.87386656,1550.0,1622.87386656,1550.0,0.0,0.0
1565342049765282114,1622.87386656,1550.0,1622.87386656,1550.0,0.0,0.0
1565342049815639874,1622.87386656,1550.0,1622.87386656,1550.0,0.0,0.0
1565342049865406020,1622.87386656,1550.0,1622.87386656,1550.0,0.0,0.0
1565342049915288728,1622.87386656,1550.0,1622.87386656,1550.0,0.0,0.0
1565342049965305968,1622.87386656,1550.0,1622.87386656,1550.0,0.0,0.0
1565342050015205083,1622.87386656,1550.0,1622.87386656,1550.0,0.0,0.0
1565342050065553520,1621.78804874,1550.0,1621.78804874,1550.0,0.0,0.0
1565342050115308624,1621.78804874,1550.0,1621.78804874,1550.0,0.0,0.0
1565342050165258520,1621.78804874,1550.0,1621.78804874,1550.0,0.0,0.0
1565342050215296697,1631.55718446,1550.0,1631.55718446,1550.0,0.0,0.0
1565342050266237426,1631.55718446,1550.0,1631.55718446,1550.0,0.0,0.0
1565342050316067687,1650.0,1550.0,1650.0,1550.0,0.0,0.0
1565342050365309093,1650.0,1550.0,1650.0,1550.0,0.0,0.0
1565342050415245968,1650.0,1550.0,1650.0,1550.0,0.0,0.0
1565342050465843884,1650.0,1550.0,1650.0,1550.0,0.0,0.0
1565342050515164197,1650.0,1550.0,1650.0,1550.0,0.0,0.0
1565342050565233416,1650.0,1550.0,1650.0,1550.0,0.0,0.0
1565342050615343936,1650.0,1550.0,1650.0,1550.0,0.0,0.0
1565342050665357843,1650.0,1550.0,1650.0,1550.0,0.0,0.0
1565342050715613363,1650.0,1550.0,1650.0,1550.0,0.0,0.0
1565342050765365655,1650.0,1550.0,1650.0,1550.0,0.0,0.0
1565342050815258728,1650.0,1550.0,1650.0,1550.0,0.0,0.0
1565342050865729822,1650.0,1550.0,1650.0,1550.0,0.0,0.0
1565342050915373676,1650.0,1550.0,1650.0,1550.0,0.0,0.0
1565342050965333311,1650.0,1550.0,1650.0,1550.0,0.0,0.0
1565342051015572322,1650.0,1550.0,1650.0,1550.0,0.0,0.0
1565342051065835863,1650.0,1550.0,1650.0,1550.0,0.0,0.0
1565342051115599145,1650.0,1550.0,1650.0,1550.0,0.0,0.0
