%time,field.header.seq,field.header.stamp,field.header.frame_id,field.pose.position.x,field.pose.position.y,field.pose.position.z,field.pose.orientation.x,field.pose.orientation.y,field.pose.orientation.z,field.pose.orientation.w
1565338411105920741,1968,1565338411049684638,map,2.02341270447,-0.166357040405,0.0,0.0,0.0,0.150012158182,0.988684151991
1565338411171353919,1969,1565338411115807503,map,2.02296257019,-0.167006492615,0.0,0.0,0.0,0.151087618427,0.988520374883
1565338411237621523,1970,1565338411182505888,map,2.02425098419,-0.166541099548,0.0,0.0,0.0,0.152200440524,0.988349647597
1565338411304553762,1971,1565338411249190055,map,2.02620697021,-0.167486190796,0.0,0.0,0.0,0.153093486799,0.988211710262
1565338411378281106,1972,1565338411318095003,map,2.02593231201,-0.168140411377,0.0,0.0,0.0,0.154341232899,0.988017602995
1565338411444120116,1973,1565338411384383180,map,2.02631092072,-0.168659210205,0.0,0.0,0.0,0.155621071979,0.987816826115
1565338411511098502,1974,1565338411451028909,map,2.02816009521,-0.169122695923,0.0,0.0,0.0,0.1568556022,0.98762154698
1565338411577716054,1975,1565338411517948753,map,2.02892398834,-0.169898986816,0.0,0.0,0.0,0.157508224463,0.9875176754
1565338411645043554,1976,1565338411585395628,map,2.02920341492,-0.170070648193,0.0,0.0,0.0,0.158505287388,0.987358128477
1565338411711752720,1977,1565338411651991513,map,2.03002166748,-0.171060562134,0.0,0.0,0.0,0.159785607213,0.987151740984
1565338411778542929,1978,1565338411718530524,map,2.03119373322,-0.171088218689,0.0,0.0,0.0,0.160678259174,0.987006837377
1565338411844467356,1979,1565338411784522294,map,2.0314617157,-0.171831130981,0.0,0.0,0.0,0.161712861404,0.986837854187
1565338411911860012,1980,1565338411850970159,map,2.03200817108,-0.171885490417,0.0,0.0,0.0,0.162790231753,0.986660701784
1565338411977996210,1981,1565338411917927503,map,2.03320121765,-0.172862052917,0.0,0.0,0.0,0.163707296391,0.986508956426
1565338412044263033,1982,1565338411984488024,map,2.03312397003,-0.172910690308,0.0,0.0,0.0,0.164842052475,0.986319977358
1565338412113861366,1983,1565338412051321253,map,2.03433799744,-0.173499107361,0.0,0.0,0.0,0.166048475351,0.986117591281
1565338412178087512,1984,1565338412117921669,map,2.03531646729,-0.173270225525,0.0,0.0,0.0,0.16705293526,0.985947928048
1565338412244805897,1985,1565338412184647451,map,2.0355386734,-0.173935890198,0.0,0.0,0.0,0.167854683225,0.985811749433
1565338412311930481,1986,1565338412251214378,map,2.03692340851,-0.174722671509,0.0,0.0,0.0,0.168955265882,0.985623720357
1565338412377744335,1987,1565338412317820367,map,2.03726959229,-0.17483997345,0.0,0.0,0.0,0.169609590431,0.985511332677
1565338412443902928,1988,1565338412384330159,map,2.03769493103,-0.175191879272,0.0,0.0,0.0,0.170940272672,0.985281392892
1565338412510938345,1989,1565338412451082555,map,2.0379152298,-0.175371170044,0.0,0.0,0.0,0.171965588763,0.985102957199
1565338412578150741,1990,1565338412518345002,map,2.03926944733,-0.176007270813,0.0,0.0,0.0,0.172801227063,0.984956717793
1565338412644176158,1991,1565338412584469846,map,2.0389509201,-0.176527023315,0.0,0.0,0.0,0.174233518893,0.984704362179
1565338412712059022,1992,1565338412651495159,map,2.04113292694,-0.176580429077,0.0,0.0,0.0,0.174758502575,0.984611327265
1565338412777822928,1993,1565338412718379117,map,2.04143619537,-0.176918029785,0.0,0.0,0.0,0.17584703229,0.984417503519
1565338412844047043,1994,1565338412784525471,map,2.04119968414,-0.177097320557,0.0,0.0,0.0,0.177178842177,0.984178671728
1565338412910664699,1995,1565338412851049638,map,2.04292106628,-0.177569389343,0.0,0.0,0.0,0.177771131096,0.984071859647
1565338412977455949,1996,1565338412918078440,map,2.04341983795,-0.178094863892,0.0,0.0,0.0,0.178584809223,0.983924522469
1565338413046499647,1997,1565338412985793961,map,2.04352855682,-0.178122520447,0.0,0.0,0.0,0.179576459497,0.98374401914
1565338413112322616,1998,1565338413052277086,map,2.04426383972,-0.178533554077,0.0,0.0,0.0,0.180822617127,0.983515724905
1565338413180758449,1999,1565338413119041044,map,2.04504489899,-0.179033279419,0.0,0.0,0.0,0.181556149131,0.983380579792
1565338413245338189,2000,1565338413185101096,map,2.0451335907,-0.1789894104,0.0,0.0,0.0,0.182673801542,0.983173576857
1565338413312152407,2001,1565338413251542502,map,2.04541873932,-0.179119110107,0.0,0.0,0.0,0.183669848807,0.982987989061
1565338413379042511,2002,1565338413318851981,map,2.04672050476,-0.179903030396,0.0,0.0,0.0,0.184230106679,0.982883140456
1565338413444133241,2003,1565338413384429533,map,2.04796600342,-0.179763793945,0.0,0.0,0.0,0.184263602203,0.982876861516
1565338413510927876,2004,1565338413451164325,map,2.0490732193,-0.180141448975,0.0,0.0,0.0,0.184379157921,0.982855190821
1565338413578200688,2005,1565338413518674273,map,2.05003070831,-0.180233001709,0.0,0.0,0.0,0.183821464576,0.982959647779
1565338413644229334,2006,1565338413584482033,map,2.05007648468,-0.179929733276,0.0,0.0,0.0,0.183038408822,0.983105762823
1565338413711240168,2007,1565338413651576044,map,2.05190372467,-0.180941581726,0.0,0.0,0.0,0.181110326679,0.983462785046
1565338413778234803,2008,1565338413718517398,map,2.05323600769,-0.180808067322,0.0,0.0,0.0,0.178642194491,0.983914105167
1565338413844835324,2009,1565338413784734325,map,2.05477619171,-0.18071937561,0.0,0.0,0.0,0.175339653503,0.984508001953
1565338413911729751,2010,1565338413851038960,map,2.05584049225,-0.180752754211,0.0,0.0,0.0,0.171012712393,0.985268822302
1565338413979296834,2011,1565338413917679012,map,2.05702495575,-0.179986000061,0.0,0.0,0.0,0.165856403044,0.986149914348
1565338414045480688,2012,1565338413984589169,map,2.05721092224,-0.17998790741,0.0,0.0,0.0,0.160117728642,0.987097924714
1565338414111484230,2013,1565338414051284012,map,2.05884075165,-0.180160522461,0.0,0.0,0.0,0.152520624357,0.988300287942
1565338414178013240,2014,1565338414117763960,map,2.05974578857,-0.179689407349,0.0,0.0,0.0,0.143972740406,0.989581654044
1565338414244068605,2015,1565338414184315002,map,2.06128025055,-0.17934513092,0.0,0.0,0.0,0.133305081198,0.9910750503
1565338414312449855,2016,1565338414251528804,map,2.06247425079,-0.178929328918,0.0,0.0,0.0,0.121598252209,0.992579399877
1565338414377645792,2017,1565338414318048127,map,2.06381702423,-0.179456710815,0.0,0.0,0.0,0.107982290976,0.994152817647
1565338414444705271,2018,1565338414384905366,map,2.06507873535,-0.178588867188,0.0,0.0,0.0,0.0931571608279,0.995651416604
1565338414511933032,2019,1565338414451569481,map,2.06618213654,-0.178597450256,0.0,0.0,0.0,0.0768299326694,0.997044212383
1565338414578577928,2020,1565338414518667918,map,2.06763458252,-0.178702354431,0.0,0.0,0.0,0.0595021130729,0.998228179596
1565338414643967303,2021,1565338414584312345,map,2.06870555878,-0.178512573242,0.0,0.0,0.0,0.0410796223944,0.999155876039
1565338414711730219,2022,1565338414651614168,map,2.06958770752,-0.178060531616,0.0,0.0,0.0,0.0213964662213,0.999771069412
1565338414778674855,2023,1565338414718654793,map,2.07020568848,-0.179224014282,0.0,0.0,0.0,0.0010150622696,0.999999484824
1565338414845294698,2024,1565338414785049585,map,2.07069969177,-0.179574966431,0.0,0.0,0.0,-0.0206905459669,0.99978592774
1565338414911194073,2025,1565338414851181981,map,2.07130718231,-0.179792404175,0.0,0.0,0.0,-0.0418344543014,0.999124556016
1565338414977963657,2026,1565338414917724949,map,2.07179355621,-0.180418968201,0.0,0.0,0.0,-0.0618355451754,0.998086351651
1565338415045868813,2027,1565338414984716043,map,2.07317066193,-0.181542396545,0.0,0.0,0.0,-0.0808587002902,0.996725574362
1565338415111380480,2028,1565338415051372449,map,2.07413005829,-0.18274974823,0.0,0.0,0.0,-0.0982802207335,0.995158780403
1565338415178227927,2029,1565338415117872970,map,2.07532596588,-0.183355331421,0.0,0.0,0.0,-0.115732296188,0.993280441577
1565338415244401677,2030,1565338415184550887,map,2.07600498199,-0.18483543396,0.0,0.0,0.0,-0.131682354073,0.991291963866
1565338415311641052,2031,1565338415251571824,map,2.07652759552,-0.186294555664,0.0,0.0,0.0,-0.14697818862,0.989139733339
1565338415379493917,2032,1565338415317768335,map,2.07703971863,-0.186957359314,0.0,0.0,0.0,-0.161117601821,0.986935214887
1565338415444262927,2033,1565338415384613022,map,2.07833194733,-0.187269210815,0.0,0.0,0.0,-0.174773321126,0.984608697007
1565338415511081365,2034,1565338415451326251,map,2.08020305634,-0.188187599182,0.0,0.0,0.0,-0.187416899771,0.982280461823
1565338415578059750,2035,1565338415517793074,map,2.08067131042,-0.188807487488,0.0,0.0,0.0,-0.199110197681,0.979977106457
1565338415644102042,2036,1565338415584653126,map,2.0812921524,-0.189264297485,0.0,0.0,0.0,-0.211369018311,0.977406332135
1565338415711879802,2037,1565338415651807241,map,2.08257007599,-0.19019317627,0.0,0.0,0.0,-0.222434002102,0.974947749733
1565338415778734906,2038,1565338415718186772,map,2.08341217041,-0.191064834595,0.0,0.0,0.0,-0.233397612753,0.972381383183
1565338415846019854,2039,1565338415785378126,map,2.08480930328,-0.191283226013,0.0,0.0,0.0,-0.243311012706,0.969948323931
1565338415911567198,2040,1565338415852033387,map,2.08620262146,-0.19224357605,0.0,0.0,0.0,-0.253346212265,0.967375675077
1565338415978106000,2041,1565338415918553699,map,2.08728027344,-0.192728042603,0.0,0.0,0.0,-0.262254180249,0.964998831576
1565338416045692667,2042,1565338415984797189,map,2.0886592865,-0.193406105042,0.0,0.0,0.0,-0.270324160797,0.962769363913
1565338416110947875,2043,1565338416051286668,map,2.0883026123,-0.194925308228,0.0,0.0,0.0,-0.278802698021,0.960348403225
1565338416177697302,2044,1565338416117774637,map,2.08945465088,-0.195254325867,0.0,0.0,0.0,-0.28723854917,0.957859079338
1565338416244030010,2045,1565338416184547762,map,2.08977031708,-0.19607257843,0.0,0.0,0.0,-0.294089349516,0.955777931583
1565338416311636625,2046,1565338416251262084,map,2.08983612061,-0.196397781372,0.0,0.0,0.0,-0.301790764204,0.95337418396
1565338416380428344,2047,1565338416318662657,map,2.09117698669,-0.196362495422,0.0,0.0,0.0,-0.308680742156,0.951165705554
1565338416444515114,2048,1565338416384593439,map,2.0911026001,-0.197354316711,0.0,0.0,0.0,-0.314813764397,0.949153461642
1565338416512228187,2049,1565338416451542188,map,2.0922498703,-0.197400093079,0.0,0.0,0.0,-0.320879250596,0.947120111991
1565338416579686937,2050,1565338416517771043,map,2.09356689453,-0.197835922241,0.0,0.0,0.0,-0.327339172965,0.944906908559
1565338416644726937,2051,1565338416584604845,map,2.09550189972,-0.198763847351,0.0,0.0,0.0,-0.333000254956,0.94292673639
1565338416712464021,2052,1565338416651864532,map,2.09610557556,-0.199708938599,0.0,0.0,0.0,-0.338503091344,0.940965279461
1565338416779323708,2053,1565338416718287345,map,2.09780406952,-0.200704574585,0.0,0.0,0.0,-0.343881543016,0.939013037382
1565338416845108968,2054,1565338416784691251,map,2.09911155701,-0.201264381409,0.0,0.0,0.0,-0.348948014741,0.937142082615
1565338416913500739,2055,1565338416851255261,map,2.09957408905,-0.20175743103,0.0,0.0,0.0,-0.353697691965,0.93535979318
1565338416977811312,2056,1565338416917876303,map,2.1012802124,-0.202466011047,0.0,0.0,0.0,-0.359924844558,0.932981300064
1565338417046753187,2057,1565338416984505105,map,2.10249137878,-0.203135490417,0.0,0.0,0.0,-0.366406883358,0.930454725297
1565338417112271625,2058,1565338417051298751,map,2.10470867157,-0.203598976135,0.0,0.0,0.0,-0.373928620136,0.927457485302
1565338417177866104,2059,1565338417117730990,map,2.10633659363,-0.203620910645,0.0,0.0,0.0,-0.382372013953,0.924008464759
1565338417245423656,2060,1565338417185217292,map,2.10753440857,-0.203584671021,0.0,0.0,0.0,-0.391305632332,0.920260779402
1565338417312559437,2061,1565338417251788542,map,2.10956859589,-0.203680038452,0.0,0.0,0.0,-0.401440578265,0.915885070368
1565338417380262874,2062,1565338417318334792,map,2.11092376709,-0.204976081848,0.0,0.0,0.0,-0.412591714892,0.910916064631
1565338417444476677,2063,1565338417384459428,map,2.11291503906,-0.20556640625,0.0,0.0,0.0,-0.424841376495,0.905267808341
1565338417511756520,2064,1565338417451275938,map,2.1146364212,-0.206208229065,0.0,0.0,0.0,-0.438574248461,0.898694958585
1565338417578654906,2065,1565338417517902449,map,2.1168680191,-0.206670761108,0.0,0.0,0.0,-0.453194850518,0.891411480442
1565338417644512822,2066,1565338417584412032,map,2.11755657196,-0.207716941833,0.0,0.0,0.0,-0.468763887528,0.883323506848
1565338417711469385,2067,1565338417651606615,map,2.11874198914,-0.209121704102,0.0,0.0,0.0,-0.485694714166,0.874128505788
1565338417777344749,2068,1565338417717716719,map,2.12101745605,-0.209684371948,0.0,0.0,0.0,-0.50243182562,0.864616828777
1565338417844223135,2069,1565338417784428230,map,2.12251091003,-0.210690498352,0.0,0.0,0.0,-0.520611347599,0.853793783504
1565338417911078864,2070,1565338417851009948,map,2.1239862442,-0.211592674255,0.0,0.0,0.0,-0.53893202922,0.842349255286
1565338417977576624,2071,1565338417917870469,map,2.12497806549,-0.211714744568,0.0,0.0,0.0,-0.558144010089,0.82974409549
1565338418045422249,2072,1565338417984638855,map,2.12587738037,-0.212397575378,0.0,0.0,0.0,-0.577220952983,0.816588005935
1565338418111524645,2073,1565338418051143230,map,2.12656402588,-0.211862564087,0.0,0.0,0.0,-0.595415530055,0.803417915265
1565338418178584333,2074,1565338418117869636,map,2.1271905899,-0.211795806885,0.0,0.0,0.0,-0.611686490661,0.791100269967
1565338418245188864,2075,1565338418184829011,map,2.12864780426,-0.211977958679,0.0,0.0,0.0,-0.627560896033,0.778567480551
1565338418311094905,2076,1565338418251458854,map,2.12994670868,-0.212826728821,0.0,0.0,0.0,-0.642006340576,0.766699327416
1565338418378187041,2077,1565338418318374427,map,2.13118743896,-0.212278366089,0.0,0.0,0.0,-0.65639971743,0.754413289224
1565338418445013812,2078,1565338418384696354,map,2.13292503357,-0.213194847107,0.0,0.0,0.0,-0.669750029955,0.742586626176
1565338418511775895,2079,1565338418451406615,map,2.13393688202,-0.214144706726,0.0,0.0,0.0,-0.682126147833,0.731234516719
1565338418578366103,2080,1565338418517946042,map,2.1340303421,-0.213760375977,0.0,0.0,0.0,-0.692950211812,0.720985439485
1565338418646026259,2081,1565338418585629688,map,2.13409233093,-0.213623046875,0.0,0.0,0.0,-0.703093057331,0.711097850322
1565338418712639957,2082,1565338418652452396,map,2.13393974304,-0.213845252991,0.0,0.0,0.0,-0.712455197273,0.701717601232
1565338418779293707,2083,1565338418718631719,map,2.13393878937,-0.214609146118,0.0,0.0,0.0,-0.721326380441,0.692595302381
1565338418844422718,2084,1565338418784629792,map,2.1359910965,-0.215189933777,0.0,0.0,0.0,-0.730104720268,0.683335274549
1565338418911337509,2085,1565338418851632344,map,2.13733005524,-0.214344024658,0.0,0.0,0.0,-0.738576323584,0.674169870464
1565338418980372613,2086,1565338418918095573,map,2.13901329041,-0.215083122253,0.0,0.0,0.0,-0.746174010533,0.665750963953
1565338419045328082,2087,1565338418984549740,map,2.13941287994,-0.216138839722,0.0,0.0,0.0,-0.753621673424,0.657308430911
1565338419112365270,2088,1565338419051332604,map,2.13993358612,-0.215334892273,0.0,0.0,0.0,-0.760016595055,0.649903666123
1565338419177615165,2089,1565338419117865521,map,2.14022064209,-0.21540927887,0.0,0.0,0.0,-0.766059464494,0.642769707484
1565338419244714332,2090,1565338419184528646,map,2.14151477814,-0.215516090393,0.0,0.0,0.0,-0.772148859591,0.635441687829
1565338419311066676,2091,1565338419251231667,map,2.1426820755,-0.215944290161,0.0,0.0,0.0,-0.77778992352,0.628524331169
1565338419378007665,2092,1565338419317813646,map,2.14311981201,-0.216794013977,0.0,0.0,0.0,-0.783267646952,0.621684641307
1565338419444543186,2093,1565338419384739479,map,2.14374637604,-0.216920852661,0.0,0.0,0.0,-0.788748104059,0.614716543086
1565338419511888863,2094,1565338419451352292,map,2.14472770691,-0.217964172363,0.0,0.0,0.0,-0.794758928477,0.606925238894
1565338419578019488,2095,1565338419517751094,map,2.14584636688,-0.217916488647,0.0,0.0,0.0,-0.800552796975,0.599262229124
1565338419644534124,2096,1565338419584436198,map,2.14622306824,-0.218156814575,0.0,0.0,0.0,-0.806883456515,0.590710663186
1565338419711472769,2097,1565338419651822083,map,2.1465921402,-0.218416213989,0.0,0.0,0.0,-0.813991053917,0.580877408877
1565338419779297457,2098,1565338419717977448,map,2.14752197266,-0.218816757202,0.0,0.0,0.0,-0.821674638616,0.569956830168
1565338419845107561,2099,1565338419784492812,map,2.14818286896,-0.218949317932,0.0,0.0,0.0,-0.829453777924,0.558575357751
1565338419912976467,2100,1565338419851805833,map,2.14979553223,-0.219568252563,0.0,0.0,0.0,-0.837082190152,0.547077148974
1565338419979035946,2101,1565338419918032083,map,2.15022373199,-0.218831062317,0.0,0.0,0.0,-0.843859935089,0.536563519027
1565338420045954228,2102,1565338419985317864,map,2.15115356445,-0.218594551086,0.0,0.0,0.0,-0.850071746699,0.526666901811
1565338420112158082,2103,1565338420051916250,map,2.15169811249,-0.218606948853,0.0,0.0,0.0,-0.856011253656,0.51695718741
1565338420179952301,2104,1565338420118894583,map,2.15322399139,-0.218181610107,0.0,0.0,0.0,-0.861432802713,0.507871564876
1565338420245553863,2105,1565338420184757447,map,2.1541185379,-0.217673301697,0.0,0.0,0.0,-0.866842808017,0.498581534143
1565338420311305998,2106,1565338420251345052,map,2.15424442291,-0.217946052551,0.0,0.0,0.0,-0.871638105253,0.490149990789
1565338420378770842,2107,1565338420317853385,map,2.15577697754,-0.217657089233,0.0,0.0,0.0,-0.876245720178,0.481864543071
1565338420444996311,2108,1565338420384776302,map,2.15615081787,-0.217370986938,0.0,0.0,0.0,-0.880508561543,0.474030244868
1565338420511162300,2109,1565338420451616979,map,2.15767383575,-0.217077255249,0.0,0.0,0.0,-0.884282558742,0.466952199165
1565338420578516102,2110,1565338420517898177,map,2.15791893005,-0.217400550842,0.0,0.0,0.0,-0.888236354277,0.459386742233
1565338420644824957,2111,1565338420584570885,map,2.15915775299,-0.217109680176,0.0,0.0,0.0,-0.891659409151,0.452706856667
1565338420711924175,2112,1565338420651838697,map,2.16021442413,-0.215932846069,0.0,0.0,0.0,-0.895239379906,0.445585516669
1565338420777718550,2113,1565338420717743176,map,2.1612329483,-0.215789794922,0.0,0.0,0.0,-0.898446140311,0.439083742538
1565338420843981675,2114,1565338420784404635,map,2.16155815125,-0.215379714966,0.0,0.0,0.0,-0.901631359439,0.432505366067
1565338420910980373,2115,1565338420851215208,map,2.16214752197,-0.215382575989,0.0,0.0,0.0,-0.904774099177,0.425891804874
1565338420977834123,2116,1565338420917803541,map,2.1625289917,-0.214961051941,0.0,0.0,0.0,-0.908288296523,0.41834479846
1565338421044956311,2117,1565338420984512083,map,2.16199207306,-0.215220451355,0.0,0.0,0.0,-0.912170101653,0.409811792961
1565338421112564436,2118,1565338421051960885,map,2.16247081757,-0.215562820435,0.0,0.0,0.0,-0.916189149428,0.400746107244
1565338421179111467,2119,1565338421118498124,map,2.16315555573,-0.21527671814,0.0,0.0,0.0,-0.920371884835,0.391044234844
1565338421245475373,2120,1565338421185001978,map,2.16337108612,-0.214900970459,0.0,0.0,0.0,-0.924398741747,0.381427537359
1565338421312710529,2121,1565338421252184426,map,2.16505432129,-0.215106964111,0.0,0.0,0.0,-0.927879409732,0.372880411118
1565338421378931571,2122,1565338421318550572,map,2.16542816162,-0.214695930481,0.0,0.0,0.0,-0.931088230838,0.364794060253
1565338421445802300,2123,1565338421385775520,map,2.16677188873,-0.214817047119,0.0,0.0,0.0,-0.934510358966,0.355935933822
1565338421512974540,2124,1565338421452490260,map,2.16712188721,-0.214254379272,0.0,0.0,0.0,-0.937461850784,0.348088032435
1565338421578404540,2125,1565338421519013957,map,2.16819858551,-0.214014053345,0.0,0.0,0.0,-0.94017007713,0.340705482888
1565338421644596987,2126,1565338421584739426,map,2.16877555847,-0.214007377625,0.0,0.0,0.0,-0.94276265941,0.333464492896
1565338421712834227,2127,1565338421651998437,map,2.16989421844,-0.212874412537,0.0,0.0,0.0,-0.945240351026,0.326375058471
1565338421778647977,2128,1565338421718132134,map,2.17059135437,-0.213064193726,0.0,0.0,0.0,-0.947470262176,0.319843871744
1565338421845648342,2129,1565338421784571041,map,2.17113780975,-0.212862014771,0.0,0.0,0.0,-0.949423678781,0.313997895169
1565338421911188081,2130,1565338421851440624,map,2.17172336578,-0.212488174438,0.0,0.0,0.0,-0.951314868137,0.308220735288
1565338421980096727,2131,1565338421918895728,map,2.17289829254,-0.212211608887,0.0,0.0,0.0,-0.953164775182,0.30245150248
1565338422044050946,2132,1565338421984490988,map,2.17207622528,-0.212532043457,0.0,0.0,0.0,-0.955104205219,0.296270074719
1565338422111553914,2133,1565338422051106561,map,2.17221355438,-0.21298789978,0.0,0.0,0.0,-0.957574289809,0.28818653594
1565338422177745581,2134,1565338422118195728,map,2.17292308807,-0.213395118713,0.0,0.0,0.0,-0.960612151264,0.277892595877
1565338422243910998,2135,1565338422184295520,map,2.17263126373,-0.213508605957,0.0,0.0,0.0,-0.963724697821,0.266898307994
1565338422311454331,2136,1565338422251103280,map,2.17292022705,-0.213156700134,0.0,0.0,0.0,-0.966870329702,0.255268026868
1565338422378048289,2137,1565338422317990936,map,2.1753692627,-0.212735176086,0.0,0.0,0.0,-0.970000499371,0.2431029231
1565338422444673758,2138,1565338422384435936,map,2.176404953,-0.21222782135,0.0,0.0,0.0,-0.972766668941,0.23178655655
1565338422515485008,2139,1565338422451180572,map,2.17634868622,-0.211443901062,0.0,0.0,0.0,-0.975355813711,0.220637795176
1565338422579453029,2140,1565338422517856092,map,2.17723178864,-0.211397171021,0.0,0.0,0.0,-0.977725756545,0.209886505017
1565338422645357925,2141,1565338422584792394,map,2.17742919922,-0.211030960083,0.0,0.0,0.0,-0.979924131919,0.199370749316
1565338422713741050,2142,1565338422651836040,map,2.17767906189,-0.21023273468,0.0,0.0,0.0,-0.981933628542,0.189225656658
1565338422777892612,2143,1565338422717883749,map,2.1789598465,-0.210257530212,0.0,0.0,0.0,-0.983722540527,0.179694082429
1565338422844670477,2144,1565338422785036353,map,2.17858600616,-0.210537910461,0.0,0.0,0.0,-0.985422968338,0.170122230976
1565338422913390841,2145,1565338422852753384,map,2.17848777771,-0.210690498352,0.0,0.0,0.0,-0.986916147557,0.161234356423
1565338422978709174,2146,1565338422918847811,map,2.17917156219,-0.210499763489,0.0,0.0,0.0,-0.988296055579,0.152548046621
1565338423045155737,2147,1565338422984489113,map,2.18054771423,-0.210416793823,0.0,0.0,0.0,-0.989537653628,0.144274848995
1565338423111774070,2148,1565338423051398436,map,2.18036174774,-0.210173606873,0.0,0.0,0.0,-0.990741921978,0.135758771485
1565338423178166049,2149,1565338423117787030,map,2.18049430847,-0.210141181946,0.0,0.0,0.0,-0.991816579266,0.127670956339
1565338423244302820,2150,1565338423184497655,map,2.18121814728,-0.210397720337,0.0,0.0,0.0,-0.992762414962,0.120094910129
1565338423310640633,2151,1565338423251224686,map,2.18180370331,-0.210597038269,0.0,0.0,0.0,-0.993573714554,0.113186897417
1565338423377642612,2152,1565338423318146925,map,2.18176364899,-0.210869789124,0.0,0.0,0.0,-0.994388870303,0.105786457633
1565338423444055060,2153,1565338423384480415,map,2.18204593658,-0.211495399475,0.0,0.0,0.0,-0.995328470629,0.0965465460549
1565338423511619955,2154,1565338423450987811,map,2.18203449249,-0.212231636047,0.0,0.0,0.0,-0.996417785748,0.0845671108987
1565338423577187195,2155,1565338423517588540,map,2.18162250519,-0.212388038635,0.0,0.0,0.0,-0.997388894416,0.0722176799403
1565338423643927508,2156,1565338423584430988,map,2.18138694763,-0.212802886963,0.0,0.0,0.0,-0.998287473153,0.0584988969688
1565338423711787976,2157,1565338423652033957,map,2.18128299713,-0.213459014893,0.0,0.0,0.0,-0.999033388617,0.0439578028201
1565338423777448966,2158,1565338423717747290,map,2.18245029449,-0.213430404663,0.0,0.0,0.0,-0.999600242504,0.0282728701555
1565338423843961830,2159,1565338423784301092,map,2.1828289032,-0.213404655457,0.0,0.0,0.0,-0.999936230603,0.0112931274854
1565338423911294591,2160,1565338423851059373,map,2.18338871002,-0.213210105896,0.0,0.0,0.0,0.99997550646,0.00699903416174
1565338423978625684,2161,1565338423917711040,map,2.18359375,-0.213303565979,0.0,0.0,0.0,0.999640093045,0.0268269338058
1565338424044973497,2162,1565338423984703123,map,2.18487644196,-0.212905883789,0.0,0.0,0.0,0.998885379156,0.0472016875658
1565338424112191570,2163,1565338424051241977,map,2.18508625031,-0.212867736816,0.0,0.0,0.0,0.997650890523,0.0685032892615
1565338424177867716,2164,1565338424117924425,map,2.1854352951,-0.213018417358,0.0,0.0,0.0,0.995902575904,0.0904326230275
1565338424245908497,2165,1565338424185034165,map,2.18492603302,-0.212906837463,0.0,0.0,0.0,0.993577775286,0.113151245936
1565338424311555736,2166,1565338424251664425,map,2.18533325195,-0.212719917297,0.0,0.0,0.0,0.990693713146,0.136110127221
1565338424378360528,2167,1565338424318482863,map,2.18510913849,-0.212476730347,0.0,0.0,0.0,0.987120681217,0.159977375629
1565338424444426518,2168,1565338424384388800,map,2.18564891815,-0.212241172791,0.0,0.0,0.0,0.982823198128,0.184549617234
1565338424510679174,2169,1565338424451160883,map,2.18511009216,-0.211591720581,0.0,0.0,0.0,0.9777944602,0.209566203389
1565338424579124434,2170,1565338424518284060,map,2.18631839752,-0.212064743042,0.0,0.0,0.0,0.972068858453,0.234695833849
1565338424644582976,2171,1565338424584343019,map,2.18625640869,-0.211892127991,0.0,0.0,0.0,0.96549621871,0.260417072514
1565338424715159799,2172,1565338424651721352,map,2.18765258789,-0.210802078247,0.0,0.0,0.0,0.958455697792,0.285241433472
1565338424778240059,2173,1565338424718142394,map,2.18626976013,-0.209962844849,0.0,0.0,0.0,0.950441232425,0.310904267753
1565338424844624486,2174,1565338424784586352,map,2.18588829041,-0.208818435669,0.0,0.0,0.0,0.941792689966,0.336194183661
1565338424910668288,2175,1565338424851234842,map,2.18739414215,-0.209136009216,0.0,0.0,0.0,0.932574236578,0.360978244871
1565338424978514226,2176,1565338424917982029,map,2.18744373322,-0.208035469055,0.0,0.0,0.0,0.923359534675,0.383936413647
1565338425045580736,2177,1565338424984924946,map,2.18834781647,-0.207889556885,0.0,0.0,0.0,0.914359133131,0.404904156141
1565338425113180528,2178,1565338425052174216,map,2.18880558014,-0.208643913269,0.0,0.0,0.0,0.905273511735,0.424829223278
1565338425177762194,2179,1565338425117850675,map,2.18892192841,-0.208054542542,0.0,0.0,0.0,0.896564142597,0.44291391738
1565338425244280163,2180,1565338425184464789,map,2.18872642517,-0.208220481873,0.0,0.0,0.0,0.887932937149,0.459972933037
1565338425311448288,2181,1565338425251230883,map,2.18958854675,-0.208402633667,0.0,0.0,0.0,0.879428891249,0.476030277646
1565338425379339278,2182,1565338425318245362,map,2.19001865387,-0.208711624146,0.0,0.0,0.0,0.871161134739,0.490997227406
1565338425444702663,2183,1565338425384539164,map,2.19008350372,-0.208898544312,0.0,0.0,0.0,0.863174490928,0.504905732005
1565338425510851309,2184,1565338425451244633,map,2.19154167175,-0.208311080933,0.0,0.0,0.0,0.855741831462,0.517403051679
1565338425577648809,2185,1565338425518064008,map,2.19165039062,-0.209310531616,0.0,0.0,0.0,0.848489173684,0.529212738074
1565338425645132767,2186,1565338425585603487,map,2.19234466553,-0.209622383118,0.0,0.0,0.0,0.841815916849,0.539764728506
1565338425712979850,2187,1565338425652215779,map,2.1914806366,-0.209959030151,0.0,0.0,0.0,0.834823829172,0.550517187967
1565338425778145892,2188,1565338425718300570,map,2.19168186188,-0.20956993103,0.0,0.0,0.0,0.828588915038,0.559857490685
1565338425844409746,2189,1565338425784620622,map,2.19231414795,-0.209769248962,0.0,0.0,0.0,0.822510281668,0.568750240923
1565338425910914277,2190,1565338425851232445,map,2.19212818146,-0.210426330566,0.0,0.0,0.0,0.81675658107,0.57698239772
1565338425978062871,2191,1565338425917984320,map,2.19287395477,-0.209524154663,0.0,0.0,0.0,0.810979745022,0.585074228764
1565338426045761257,2192,1565338425984626664,map,2.19244194031,-0.210247993469,0.0,0.0,0.0,0.80573432915,0.592277123338
1565338426111262454,2193,1565338426051519581,map,2.1934595108,-0.210966110229,0.0,0.0,0.0,0.800785444672,0.598951309876
1565338426178017923,2194,1565338426118070883,map,2.19374370575,-0.210765838623,0.0,0.0,0.0,0.796280461488,0.604927621003
1565338426244761152,2195,1565338426184533174,map,2.19434070587,-0.211313247681,0.0,0.0,0.0,0.791730404367,0.610870662908
1565338426311218757,2196,1565338426251310570,map,2.1949968338,-0.210757255554,0.0,0.0,0.0,0.787323924581,0.616539567086
1565338426377730684,2197,1565338426317893747,map,2.19461154938,-0.211325645447,0.0,0.0,0.0,0.782828160956,0.622237953209
1565338426444470736,2198,1565338426384524268,map,2.19528675079,-0.211507797241,0.0,0.0,0.0,0.779007056363,0.627015156225
1565338426510896725,2199,1565338426451312862,map,2.19546985626,-0.211584091187,0.0,0.0,0.0,0.775398835196,0.631471809646
1565338426578076725,2200,1565338426518116195,map,2.19597911835,-0.211825370789,0.0,0.0,0.0,0.772117573678,0.635479702601
1565338426644388079,2201,1565338426584619372,map,2.19595336914,-0.211545944214,0.0,0.0,0.0,0.768706536956,0.639601641681
1565338426711859642,2202,1565338426651766716,map,2.1964597702,-0.211944580078,0.0,0.0,0.0,0.765214444283,0.643775468825
1565338426778038496,2203,1565338426717802132,map,2.19686603546,-0.211500167847,0.0,0.0,0.0,0.762448864006,0.6470484756
1565338426845065163,2204,1565338426784748747,map,2.19672870636,-0.212049484253,0.0,0.0,0.0,0.759324239203,0.650712455512
1565338426911819642,2205,1565338426851316872,map,2.19720458984,-0.212432861328,0.0,0.0,0.0,0.756635001366,0.653837498702
1565338426979295058,2206,1565338426918761039,map,2.19742393494,-0.212540626526,0.0,0.0,0.0,0.754272765531,0.656561189212
1565338427045377923,2207,1565338426985194164,map,2.19816875458,-0.212331771851,0.0,0.0,0.0,0.751640842079,0.659572622627
1565338427111793756,2208,1565338427051878330,map,2.19804382324,-0.212530136108,0.0,0.0,0.0,0.749441727626,0.66207031114
1565338427178810735,2209,1565338427118361612,map,2.19909667969,-0.212605476379,0.0,0.0,0.0,0.746991488363,0.664833600469
1565338427245007089,2210,1565338427184562549,map,2.19895935059,-0.212553024292,0.0,0.0,0.0,0.745008207048,0.667055298631
1565338427311303444,2211,1565338427251536247,map,2.19923686981,-0.21284198761,0.0,0.0,0.0,0.743064151777,0.66922019272
1565338427377714642,2212,1565338427318025674,map,2.19907951355,-0.21280670166,0.0,0.0,0.0,0.740902957801,0.671612095723
1565338427444334485,2213,1565338427384592549,map,2.20056152344,-0.212600708008,0.0,0.0,0.0,0.737479660888,0.675369343231
1565338427511161412,2214,1565338427451424372,map,2.20099639893,-0.212450027466,0.0,0.0,0.0,0.732538447132,0.680725659479
1565338427577938548,2215,1565338427518058643,map,2.20105457306,-0.211889266968,0.0,0.0,0.0,0.726555795714,0.68710747028
1565338427645428079,2216,1565338427584619528,map,2.20158958435,-0.212250709534,0.0,0.0,0.0,0.719489367355,0.694503455904
1565338427711607662,2217,1565338427651797445,map,2.20290088654,-0.212316513062,0.0,0.0,0.0,0.711454423323,0.702732241706
1565338427781930891,2218,1565338427718076247,map,2.20323753357,-0.210724830627,0.0,0.0,0.0,0.702394387517,0.711787977129
1565338427846000996,2219,1565338427785104788,map,2.20460319519,-0.211088180542,0.0,0.0,0.0,0.69162273101,0.722258954912
1565338427910946516,2220,1565338427851393538,map,2.20490074158,-0.210908889771,0.0,0.0,0.0,0.679808023374,0.733390108576
1565338427977851464,2221,1565338427917925934,map,2.20520114899,-0.21061706543,0.0,0.0,0.0,0.667116520342,0.744953386654
1565338428045421308,2222,1565338427984738174,map,2.20553302765,-0.211521148682,0.0,0.0,0.0,0.652925788235,0.757421887099
1565338428111301933,2223,1565338428051730049,map,2.20573234558,-0.21070098877,0.0,0.0,0.0,0.637960561448,0.770069037189
1565338428179382193,2224,1565338428117994997,map,2.20635795593,-0.210723876953,0.0,0.0,0.0,0.621989163859,0.783025848898
1565338428244607610,2225,1565338428184581872,map,2.20638370514,-0.211012840271,0.0,0.0,0.0,0.605038521206,0.796196199348
1565338428311275735,2226,1565338428251557601,map,2.20746135712,-0.211205482483,0.0,0.0,0.0,0.58719551015,0.809445138882
1565338428377950266,2227,1565338428318053017,map,2.20762634277,-0.212943077087,0.0,0.0,0.0,0.568281991887,0.822833870047
1565338428444819433,2228,1565338428385226611,map,2.20856761932,-0.212865829468,0.0,0.0,0.0,0.54812074157,0.836399218472
1565338428512711204,2229,1565338428451914788,map,2.20995807648,-0.214106559753,0.0,0.0,0.0,0.529038941584,0.848597547892
1565338428580662662,2230,1565338428518708121,map,2.21204376221,-0.214858055115,0.0,0.0,0.0,0.510841573063,0.859674872979
1565338428644958547,2231,1565338428584962705,map,2.21466636658,-0.216300010681,0.0,0.0,0.0,0.493764938569,0.869595414799
1565338428711666464,2232,1565338428652092444,map,2.21726799011,-0.216917037964,0.0,0.0,0.0,0.477072681006,0.878863844425
1565338428780610058,2233,1565338428719139267,map,2.2183637619,-0.216956138611,0.0,0.0,0.0,0.461086758539,0.887355059207
1565338428845909172,2234,1565338428785542965,map,2.21938419342,-0.218479156494,0.0,0.0,0.0,0.445547322651,0.895258389114
1565338428911404485,2235,1565338428851891767,map,2.21992588043,-0.219274520874,0.0,0.0,0.0,0.430900809442,0.902399297663
1565338428978411933,2236,1565338428918335882,map,2.21991443634,-0.219594955444,0.0,0.0,0.0,0.417155469832,0.90883514126
1565338429044820162,2237,1565338428985041975,map,2.22066020966,-0.220430374146,0.0,0.0,0.0,0.404600908314,0.914493359731
1565338429111251412,2238,1565338429051619684,map,2.22082614899,-0.220316886902,0.0,0.0,0.0,0.392913097395,0.919575607493
1565338429177722349,2239,1565338429118156767,map,2.22123813629,-0.221258163452,0.0,0.0,0.0,0.381433473293,0.924396292426
1565338429244328339,2240,1565338429184799007,map,2.22207641602,-0.222448348999,0.0,0.0,0.0,0.37087288883,0.928683638453
1565338429312073130,2241,1565338429251583017,map,2.22227954865,-0.223272323608,0.0,0.0,0.0,0.360511125479,0.932754913365
1565338429377929641,2242,1565338429318221038,map,2.22235107422,-0.223937988281,0.0,0.0,0.0,0.350715103766,0.936482202709
1565338429444524120,2243,1565338429384899788,map,2.22309875488,-0.224548339844,0.0,0.0,0.0,0.342073762845,0.939673103145
1565338429511494745,2244,1565338429451974631,map,2.22357177734,-0.225271224976,0.0,0.0,0.0,0.333973060601,0.942582619611
1565338429577760109,2245,1565338429518224996,map,2.22377872467,-0.226082801819,0.0,0.0,0.0,0.326121357625,0.945327911415
1565338429644377141,2246,1565338429584912808,map,2.22429180145,-0.227067947388,0.0,0.0,0.0,0.318642970861,0.947874810891
1565338429711529484,2247,1565338429652137548,map,2.22452068329,-0.228513717651,0.0,0.0,0.0,0.311395882558,0.950280276722
1565338429778142818,2248,1565338429718403538,map,2.22458171844,-0.228219985962,0.0,0.0,0.0,0.305187687739,0.952292221565
1565338429845140578,2249,1565338429785483329,map,2.22449016571,-0.228799819946,0.0,0.0,0.0,0.299046436841,0.954238559592
1565338429913175318,2250,1565338429852942704,map,2.22497272491,-0.229063987732,0.0,0.0,0.0,0.293217519167,0.956045755419
1565338429978520786,2251,1565338429918974371,map,2.22483539581,-0.22984790802,0.0,0.0,0.0,0.287757309742,0.957703362576
1565338430045920682,2252,1565338429985043954,map,2.22537326813,-0.229857444763,0.0,0.0,0.0,0.282612385264,0.959234194394
1565338430113252245,2253,1565338430051873746,map,2.22519493103,-0.230486869812,0.0,0.0,0.0,0.277316726241,0.960778555832
1565338430180120890,2254,1565338430118098694,map,2.22571372986,-0.230754852295,0.0,0.0,0.0,0.272554610838,0.962140314149
1565338430246210161,2255,1565338430185018017,map,2.22618865967,-0.231570243835,0.0,0.0,0.0,0.268197111234,0.963364058664
1565338430313349276,2256,1565338430251627287,map,2.22564220428,-0.231439590454,0.0,0.0,0.0,0.263995668407,0.964523865471
1565338430379353911,2257,1565338430318231142,map,2.22555351257,-0.231588363647,0.0,0.0,0.0,0.26003629897,0.965598841765
1565338430444836463,2258,1565338430384773954,map,2.22543811798,-0.231696128845,0.0,0.0,0.0,0.256722446359,0.966485170882
1565338430513071828,2259,1565338430452092079,map,2.2259759903,-0.232427597046,0.0,0.0,0.0,0.253355091907,0.967373349542
1565338430577754172,2260,1565338430518189006,map,2.22567844391,-0.232501983643,0.0,0.0,0.0,0.249782955271,0.968301851313
1565338430644328078,2261,1565338430584713485,map,2.22721672058,-0.232377052307,0.0,0.0,0.0,0.246634556771,0.96910855708
1565338430712659796,2262,1565338430652566141,map,2.22721099854,-0.233867645264,0.0,0.0,0.0,0.243367250307,0.969934215026
1565338430779068442,2263,1565338430718253954,map,2.22723197937,-0.233483314514,0.0,0.0,0.0,0.240720121337,0.970594571994
1565338430844472974,2264,1565338430784784839,map,2.22772502899,-0.233532905579,0.0,0.0,0.0,0.238061634122,0.971250049348
1565338430912720838,2265,1565338430852886089,map,2.22839164734,-0.234140396118,0.0,0.0,0.0,0.235136788682,0.971962288676
1565338430977910682,2266,1565338430918179058,map,2.22859954834,-0.233716011047,0.0,0.0,0.0,0.231903893781,0.972738702864
1565338431045666255,2267,1565338430984717495,map,2.22911548615,-0.234323501587,0.0,0.0,0.0,0.228533799736,0.973535978985
1565338431112113598,2268,1565338431051978902,map,2.22960758209,-0.23353767395,0.0,0.0,0.0,0.22572632174,0.97419075528
1565338431179647557,2269,1565338431118430047,map,2.2296295166,-0.234380722046,0.0,0.0,0.0,0.222689931631,0.974889324154
1565338431245415734,2270,1565338431185514839,map,2.22937583923,-0.234893798828,0.0,0.0,0.0,0.219801488782,0.975544619958
1565338431312800005,2271,1565338431252331714,map,2.23019886017,-0.235067367554,0.0,0.0,0.0,0.217493996291,0.976061658697
1565338431378798234,2272,1565338431318666297,map,2.23014354706,-0.235515594482,0.0,0.0,0.0,0.214492612969,0.976725610897
1565338431447115994,2273,1565338431385610620,map,2.23149967194,-0.23561668396,0.0,0.0,0.0,0.210000317599,0.977701317688
1565338431512939432,2274,1565338431451794891,map,2.23229789734,-0.235597610474,0.0,0.0,0.0,0.203866444959,0.978998709202
1565338431577690004,2275,1565338431518003068,map,2.23248004913,-0.235466003418,0.0,0.0,0.0,0.196831596245,0.980437311979
1565338431644961932,2276,1565338431584947391,map,2.23295593262,-0.236116409302,0.0,0.0,0.0,0.190970128446,0.981595848627
1565338431714194067,2277,1565338431653228224,map,2.23318958282,-0.236934661865,0.0,0.0,0.0,0.185055451883,0.982728080258
1565338431778595629,2278,1565338431718197391,map,2.23435211182,-0.236658096313,0.0,0.0,0.0,0.179087224901,0.983833200231
1565338431846179900,2279,1565338431784920203,map,2.23511219025,-0.236382484436,0.0,0.0,0.0,0.172754348533,0.984964941032
1565338431911531359,2280,1565338431851525724,map,2.2357711792,-0.236943244934,0.0,0.0,0.0,0.163967762267,0.9864656978
1565338431978470265,2281,1565338431918365620,map,2.2361497879,-0.23720741272,0.0,0.0,0.0,0.155504432643,0.987835194467
1565338432045015525,2282,1565338431984876297,map,2.23549175262,-0.237414360046,0.0,0.0,0.0,0.148160826112,0.988963280211
1565338432112532452,2283,1565338432051726818,map,2.23657512665,-0.238156318665,0.0,0.0,0.0,0.141092404978,0.989996430932
1565338432178068025,2284,1565338432118261922,map,2.23675823212,-0.23925113678,0.0,0.0,0.0,0.134477314461,0.990916672529
1565338432244939952,2285,1565338432185088224,map,2.2370891571,-0.239893913269,0.0,0.0,0.0,0.127656974202,0.991818379008
1565338432312087504,2286,1565338432251683953,map,2.23585033417,-0.239757537842,0.0,0.0,0.0,0.120830554943,0.992673147109
1565338432377970994,2287,1565338432318357078,map,2.2365322113,-0.240430831909,0.0,0.0,0.0,0.114140526717,0.993464614448
1565338432444628285,2288,1565338432385073641,map,2.23655796051,-0.240467071533,0.0,0.0,0.0,0.107965506663,0.994154640572
1565338432513301046,2289,1565338432452345828,map,2.23652744293,-0.241279602051,0.0,0.0,0.0,0.101594170795,0.994825926713
1565338432579203806,2290,1565338432518384839,map,2.23769950867,-0.241879463196,0.0,0.0,0.0,0.0953292478673,0.995445796867
1565338432646819796,2291,1565338432585813432,map,2.23831653595,-0.241529464722,0.0,0.0,0.0,0.0869667687042,0.996211213118
1565338432713041098,2292,1565338432652574474,map,2.23858165741,-0.242043495178,0.0,0.0,0.0,0.0770772121513,0.997025126748
1565338432778918910,2293,1565338432718886193,map,2.2384929657,-0.242672920227,0.0,0.0,0.0,0.066856367445,0.997762610109
1565338432844883702,2294,1565338432785015672,map,2.23841094971,-0.242742538452,0.0,0.0,0.0,0.0576287231547,0.998338084152
1565338432911589119,2295,1565338432851773536,map,2.23826694489,-0.243425369263,0.0,0.0,0.0,0.0493310584662,0.99878248216
1565338432978206098,2296,1565338432918415880,map,2.23914051056,-0.243208885193,0.0,0.0,0.0,0.0391812253135,0.999232120972
1565338433044901254,2297,1565338432984968641,map,2.2393693924,-0.243515968323,0.0,0.0,0.0,0.0279195959822,0.999610172097
1565338433111466618,2298,1565338433051829265,map,2.23842716217,-0.244058609009,0.0,0.0,0.0,0.0172491403637,0.999851222511
1565338433178225264,2299,1565338433118433536,map,2.239361763,-0.244959831238,0.0,0.0,0.0,0.00741432612626,0.999972513506
1565338433244585108,2300,1565338433184967547,map,2.23972415924,-0.244778633118,0.0,0.0,0.0,-0.002508311929,0.999996854181
1565338433311986618,2301,1565338433251652599,map,2.24022006989,-0.245851516724,0.0,0.0,0.0,-0.0117563001854,0.999930892315
1565338433378206306,2302,1565338433318214370,map,2.23997211456,-0.245924949646,0.0,0.0,0.0,-0.020979684924,0.999779902189
1565338433444878598,2303,1565338433385112963,map,2.24120903015,-0.245496749878,0.0,0.0,0.0,-0.0318846632367,0.999491554867
1565338433511613806,2304,1565338433451494265,map,2.24094963074,-0.245596885681,0.0,0.0,0.0,-0.0447906893762,0.99899639346
1565338433577641045,2305,1565338433518158849,map,2.24053955078,-0.246314048767,0.0,0.0,0.0,-0.056908277791,0.998379410805
1565338433644621827,2306,1565338433584996765,map,2.24060535431,-0.246292114258,0.0,0.0,0.0,-0.0681288495661,0.997676530674
1565338433711850004,2307,1565338433652374630,map,2.24053764343,-0.247136116028,0.0,0.0,0.0,-0.0789260781624,0.996880471363
1565338433777694847,2308,1565338433718260307,map,2.24095439911,-0.247716903687,0.0,0.0,0.0,-0.0893941960979,0.995996324142
1565338433845934170,2309,1565338433785042651,map,2.24096488953,-0.248748779297,0.0,0.0,0.0,-0.0998189991363,0.995005611749
1565338433911831410,2310,1565338433851972390,map,2.24080753326,-0.249172210693,0.0,0.0,0.0,-0.11009968056,0.993920550316
1565338433978094847,2311,1565338433918264994,map,2.24066638947,-0.249478340149,0.0,0.0,0.0,-0.120898279754,0.992664901139
1565338434045011514,2312,1565338433985414369,map,2.24124145508,-0.251079559326,0.0,0.0,0.0,-0.133177069596,0.991092260152
1565338434111743858,2313,1565338434052059369,map,2.24071025848,-0.251722335815,0.0,0.0,0.0,-0.144162974804,0.989553958456
1565338434179940160,2314,1565338434119027598,map,2.24074840546,-0.252752304077,0.0,0.0,0.0,-0.15453333059,0.9879875757
1565338434245009066,2315,1565338434185316713,map,2.23993778229,-0.254158973694,0.0,0.0,0.0,-0.164069937504,0.986448709061
1565338434312743024,2316,1565338434251833484,map,2.23941516876,-0.255435943604,0.0,0.0,0.0,-0.173754417057,0.984789014233
1565338434378585524,2317,1565338434318135515,map,2.23976135254,-0.256442070007,0.0,0.0,0.0,-0.184378044849,0.982855399628
1565338434446315993,2318,1565338434385025932,map,2.2382183075,-0.257217407227,0.0,0.0,0.0,-0.196121194027,0.9805796639
1565338434513233285,2319,1565338434451584838,map,2.23935413361,-0.25892162323,0.0,0.0,0.0,-0.207633382841,0.978206715541
1565338434578767503,2320,1565338434518208484,map,2.2386932373,-0.259517669678,0.0,0.0,0.0,-0.21770346048,0.97601496059
1565338434648229482,2321,1565338434584972025,map,2.23875427246,-0.260442733765,0.0,0.0,0.0,-0.227644088426,0.973744406405
1565338434713221045,2322,1565338434652216609,map,2.23818016052,-0.262176513672,0.0,0.0,0.0,-0.237653684105,0.971349950549
1565338434778296201,2323,1565338434718191140,map,2.23859214783,-0.263286590576,0.0,0.0,0.0,-0.247000744487,0.969015289984
1565338434845224170,2324,1565338434784875463,map,2.23764896393,-0.26408290863,0.0,0.0,0.0,-0.256608325092,0.96651547711
1565338434912644534,2325,1565338434851922911,map,2.23712444305,-0.264407157898,0.0,0.0,0.0,-0.266019628061,0.96396761226
1565338434978918232,2326,1565338434918398171,map,2.23596000671,-0.264723777771,0.0,0.0,0.0,-0.274685423239,0.961534148255
1565338435045337816,2327,1565338434985009734,map,2.23496818542,-0.265169143677,0.0,0.0,0.0,-0.282789993976,0.959181848925
1565338435112081826,2328,1565338435051607963,map,2.23352146149,-0.266592025757,0.0,0.0,0.0,-0.290772914718,0.956792094484
1565338435178258232,2329,1565338435118368431,map,2.23244571686,-0.267605781555,0.0,0.0,0.0,-0.300903246132,0.953654673594
1565338435244911409,2330,1565338435184781244,map,2.2319688797,-0.26750087738,0.0,0.0,0.0,-0.311483929839,0.950251420126
1565338435311555524,2331,1565338435251559108,map,2.23135662079,-0.267728805542,0.0,0.0,0.0,-0.321304646194,0.946975883713
1565338435377963441,2332,1565338435318193379,map,2.23078918457,-0.268074989319,0.0,0.0,0.0,-0.330689997447,0.943739437339
1565338435445868232,2333,1565338435385479525,map,2.23077869415,-0.26833152771,0.0,0.0,0.0,-0.339641611317,0.940554929742
1565338435512029690,2334,1565338435452145619,map,2.23004627228,-0.26962184906,0.0,0.0,0.0,-0.349926903515,0.936777007722
1565338435578500628,2335,1565338435518880983,map,2.23038291931,-0.270608901978,0.0,0.0,0.0,-0.360588069843,0.932725170609
1565338435644934065,2336,1565338435585182285,map,2.22933769226,-0.270708084106,0.0,0.0,0.0,-0.370834140807,0.928699111668
1565338435712211774,2337,1565338435652071921,map,2.22881412506,-0.271879196167,0.0,0.0,0.0,-0.380236060301,0.924889473638
1565338435777911461,2338,1565338435718334369,map,2.22904205322,-0.272877693176,0.0,0.0,0.0,-0.389393533077,0.921071482784
1565338435845478649,2339,1565338435785107285,map,2.22878360748,-0.272855758667,0.0,0.0,0.0,-0.398045766179,0.917365558557
1565338435912192451,2340,1565338435851886400,map,2.22826957703,-0.273103713989,0.0,0.0,0.0,-0.406410708081,0.913690503594
1565338435977691513,2341,1565338435918234316,map,2.22826480865,-0.274574279785,0.0,0.0,0.0,-0.414599835525,0.910003833169
1565338436046310940,2342,1565338435984885566,map,2.22807025909,-0.275023460388,0.0,0.0,0.0,-0.424014776307,0.90565527077
1565338436111422190,2343,1565338436051489004,map,2.22816944122,-0.27533531189,0.0,0.0,0.0,-0.433896282056,0.900962827434
1565338436178343492,2344,1565338436118266921,map,2.22775363922,-0.27659034729,0.0,0.0,0.0,-0.443533987926,0.896257553137
1565338436247463753,2345,1565338436184900410,map,2.2281370163,-0.277791976929,0.0,0.0,0.0,-0.452314972226,0.89185826559
1565338436311645003,2346,1565338436251595514,map,2.22783184052,-0.277034759521,0.0,0.0,0.0,-0.460863810604,0.887470871677
1565338436378332919,2347,1565338436318199733,map,2.22696208954,-0.277910232544,0.0,0.0,0.0,-0.469431147397,0.882969080916
1565338436444608596,2348,1565338436385013848,map,2.22593688965,-0.277829170227,0.0,0.0,0.0,-0.477198110514,0.878795746076
1565338436512897763,2349,1565338436451850150,map,2.2258234024,-0.278409957886,0.0,0.0,0.0,-0.484667967825,0.874698211364
1565338436579050263,2350,1565338436518216295,map,2.22577381134,-0.278498649597,0.0,0.0,0.0,-0.491926603486,0.870636673236
1565338436645397190,2351,1565338436585065514,map,2.22532749176,-0.278657913208,0.0,0.0,0.0,-0.498709237899,0.866769344194
1565338436711606148,2352,1565338436652053535,map,2.2240190506,-0.278665542603,0.0,0.0,0.0,-0.505246889986,0.862974843295
1565338436778050263,2353,1565338436718219160,map,2.22552585602,-0.279418945312,0.0,0.0,0.0,-0.511982814389,0.858995691357
1565338436845237086,2354,1565338436785459264,map,2.22543334961,-0.279356002808,0.0,0.0,0.0,-0.517864466806,0.855462678333
1565338436912107607,2355,1565338436852322285,map,2.22512626648,-0.28061580658,0.0,0.0,0.0,-0.524207891274,0.85159032799
1565338436979276513,2356,1565338436918799681,map,2.22519779205,-0.280923843384,0.0,0.0,0.0,-0.529826350885,0.848106147783
1565338437045610784,2357,1565338436984906660,map,2.22459125519,-0.2811460495,0.0,0.0,0.0,-0.535212419206,0.84471750682
1565338437112288179,2358,1565338437051673222,map,2.22489261627,-0.280669212341,0.0,0.0,0.0,-0.540350541274,0.841440011258
1565338437180037034,2359,1565338437119014264,map,2.22502613068,-0.281401634216,0.0,0.0,0.0,-0.545148032606,0.838339801361
1565338437245395940,2360,1565338437184855618,map,2.22478294373,-0.281411170959,0.0,0.0,0.0,-0.549862420913,0.83525524127
1565338437312581356,2361,1565338437251841139,map,2.22494029999,-0.281896591187,0.0,0.0,0.0,-0.555015391726,0.831840077748
1565338437378606721,2362,1565338437318323535,map,2.22472953796,-0.282270431519,0.0,0.0,0.0,-0.561371855356,0.827563677317
1565338437446707450,2363,1565338437384902233,map,2.22486686707,-0.282668113708,0.0,0.0,0.0,-0.568820871403,0.82246143755
1565338437513010575,2364,1565338437451468691,map,2.22453784943,-0.282669067383,0.0,0.0,0.0,-0.576049690741,0.817414676769
1565338437578574481,2365,1565338437518173743,map,2.22384738922,-0.28314781189,0.0,0.0,0.0,-0.58259677523,0.812761341041
1565338437645246565,2366,1565338437585178639,map,2.22392272949,-0.282896995544,0.0,0.0,0.0,-0.588037868485,0.808833397695
1565338437711664846,2367,1565338437652034576,map,2.22399234772,-0.28351020813,0.0,0.0,0.0,-0.59398677865,0.804474801836
1565338437778998596,2368,1565338437718321191,map,2.22401237488,-0.284282684326,0.0,0.0,0.0,-0.600034422392,0.799974182049
1565338437844856721,2369,1565338437784943639,map,2.22368431091,-0.284164428711,0.0,0.0,0.0,-0.60591786197,0.795527211694
1565338437912413752,2370,1565338437851533691,map,2.22368907928,-0.283819198608,0.0,0.0,0.0,-0.611423153034,0.79130381519
1565338437979642971,2371,1565338437918130566,map,2.22341632843,-0.284154891968,0.0,0.0,0.0,-0.6173068654,0.78672246309
1565338438045770419,2372,1565338437985164732,map,2.22371006012,-0.284589767456,0.0,0.0,0.0,-0.62396220131,0.781454522884
1565338438112102606,2373,1565338438051781712,map,2.22333621979,-0.284455299377,0.0,0.0,0.0,-0.630474875893,0.776209656515
1565338438179599117,2374,1565338438118292961,map,2.22347545624,-0.284830093384,0.0,0.0,0.0,-0.636553361628,0.771232661263
1565338438246239950,2375,1565338438185651399,map,2.22375965118,-0.284286499023,0.0,0.0,0.0,-0.642304979476,0.766449159006
1565338438312716825,2376,1565338438252280461,map,2.22385978699,-0.284464836121,0.0,0.0,0.0,-0.647967990804,0.76166756718
1565338438380656356,2377,1565338438319130357,map,2.22380924225,-0.285884857178,0.0,0.0,0.0,-0.653429561812,0.756987323375
1565338438444606773,2378,1565338438384978482,map,2.22384166718,-0.285895347595,0.0,0.0,0.0,-0.659062127246,0.752088500398
1565338438511081981,2379,1565338438451550566,map,2.22347831726,-0.285457611084,0.0,0.0,0.0,-0.663919812306,0.747803772943
1565338438582841148,2380,1565338438518301868,map,2.22287559509,-0.285668373108,0.0,0.0,0.0,-0.6684354753,0.743770136104
1565338438645576668,2381,1565338438585024940,map,2.22111225128,-0.28719329834,0.0,0.0,0.0,-0.672467789666,0.740126389113
1565338438711916877,2382,1565338438652146347,map,2.220703125,-0.28689289093,0.0,0.0,0.0,-0.676610164782,0.736341418714
1565338438778047658,2383,1565338438718448586,map,2.21992301941,-0.287369728088,0.0,0.0,0.0,-0.680636221566,0.732621548886
1565338438844769325,2384,1565338438785121451,map,2.22036838531,-0.287240982056,0.0,0.0,0.0,-0.684642870241,0.728878686908
1565338438911319533,2385,1565338438851537284,map,2.22023773193,-0.287097930908,0.0,0.0,0.0,-0.688707766507,0.725039041951
1565338438977909481,2386,1565338438918410513,map,2.22012901306,-0.287805557251,0.0,0.0,0.0,-0.692463071494,0.721453321163
1565338439045096564,2387,1565338438984864315,map,2.22051048279,-0.288666725159,0.0,0.0,0.0,-0.695769829672,0.718264814757
1565338439111428439,2388,1565338439051797544,map,2.22072315216,-0.288056373596,0.0,0.0,0.0,-0.698630113761,0.715483028553
1565338439177721408,2389,1565338439118236919,map,2.22196769714,-0.287424087524,0.0,0.0,0.0,-0.699487480558,0.714644852037
1565338439244497918,2390,1565338439185015096,map,2.22116661072,-0.288189888,0.0,0.0,0.0,-0.699013487235,0.715108484541
1565338439311306616,2391,1565338439251634992,map,2.22079753876,-0.288694381714,0.0,0.0,0.0,-0.698957903706,0.715162812825
1565338439377717502,2392,1565338439318246555,map,2.22042369843,-0.288568496704,0.0,0.0,0.0,-0.698796585265,0.715320440378
1565338439444912189,2393,1565338439384847909,map,2.22014713287,-0.288783073425,0.0,0.0,0.0,-0.699001211482,0.715120483798
1565338439511917554,2394,1565338439451497701,map,2.21992492676,-0.289223670959,0.0,0.0,0.0,-0.698820120191,0.71529744835
1565338439578665731,2395,1565338439518462180,map,2.21958732605,-0.289449691772,0.0,0.0,0.0,-0.698291425408,0.715813582717
1565338439646295574,2396,1565338439585932336,map,2.21947002411,-0.288781166077,0.0,0.0,0.0,-0.697617850083,0.716470051883
1565338439713094741,2397,1565338439652567492,map,2.2192697525,-0.289014816284,0.0,0.0,0.0,-0.697117177976,0.716957209442
1565338439779957918,2398,1565338439718891971,map,2.22090625763,-0.289393424988,0.0,0.0,0.0,-0.696629165515,0.717431394458
1565338439844952970,2399,1565338439785276503,map,2.22127342224,-0.289561271667,0.0,0.0,0.0,-0.694803192563,0.71919991908
1565338439911230001,2400,1565338439851726555,map,2.22132110596,-0.290143966675,0.0,0.0,0.0,-0.692228932324,0.721677978917
1565338439977814689,2401,1565338439918264523,map,2.2219877243,-0.28950214386,0.0,0.0,0.0,-0.689835897936,0.723965768472
1565338440045316824,2402,1565338439984905513,map,2.22237682343,-0.290533065796,0.0,0.0,0.0,-0.687538839518,0.726147604936
1565338440112054064,2403,1565338440051585461,map,2.22290325165,-0.290788650513,0.0,0.0,0.0,-0.684881952226,0.728654041034
1565338440178306876,2404,1565338440118392284,map,2.22308635712,-0.291109085083,0.0,0.0,0.0,-0.680801093362,0.732468341485
1565338440245556720,2405,1565338440185019367,map,2.22270298004,-0.291372299194,0.0,0.0,0.0,-0.67656802988,0.736380133453
1565338440312802241,2406,1565338440251903221,map,2.22272777557,-0.292057037354,0.0,0.0,0.0,-0.672653757148,0.739957379175
1565338440378421043,2407,1565338440318508846,map,2.22305107117,-0.291659355164,0.0,0.0,0.0,-0.669300209195,0.742992079346
1565338440445003751,2408,1565338440384817700,map,2.22302341461,-0.291376113892,0.0,0.0,0.0,-0.666053908348,0.74590360716
1565338440511198751,2409,1565338440451520461,map,2.22353458405,-0.291522026062,0.0,0.0,0.0,-0.662476923961,0.749082322058
1565338440577853543,2410,1565338440518398117,map,2.22403430939,-0.291599273682,0.0,0.0,0.0,-0.65872136708,0.752386975268
1565338440644777397,2411,1565338440584864523,map,2.22404766083,-0.291399002075,0.0,0.0,0.0,-0.655270503303,0.755394312596
1565338440712338178,2412,1565338440652087127,map,2.22439861298,-0.292188644409,0.0,0.0,0.0,-0.651254257186,0.75885959999
1565338440779316459,2413,1565338440718327544,map,2.22492790222,-0.292078971863,0.0,0.0,0.0,-0.645852634474,0.763462097646
1565338440844562761,2414,1565338440785055773,map,2.22458648682,-0.29282283783,0.0,0.0,0.0,-0.638751581029,0.769413034549
1565338440911154324,2415,1565338440851646554,map,2.22469615936,-0.292847633362,0.0,0.0,0.0,-0.632539604547,0.774528016717
1565338440977737397,2416,1565338440918149679,map,2.22456073761,-0.293802261353,0.0,0.0,0.0,-0.626506900318,0.779415873494
1565338441047338230,2417,1565338440986445252,map,2.2244720459,-0.294014930725,0.0,0.0,0.0,-0.621003379586,0.783807886247
1565338441111600209,2418,1565338441052073481,map,2.22372531891,-0.293294906616,0.0,0.0,0.0,-0.614444429459,0.788960102354
1565338441178355157,2419,1565338441118815200,map,2.22459697723,-0.293798446655,0.0,0.0,0.0,-0.608965729101,0.793196533515
1565338441246703334,2420,1565338441185332075,map,2.22457408905,-0.293516159058,0.0,0.0,0.0,-0.603354583781,0.797473037933
1565338441312600938,2421,1565338441252160356,map,2.22461700439,-0.292989730835,0.0,0.0,0.0,-0.597434303136,0.801917859532
1565338441377981876,2422,1565338441318493481,map,2.22430896759,-0.293263435364,0.0,0.0,0.0,-0.589779398064,0.807564400911
1565338441444690261,2423,1565338441385135148,map,2.22449588776,-0.293568611145,0.0,0.0,0.0,-0.580869293464,0.813996845148
1565338441512334376,2424,1565338441451678794,map,2.22429656982,-0.293394088745,0.0,0.0,0.0,-0.572177878794,0.820129547705
1565338441578046876,2425,1565338441518355044,map,2.22490024567,-0.294111251831,0.0,0.0,0.0,-0.564734236087,0.825272829185
1565338441644835521,2426,1565338441585065200,map,2.2251329422,-0.294617652893,0.0,0.0,0.0,-0.557080235132,0.830458675447
1565338441711861303,2427,1565338441652043012,map,2.2249584198,-0.294622421265,0.0,0.0,0.0,-0.54884998619,0.83592086507
1565338441778288751,2428,1565338441718507179,map,2.22582817078,-0.29469203949,0.0,0.0,0.0,-0.538797063393,0.842435590701
1565338441846015417,2429,1565338441785106085,map,2.22484302521,-0.294511795044,0.0,0.0,0.0,-0.528698392051,0.848809760926
1565338441911469376,2430,1565338441851697283,map,2.22515869141,-0.294922828674,0.0,0.0,0.0,-0.519322014752,0.854578635934
1565338441978062657,2431,1565338441918442595,map,2.22517204285,-0.295389175415,0.0,0.0,0.0,-0.510278893005,0.860008983298
1565338442045053542,2432,1565338441985042908,map,2.22469139099,-0.295425415039,0.0,0.0,0.0,-0.501735731884,0.865020956596
1565338442111712292,2433,1565338442051535981,map,2.22457885742,-0.295850753784,0.0,0.0,0.0,-0.492538000866,0.870290938539
1565338442178351042,2434,1565338442118425147,map,2.22511386871,-0.294707298279,0.0,0.0,0.0,-0.484728027442,0.874664929794
1565338442244977761,2435,1565338442184943585,map,2.22511100769,-0.296355247498,0.0,0.0,0.0,-0.475355162548,0.879793992614
1565338442312150782,2436,1565338442251771241,map,2.22420310974,-0.297067642212,0.0,0.0,0.0,-0.465044333641,0.885287392742
1565338442377906355,2437,1565338442318242335,map,2.22547245026,-0.296018600464,0.0,0.0,0.0,-0.455792787277,0.89008591443
1565338442446050469,2438,1565338442385360564,map,2.22511768341,-0.298040390015,0.0,0.0,0.0,-0.446435199696,0.894815965701
1565338442512055104,2439,1565338442452165512,map,2.22573375702,-0.297695159912,0.0,0.0,0.0,-0.438220890642,0.898867315573
1565338442579096094,2440,1565338442519245512,map,2.22550487518,-0.298851013184,0.0,0.0,0.0,-0.429104729807,0.903254743058
1565338442644975365,2441,1565338442584891241,map,2.22585868835,-0.29896736145,0.0,0.0,0.0,-0.420494168244,0.907295241073
1565338442712067136,2442,1565338442652081710,map,2.22538280487,-0.298446655273,0.0,0.0,0.0,-0.411691522585,0.9113232633
1565338442778986250,2443,1565338442718697231,map,2.22668457031,-0.298757553101,0.0,0.0,0.0,-0.403748717476,0.91486992143
1565338442844780156,2444,1565338442784819210,map,2.22665119171,-0.297598838806,0.0,0.0,0.0,-0.396237079695,0.918148232408
1565338442911494323,2445,1565338442851629939,map,2.22668266296,-0.29749584198,0.0,0.0,0.0,-0.387804144539,0.921741799789
1565338442978336198,2446,1565338442918323272,map,2.22581577301,-0.29833316803,0.0,0.0,0.0,-0.378666358721,0.925533245633
1565338443044959115,2447,1565338442985093272,map,2.22562503815,-0.298408508301,0.0,0.0,0.0,-0.370505088723,0.92883043621
1565338443111795833,2448,1565338443051552335,map,2.22605895996,-0.297971725464,0.0,0.0,0.0,-0.362737736815,0.931891267418
1565338443179511302,2449,1565338443118230772,map,2.226313591,-0.298191070557,0.0,0.0,0.0,-0.353808524037,0.935317875548
1565338443245270208,2450,1565338443185085460,map,2.22580718994,-0.299230575562,0.0,0.0,0.0,-0.34263535877,0.939468472553
1565338443312232083,2451,1565338443251817751,map,2.22562980652,-0.299238204956,0.0,0.0,0.0,-0.330276856569,0.943884102003
1565338443379519427,2452,1565338443318390616,map,2.22727775574,-0.299333572388,0.0,0.0,0.0,-0.31967925947,0.947525815514
1565338443445711979,2453,1565338443385243637,map,2.22721385956,-0.300004959106,0.0,0.0,0.0,-0.30965072734,0.950850370488
1565338443512385990,2454,1565338443451777751,map,2.22874259949,-0.300110816956,0.0,0.0,0.0,-0.300010236344,0.953935982175
1565338443579413854,2455,1565338443518290043,map,2.22934532166,-0.300112724304,0.0,0.0,0.0,-0.290002241233,0.957025966252
1565338443645192656,2456,1565338443584914261,map,2.23011112213,-0.300224304199,0.0,0.0,0.0,-0.280140497849,0.959959010305
1565338443712819583,2457,1565338443652078116,map,2.23082256317,-0.299155235291,0.0,0.0,0.0,-0.270421255732,0.962742096539
1565338443779420156,2458,1565338443718364053,map,2.23167133331,-0.3002576828,0.0,0.0,0.0,-0.260993613476,0.96534052734
1565338443845302396,2459,1565338443785581970,map,2.23191833496,-0.299604415894,0.0,0.0,0.0,-0.252227668231,0.967667919991
