%time,field.linear.x,field.linear.y,field.linear.z,field.angular.x,field.angular.y,field.angular.z
1565338411114327460,1550.0,1550.0,1550.0,1550.0,0.0,0.0
1565338411164218606,1550.0,1550.0,1550.0,1550.0,0.0,0.0
1565338411214241210,1550.0,1550.0,1550.0,1550.0,0.0,0.0
1565338411264290012,1550.0,1550.0,1550.0,1550.0,0.0,0.0
1565338411314352825,1550.0,1550.0,1550.0,1550.0,0.0,0.0
1565338411364985168,1550.0,1550.0,1550.0,1550.0,0.0,0.0
1565338411414940012,1550.0,1550.0,1550.0,1550.0,0.0,0.0
1565338411465034543,1550.0,1550.0,1550.0,1550.0,0.0,0.0
1565338411515411679,1550.0,1550.0,1550.0,1550.0,0.0,0.0
1565338411565493710,1550.0,1550.0,1550.0,1550.0,0.0,0.0
1565338411615127043,1550.0,1550.0,1550.0,1550.0,0.0,0.0
1565338411665643189,1550.0,1550.0,1550.0,1550.0,0.0,0.0
1565338411715513554,1550.0,1550.0,1550.0,1550.0,0.0,0.0
1565338411765138866,1550.0,1550.0,1550.0,1550.0,0.0,0.0
1565338411815351575,1550.0,1550.0,1550.0,1550.0,0.0,0.0
1565338411865470897,1550.0,1550.0,1550.0,1550.0,0.0,0.0
1565338411915794127,1550.0,1550.0,1550.0,1550.0,0.0,0.0
1565338411964949647,1550.0,1550.0,1550.0,1550.0,0.0,0.0
1565338412015885793,1550.0,1550.0,1550.0,1550.0,0.0,0.0
1565338412065879335,1550.0,1550.0,1550.0,1550.0,0.0,0.0
1565338412115740741,1550.0,1550.0,1550.0,1550.0,0.0,0.0
1565338412166242720,1550.0,1550.0,1550.0,1550.0,0.0,0.0
1565338412215341001,1550.0,1550.0,1550.0,1550.0,0.0,0.0
1565338412265738970,1550.0,1550.0,1550.0,1550.0,0.0,0.0
1565338412315259856,1550.0,1550.0,1550.0,1550.0,0.0,0.0
1565338412365094126,1550.0,1550.0,1550.0,1550.0,0.0,0.0
1565338412415528033,1550.0,1550.0,1550.0,1550.0,0.0,0.0
1565338412465453293,1550.0,1550.0,1550.0,1550.0,0.0,0.0
1565338412516040168,1550.0,1550.0,1550.0,1550.0,0.0,0.0
1565338412565304699,1550.0,1550.0,1550.0,1550.0,0.0,0.0
1565338412615099178,1550.0,1550.0,1550.0,1550.0,0.0,0.0
1565338412665429595,1550.0,1550.0,1550.0,1550.0,0.0,0.0
1565338412714658501,1550.0,1550.0,1550.0,1550.0,0.0,0.0
1565338412765253658,1550.0,1550.0,1550.0,1550.0,0.0,0.0
1565338412815146001,1550.0,1550.0,1550.0,1550.0,0.0,0.0
1565338412865337772,1550.0,1550.0,1550.0,1550.0,0.0,0.0
1565338412915217460,1550.0,1550.0,1550.0,1550.0,0.0,0.0
1565338412964616782,1550.0,1550.0,1550.0,1550.0,0.0,0.0
1565338413015090897,1550.0,1550.0,1550.0,1550.0,0.0,0.0
1565338413065333032,1550.0,1550.0,1550.0,1550.0,0.0,0.0
1565338413115230532,1550.0,1550.0,1550.0,1550.0,0.0,0.0
1565338413164567303,1550.0,1550.0,1550.0,1550.0,0.0,0.0
1565338413215027199,1550.0,1550.0,1550.0,1550.0,0.0,0.0
1565338413265102876,1562.01730594,1550.0,1550.0,1562.01730594,0.0,0.0
1565338413315067095,1562.01730594,1550.0,1550.0,1562.01730594,0.0,0.0
1565338413365094491,1562.01730594,1550.0,1550.0,1562.01730594,0.0,0.0
1565338413415086574,1562.01730594,1550.0,1550.0,1562.01730594,0.0,0.0
1565338413465101886,1569.07189935,1550.0,1550.0,1569.07189935,0.0,0.0
1565338413514651105,1569.07189935,1550.0,1550.0,1569.07189935,0.0,0.0
1565338413565155741,1572.32774347,1550.0,1550.0,1572.32774347,0.0,0.0
1565338413615115845,1572.32774347,1550.0,1550.0,1572.32774347,0.0,0.0
1565338413665274074,1575.5835861,1550.0,1550.0,1575.5835861,0.0,0.0
1565338413715029855,1575.5835861,1550.0,1550.0,1575.5835861,0.0,0.0
1565338413764902459,1581.00945652,1550.0,1550.0,1581.00945652,0.0,0.0
1565338413815908970,1581.00945652,1550.0,1550.0,1581.00945652,0.0,0.0
1565338413864939855,1581.00945652,1550.0,1550.0,1581.00945652,0.0,0.0
1565338413915036105,1589.14825916,1550.0,1550.0,1589.14825916,0.0,0.0
1565338413965228657,1589.14825916,1550.0,1550.0,1589.14825916,0.0,0.0
1565338414014888136,1599.45869744,1550.0,1550.0,1599.45869744,0.0,0.0
1565338414064960897,1599.45869744,1550.0,1550.0,1599.45869744,0.0,0.0
1565338414114972980,1600.0,1550.0,1550.0,1600.0,0.0,0.0
1565338414164893292,1600.0,1550.0,1550.0,1600.0,0.0,0.0
1565338414215182251,1600.0,1550.0,1550.0,1600.0,0.0,0.0
1565338414265193553,1600.0,1550.0,1550.0,1600.0,0.0,0.0
1565338414315063449,1600.0,1550.0,1550.0,1600.0,0.0,0.0
1565338414364958657,1600.0,1550.0,1550.0,1600.0,0.0,0.0
1565338414414967042,1600.0,1550.0,1550.0,1600.0,0.0,0.0
1565338414464961053,1600.0,1550.0,1550.0,1600.0,0.0,0.0
1565338414514768761,1600.0,1550.0,1550.0,1600.0,0.0,0.0
1565338414564958917,1600.0,1550.0,1550.0,1600.0,0.0,0.0
1565338414615305011,1600.0,1550.0,1550.0,1600.0,0.0,0.0
1565338414664632407,1600.0,1550.0,1550.0,1600.0,0.0,0.0
1565338414715099438,1600.0,1550.0,1550.0,1600.0,0.0,0.0
1565338414765122563,1550.0,1550.0,1550.0,1550.0,0.0,0.0
1565338414814936053,1550.0,1550.0,1550.0,1550.0,0.0,0.0
1565338414864934073,1550.0,1550.0,1550.0,1550.0,0.0,0.0
1565338414915348188,1550.0,1550.0,1550.0,1550.0,0.0,0.0
1565338414965162927,1550.0,1550.0,1550.0,1550.0,0.0,0.0
1565338415015550636,1550.0,1550.0,1550.0,1550.0,0.0,0.0
1565338415065179802,1550.0,1550.0,1550.0,1550.0,0.0,0.0
1565338415114604907,1550.0,1550.0,1550.0,1550.0,0.0,0.0
1565338415164693761,1550.0,1550.0,1550.0,1550.0,0.0,0.0
1565338415214674125,1550.0,1550.0,1550.0,1550.0,0.0,0.0
1565338415265359907,1550.0,1550.0,1550.0,1550.0,0.0,0.0
1565338415315380688,1550.0,1550.0,1550.0,1550.0,0.0,0.0
1565338415365377042,1550.0,1550.0,1550.0,1550.0,0.0,0.0
1565338415415409698,1550.0,1550.0,1550.0,1550.0,0.0,0.0
1565338415465334646,1550.0,1550.0,1550.0,1550.0,0.0,0.0
1565338415514814490,1550.0,1550.0,1550.0,1550.0,0.0,0.0
1565338415564829021,1550.0,1550.0,1550.0,1550.0,0.0,0.0
1565338415614896834,1550.0,1550.0,1550.0,1550.0,0.0,0.0
1565338415664851052,1550.0,1550.0,1550.0,1550.0,0.0,0.0
1565338415715178188,1550.0,1550.0,1550.0,1550.0,0.0,0.0
1565338415764923500,1550.0,1550.0,1550.0,1550.0,0.0,0.0
1565338415815093396,1550.0,1550.0,1550.0,1550.0,0.0,0.0
1565338415864933500,1550.0,1550.0,1550.0,1550.0,0.0,0.0
1565338415915423031,1550.0,1550.0,1550.0,1550.0,0.0,0.0
1565338415964910948,1550.0,1550.0,1550.0,1550.0,0.0,0.0
1565338416015417719,1550.0,1550.0,1550.0,1550.0,0.0,0.0
1565338416065572771,1550.0,1550.0,1550.0,1550.0,0.0,0.0
1565338416115309542,1550.0,1550.0,1550.0,1550.0,0.0,0.0
1565338416164821521,1550.0,1550.0,1550.0,1550.0,0.0,0.0
1565338416214842302,1550.0,1550.0,1550.0,1550.0,0.0,0.0
1565338416265209698,1550.0,1550.0,1550.0,1550.0,0.0,0.0
1565338416315279646,1550.0,1550.0,1550.0,1550.0,0.0,0.0
1565338416365360427,1550.0,1550.0,1550.0,1550.0,0.0,0.0
1565338416414901000,1550.0,1550.0,1550.0,1550.0,0.0,0.0
1565338416466439021,1550.0,1550.0,1550.0,1550.0,0.0,0.0
1565338416515562719,1550.0,1550.0,1550.0,1550.0,0.0,0.0
1565338416565162458,1550.0,1550.0,1550.0,1550.0,0.0,0.0
1565338416614854229,1550.0,1550.0,1550.0,1550.0,0.0,0.0
1565338416665109385,1550.0,1550.0,1550.0,1550.0,0.0,0.0
1565338416715475114,1550.0,1550.0,1550.0,1550.0,0.0,0.0
1565338416764907771,1573.95486087,1550.0,1550.0,1573.95486087,0.0,0.0
1565338416815170010,1573.95486087,1550.0,1550.0,1573.95486087,0.0,0.0
1565338416864876260,1575.5835861,1550.0,1550.0,1575.5835861,0.0,0.0
1565338416916957771,1575.5835861,1550.0,1550.0,1575.5835861,0.0,0.0
1565338416965219385,1587.52114177,1550.0,1550.0,1587.52114177,0.0,0.0
1565338417015734854,1587.52114177,1550.0,1550.0,1587.52114177,0.0,0.0
1565338417065069333,1588.60535324,1550.0,1550.0,1588.60535324,0.0,0.0
1565338417115742718,1588.60535324,1550.0,1550.0,1588.60535324,0.0,0.0
1565338417165550218,1589.14825916,1550.0,1550.0,1589.14825916,0.0,0.0
1565338417215361677,1589.14825916,1550.0,1550.0,1589.14825916,0.0,0.0
1565338417265827041,1600.0,1550.0,1550.0,1600.0,0.0,0.0
1565338417315762145,1600.0,1550.0,1550.0,1600.0,0.0,0.0
1565338417365599749,1600.0,1550.0,1550.0,1600.0,0.0,0.0
1565338417415447770,1600.0,1550.0,1550.0,1600.0,0.0,0.0
1565338417465657093,1600.0,1550.0,1550.0,1600.0,0.0,0.0
1565338417516324906,1600.0,1550.0,1550.0,1600.0,0.0,0.0
1565338417566011572,1600.0,1550.0,1550.0,1600.0,0.0,0.0
1565338417615413239,1600.0,1550.0,1550.0,1600.0,0.0,0.0
1565338417664979489,1600.0,1550.0,1550.0,1600.0,0.0,0.0
1565338417715770062,1600.0,1550.0,1550.0,1600.0,0.0,0.0
1565338417765640843,1600.0,1550.0,1550.0,1600.0,0.0,0.0
1565338417815631416,1600.0,1550.0,1550.0,1600.0,0.0,0.0
1565338417865417197,1600.0,1550.0,1550.0,1600.0,0.0,0.0
1565338417915690895,1550.0,1550.0,1550.0,1550.0,0.0,0.0
1565338417965617718,1550.0,1550.0,1550.0,1550.0,0.0,0.0
1565338418015714176,1550.0,1550.0,1550.0,1550.0,0.0,0.0
1565338418065162666,1550.0,1550.0,1550.0,1550.0,0.0,0.0
1565338418115991676,1550.0,1550.0,1550.0,1550.0,0.0,0.0
1565338418165127405,1550.0,1550.0,1550.0,1550.0,0.0,0.0
1565338418215650947,1550.0,1550.0,1550.0,1550.0,0.0,0.0
1565338418265601312,1550.0,1550.0,1550.0,1550.0,0.0,0.0
1565338418316392405,1550.0,1550.0,1550.0,1550.0,0.0,0.0
1565338418366548239,1550.0,1550.0,1550.0,1550.0,0.0,0.0
1565338418415760530,1550.0,1550.0,1550.0,1550.0,0.0,0.0
1565338418465097145,1550.0,1550.0,1550.0,1550.0,0.0,0.0
1565338418515964853,1550.0,1550.0,1550.0,1550.0,0.0,0.0
1565338418565479020,1550.0,1550.0,1550.0,1550.0,0.0,0.0
1565338418615016937,1550.0,1550.0,1550.0,1550.0,0.0,0.0
1565338418665095843,1550.0,1550.0,1550.0,1550.0,0.0,0.0
1565338418715583239,1550.0,1550.0,1550.0,1550.0,0.0,0.0
1565338418764953134,1550.0,1550.0,1550.0,1550.0,0.0,0.0
1565338418814984697,1550.0,1550.0,1550.0,1550.0,0.0,0.0
1565338418864952145,1550.0,1550.0,1550.0,1550.0,0.0,0.0
1565338418916063811,1550.0,1550.0,1550.0,1550.0,0.0,0.0
1565338418964877353,1550.0,1550.0,1550.0,1550.0,0.0,0.0
1565338419014987509,1550.0,1550.0,1550.0,1550.0,0.0,0.0
1565338419065227301,1550.0,1550.0,1550.0,1550.0,0.0,0.0
1565338419114946728,1550.0,1550.0,1550.0,1550.0,0.0,0.0
1565338419165029593,1559.30437073,1550.0,1550.0,1559.30437073,0.0,0.0
1565338419214968186,1559.30437073,1550.0,1550.0,1559.30437073,0.0,0.0
1565338419264620790,1575.5835861,1550.0,1550.0,1575.5835861,0.0,0.0
1565338419314827093,1575.5835861,1550.0,1550.0,1575.5835861,0.0,0.0
1565338419365077353,1579.9236387,1550.0,1550.0,1579.9236387,0.0,0.0
1565338419414733134,1579.9236387,1550.0,1550.0,1579.9236387,0.0,0.0
1565338419464801520,1589.69116807,1550.0,1550.0,1589.69116807,0.0,0.0
1565338419514871155,1589.69116807,1550.0,1550.0,1589.69116807,0.0,0.0
1565338419564624540,1594.57412958,1550.0,1550.0,1594.57412958,0.0,0.0
1565338419614676572,1594.57412958,1550.0,1550.0,1594.57412958,0.0,0.0
1565338419664665842,1594.57412958,1550.0,1550.0,1594.57412958,0.0,0.0
1565338419714758655,1550.0,1550.0,1550.0,1550.0,0.0,0.0
1565338419764857405,1550.0,1550.0,1550.0,1550.0,0.0,0.0
1565338419814765009,1550.0,1550.0,1550.0,1550.0,0.0,0.0
1565338419864750061,1550.0,1550.0,1550.0,1550.0,0.0,0.0
1565338419916007978,1550.0,1550.0,1550.0,1550.0,0.0,0.0
1565338419965530582,1550.0,1550.0,1550.0,1550.0,0.0,0.0
1565338420014827301,1550.0,1550.0,1550.0,1550.0,0.0,0.0
1565338420065061519,1550.0,1550.0,1550.0,1550.0,0.0,0.0
1565338420114744905,1550.0,1550.0,1550.0,1550.0,0.0,0.0
1565338420164810113,1550.0,1550.0,1550.0,1550.0,0.0,0.0
1565338420215188603,1550.0,1550.0,1550.0,1550.0,0.0,0.0
1565338420264736780,1550.0,1550.0,1550.0,1550.0,0.0,0.0
1565338420315526675,1550.0,1550.0,1550.0,1550.0,0.0,0.0
1565338420364948186,1550.0,1550.0,1550.0,1550.0,0.0,0.0
1565338420415229905,1550.0,1550.0,1550.0,1550.0,0.0,0.0
1565338420464986207,1550.0,1550.0,1550.0,1550.0,0.0,0.0
1565338420515761207,1550.0,1550.0,1550.0,1550.0,0.0,0.0
1565338420564920477,1550.0,1550.0,1550.0,1550.0,0.0,0.0
1565338420614722144,1550.0,1550.0,1550.0,1550.0,0.0,0.0
1565338420665068654,1550.0,1550.0,1550.0,1550.0,0.0,0.0
1565338420715107352,1576.66779757,1550.0,1550.0,1576.66779757,0.0,0.0
1565338420764664227,1576.66779757,1550.0,1550.0,1576.66779757,0.0,0.0
1565338420815317144,1582.09527135,1550.0,1550.0,1582.09527135,0.0,0.0
1565338420865342925,1582.09527135,1550.0,1550.0,1582.09527135,0.0,0.0
1565338420914936311,1583.72239172,1550.0,1550.0,1583.72239172,0.0,0.0
1565338420965078134,1583.72239172,1550.0,1550.0,1583.72239172,0.0,0.0
1565338421014940321,1565.27314931,1550.0,1550.0,1565.27314931,0.0,0.0
1565338421064959227,1565.27314931,1550.0,1550.0,1565.27314931,0.0,0.0
1565338421115488394,1550.0,1550.0,1550.0,1550.0,0.0,0.0
1565338421165298238,1550.0,1550.0,1550.0,1550.0,0.0,0.0
1565338421215474123,1550.0,1550.0,1550.0,1550.0,0.0,0.0
1565338421264867456,1550.0,1550.0,1550.0,1550.0,0.0,0.0
1565338421315575373,1550.0,1550.0,1550.0,1550.0,0.0,0.0
1565338421365243863,1550.0,1550.0,1550.0,1550.0,0.0,0.0
1565338421416480842,1550.0,1550.0,1550.0,1550.0,0.0,0.0
1565338421465226779,1550.0,1550.0,1550.0,1550.0,0.0,0.0
1565338421515708862,1550.0,1550.0,1550.0,1550.0,0.0,0.0
1565338421564835477,1550.0,1550.0,1550.0,1550.0,0.0,0.0
1565338421615461258,1550.0,1550.0,1550.0,1550.0,0.0,0.0
1565338421665163446,1550.0,1550.0,1550.0,1550.0,0.0,0.0
1565338421714943081,1550.0,1550.0,1550.0,1550.0,0.0,0.0
1565338421765097092,1550.0,1550.0,1550.0,1550.0,0.0,0.0
1565338421815240425,1550.0,1550.0,1550.0,1550.0,0.0,0.0
1565338421865054435,1597.8299737,1550.0,1550.0,1597.8299737,0.0,0.0
1565338421914967039,1597.8299737,1550.0,1550.0,1597.8299737,0.0,0.0
1565338421965022508,1600.0,1550.0,1550.0,1600.0,0.0,0.0
1565338422014867300,1600.0,1550.0,1550.0,1600.0,0.0,0.0
1565338422065455216,1589.69116807,1550.0,1550.0,1589.69116807,0.0,0.0
1565338422115848289,1589.69116807,1550.0,1550.0,1589.69116807,0.0,0.0
1565338422165433498,1589.69116807,1550.0,1550.0,1589.69116807,0.0,0.0
1565338422216185737,1550.0,1550.0,1550.0,1550.0,0.0,0.0
1565338422266018393,1550.0,1550.0,1550.0,1550.0,0.0,0.0
1565338422315752716,1550.0,1550.0,1550.0,1550.0,0.0,0.0
1565338422365401987,1550.0,1550.0,1550.0,1550.0,0.0,0.0
1565338422415483914,1550.0,1550.0,1550.0,1550.0,0.0,0.0
1565338422465412664,1550.0,1550.0,1550.0,1550.0,0.0,0.0
1565338422515554279,1550.0,1550.0,1550.0,1550.0,0.0,0.0
1565338422565966831,1550.0,1550.0,1550.0,1550.0,0.0,0.0
1565338422616734227,1550.0,1550.0,1550.0,1550.0,0.0,0.0
1565338422667066102,1550.0,1550.0,1550.0,1550.0,0.0,0.0
1565338422715460789,1550.0,1550.0,1550.0,1550.0,0.0,0.0
1565338422765607664,1550.0,1550.0,1550.0,1550.0,0.0,0.0
1565338422816042872,1550.0,1550.0,1550.0,1550.0,0.0,0.0
1565338422866159227,1550.0,1550.0,1550.0,1550.0,0.0,0.0
1565338422916874018,1550.0,1550.0,1550.0,1550.0,0.0,0.0
1565338422965901310,1550.0,1550.0,1550.0,1550.0,0.0,0.0
1565338423015576883,1550.0,1550.0,1550.0,1550.0,0.0,0.0
1565338423066173341,1550.0,1550.0,1550.0,1550.0,0.0,0.0
1565338423115416362,1550.0,1550.0,1550.0,1550.0,0.0,0.0
1565338423164946674,1550.0,1550.0,1550.0,1550.0,0.0,0.0
1565338423216187508,1600.0,1550.0,1550.0,1600.0,0.0,0.0
1565338423265021726,1600.0,1550.0,1550.0,1600.0,0.0,0.0
1565338423315156987,1600.0,1550.0,1550.0,1600.0,0.0,0.0
1565338423365224226,1600.0,1550.0,1550.0,1600.0,0.0,0.0
1565338423415023237,1600.0,1550.0,1550.0,1600.0,0.0,0.0
1565338423465352351,1600.0,1550.0,1550.0,1600.0,0.0,0.0
1565338423515666674,1600.0,1550.0,1550.0,1600.0,0.0,0.0
1565338423564657039,1600.0,1550.0,1550.0,1600.0,0.0,0.0
1565338423615512716,1600.0,1550.0,1550.0,1600.0,0.0,0.0
1565338423665220685,1600.0,1550.0,1550.0,1600.0,0.0,0.0
1565338423715318237,1600.0,1550.0,1550.0,1600.0,0.0,0.0
1565338423765280372,1600.0,1550.0,1550.0,1600.0,0.0,0.0
1565338423815213445,1600.0,1550.0,1550.0,1600.0,0.0,0.0
1565338423865434643,1600.0,1550.0,1550.0,1600.0,0.0,0.0
1565338423915127924,1600.0,1550.0,1550.0,1600.0,0.0,0.0
1565338423964984955,1600.0,1550.0,1550.0,1600.0,0.0,0.0
1565338424014865164,1600.0,1550.0,1550.0,1600.0,0.0,0.0
1565338424065063601,1600.0,1550.0,1550.0,1600.0,0.0,0.0
1565338424115389487,1600.0,1550.0,1550.0,1600.0,0.0,0.0
1565338424165479903,1600.0,1550.0,1550.0,1600.0,0.0,0.0
1565338424215075164,1600.0,1550.0,1550.0,1600.0,0.0,0.0
1565338424265103601,1600.0,1550.0,1550.0,1600.0,0.0,0.0
1565338424315175164,1600.0,1550.0,1550.0,1600.0,0.0,0.0
1565338424365072976,1600.0,1550.0,1550.0,1600.0,0.0,0.0
1565338424415191934,1600.0,1550.0,1550.0,1600.0,0.0,0.0
1565338424465107611,1600.0,1550.0,1550.0,1600.0,0.0,0.0
1565338424515107351,1600.0,1550.0,1550.0,1600.0,0.0,0.0
1565338424565117716,1600.0,1550.0,1550.0,1600.0,0.0,0.0
1565338424615086778,1600.0,1550.0,1550.0,1600.0,0.0,0.0
1565338424665124382,1600.0,1550.0,1550.0,1600.0,0.0,0.0
1565338424715642299,1600.0,1550.0,1550.0,1600.0,0.0,0.0
1565338424764940476,1550.0,1550.0,1550.0,1550.0,0.0,0.0
1565338424815409851,1550.0,1550.0,1550.0,1550.0,0.0,0.0
1565338424865015059,1550.0,1550.0,1550.0,1550.0,0.0,0.0
1565338424915406570,1550.0,1550.0,1550.0,1550.0,0.0,0.0
1565338424965064851,1550.0,1550.0,1550.0,1550.0,0.0,0.0
1565338425014923601,1550.0,1550.0,1550.0,1550.0,0.0,0.0
1565338425065537299,1550.0,1550.0,1550.0,1550.0,0.0,0.0
1565338425116635424,1550.0,1550.0,1550.0,1550.0,0.0,0.0
1565338425166569486,1550.0,1550.0,1550.0,1550.0,0.0,0.0
1565338425216328705,1550.0,1550.0,1550.0,1550.0,0.0,0.0
1565338425265102663,1550.0,1550.0,1550.0,1550.0,0.0,0.0
1565338425315205632,1550.0,1550.0,1550.0,1550.0,0.0,0.0
1565338425365437611,1550.0,1550.0,1550.0,1550.0,0.0,0.0
1565338425415293028,1550.0,1550.0,1550.0,1550.0,0.0,0.0
1565338425465284851,1550.0,1550.0,1550.0,1550.0,0.0,0.0
1565338425515712455,1550.0,1550.0,1550.0,1550.0,0.0,0.0
1565338425565589486,1550.0,1550.0,1550.0,1550.0,0.0,0.0
1565338425614983653,1550.0,1550.0,1550.0,1550.0,0.0,0.0
1565338425665049173,1550.0,1550.0,1550.0,1550.0,0.0,0.0
1565338425715070996,1550.0,1550.0,1550.0,1550.0,0.0,0.0
1565338425765959434,1550.0,1550.0,1550.0,1550.0,0.0,0.0
1565338425815480007,1550.0,1550.0,1550.0,1550.0,0.0,0.0
1565338425866251569,1550.0,1550.0,1550.0,1550.0,0.0,0.0
1565338425914771361,1550.0,1550.0,1550.0,1550.0,0.0,0.0
1565338425964693080,1550.0,1550.0,1550.0,1550.0,0.0,0.0
1565338426015078757,1550.0,1550.0,1550.0,1550.0,0.0,0.0
1565338426064995840,1550.0,1550.0,1550.0,1550.0,0.0,0.0
1565338426115003965,1550.0,1550.0,1550.0,1550.0,0.0,0.0
1565338426164905996,1550.0,1550.0,1550.0,1550.0,0.0,0.0
1565338426215062298,1550.0,1550.0,1550.0,1550.0,0.0,0.0
1565338426264968079,1550.0,1550.0,1550.0,1550.0,0.0,0.0
1565338426314890059,1550.0,1550.0,1550.0,1550.0,0.0,0.0
1565338426365046986,1550.0,1550.0,1550.0,1550.0,0.0,0.0
1565338426414620163,1550.0,1550.0,1550.0,1550.0,0.0,0.0
1565338426465219121,1550.0,1550.0,1550.0,1550.0,0.0,0.0
1565338426515091673,1550.0,1550.0,1550.0,1550.0,0.0,0.0
1565338426564895475,1550.0,1550.0,1550.0,1550.0,0.0,0.0
1565338426615055319,1550.0,1550.0,1550.0,1550.0,0.0,0.0
1565338426665259746,1550.0,1550.0,1550.0,1550.0,0.0,0.0
1565338426715843756,1550.0,1550.0,1550.0,1550.0,0.0,0.0
1565338426765264173,1550.0,1550.0,1550.0,1550.0,0.0,0.0
1565338426815219017,1550.0,1550.0,1550.0,1550.0,0.0,0.0
1565338426865298235,1550.0,1550.0,1550.0,1550.0,0.0,0.0
1565338426915156465,1550.0,1550.0,1550.0,1550.0,0.0,0.0
1565338426965118392,1550.0,1550.0,1550.0,1550.0,0.0,0.0
1565338427014612246,1550.0,1550.0,1550.0,1550.0,0.0,0.0
1565338427065102610,1550.0,1550.0,1550.0,1550.0,0.0,0.0
1565338427115146985,1550.0,1550.0,1550.0,1550.0,0.0,0.0
1565338427165134850,1550.0,1550.0,1550.0,1550.0,0.0,0.0
1565338427215226985,1596.74576223,1550.0,1550.0,1596.74576223,0.0,0.0
1565338427265088027,1596.74576223,1550.0,1550.0,1596.74576223,0.0,0.0
1565338427315240319,1600.0,1550.0,1550.0,1600.0,0.0,0.0
1565338427365097923,1600.0,1550.0,1550.0,1600.0,0.0,0.0
1565338427414958860,1600.0,1550.0,1550.0,1600.0,0.0,0.0
1565338427465080319,1600.0,1550.0,1550.0,1600.0,0.0,0.0
1565338427515105162,1600.0,1550.0,1550.0,1600.0,0.0,0.0
1565338427565014485,1600.0,1550.0,1550.0,1600.0,0.0,0.0
1565338427615087350,1600.0,1550.0,1550.0,1600.0,0.0,0.0
1565338427665696829,1600.0,1550.0,1550.0,1600.0,0.0,0.0
1565338427715283704,1600.0,1550.0,1550.0,1600.0,0.0,0.0
1565338427764942350,1600.0,1550.0,1550.0,1600.0,0.0,0.0
1565338427815881881,1600.0,1550.0,1550.0,1600.0,0.0,0.0
1565338427866369850,1600.0,1550.0,1550.0,1600.0,0.0,0.0
1565338427915490318,1600.0,1550.0,1550.0,1600.0,0.0,0.0
1565338427965226308,1600.0,1550.0,1550.0,1600.0,0.0,0.0
1565338428015598652,1600.0,1550.0,1550.0,1600.0,0.0,0.0
1565338428065095266,1600.0,1550.0,1550.0,1600.0,0.0,0.0
1565338428116074537,1600.0,1550.0,1550.0,1600.0,0.0,0.0
1565338428165068495,1600.0,1550.0,1550.0,1600.0,0.0,0.0
1565338428215050683,1600.0,1550.0,1550.0,1600.0,0.0,0.0
1565338428265335266,1600.0,1550.0,1550.0,1600.0,0.0,0.0
1565338428315267974,1550.0,1550.0,1550.0,1550.0,0.0,0.0
1565338428365131308,1550.0,1550.0,1550.0,1550.0,0.0,0.0
1565338428415071099,1550.0,1550.0,1550.0,1550.0,0.0,0.0
1565338428465206099,1550.0,1550.0,1550.0,1550.0,0.0,0.0
1565338428515449589,1550.0,1550.0,1550.0,1550.0,0.0,0.0
1565338428564973287,1550.0,1550.0,1550.0,1550.0,0.0,0.0
1565338428615189224,1550.0,1550.0,1550.0,1550.0,0.0,0.0
1565338428665020631,1550.0,1550.0,1550.0,1550.0,0.0,0.0
1565338428715302193,1550.0,1550.0,1550.0,1550.0,0.0,0.0
1565338428765180214,1550.0,1550.0,1550.0,1550.0,0.0,0.0
1565338428815339433,1550.0,1550.0,1550.0,1550.0,0.0,0.0
1565338428865802662,1550.0,1550.0,1550.0,1550.0,0.0,0.0
1565338428915290683,1550.0,1550.0,1550.0,1550.0,0.0,0.0
1565338428964995995,1550.0,1550.0,1550.0,1550.0,0.0,0.0
1565338429015181464,1550.0,1550.0,1550.0,1550.0,0.0,0.0
1565338429064948287,1550.0,1550.0,1550.0,1550.0,0.0,0.0
1565338429115119537,1550.0,1550.0,1550.0,1550.0,0.0,0.0
1565338429164917662,1550.0,1550.0,1550.0,1550.0,0.0,0.0
1565338429214977818,1550.0,1550.0,1550.0,1550.0,0.0,0.0
1565338429265171932,1550.0,1550.0,1550.0,1550.0,0.0,0.0
1565338429315034328,1550.0,1550.0,1550.0,1550.0,0.0,0.0
1565338429364750057,1550.0,1550.0,1550.0,1550.0,0.0,0.0
1565338429415048651,1550.0,1550.0,1550.0,1550.0,0.0,0.0
1565338429464767453,1550.0,1550.0,1550.0,1550.0,0.0,0.0
1565338429515161880,1550.0,1550.0,1550.0,1550.0,0.0,0.0
1565338429564716359,1550.0,1550.0,1550.0,1550.0,0.0,0.0
1565338429615009797,1550.0,1550.0,1550.0,1550.0,0.0,0.0
1565338429664758078,1550.0,1550.0,1550.0,1550.0,0.0,0.0
1565338429714936203,1550.0,1550.0,1550.0,1550.0,0.0,0.0
1565338429765255578,1550.0,1550.0,1550.0,1550.0,0.0,0.0
1565338429814739276,1550.0,1550.0,1550.0,1550.0,0.0,0.0
1565338429865106776,1550.0,1550.0,1550.0,1550.0,0.0,0.0
1565338429915609224,1550.0,1550.0,1550.0,1550.0,0.0,0.0
1565338429964841463,1550.0,1550.0,1550.0,1550.0,0.0,0.0
1565338430014782557,1550.0,1550.0,1550.0,1550.0,0.0,0.0
1565338430065249953,1550.0,1550.0,1550.0,1550.0,0.0,0.0
1565338430114728963,1550.0,1550.0,1550.0,1550.0,0.0,0.0
1565338430164673755,1550.0,1550.0,1550.0,1550.0,0.0,0.0
1565338430215083130,1550.0,1550.0,1550.0,1550.0,0.0,0.0
1565338430264775942,1550.0,1550.0,1550.0,1550.0,0.0,0.0
1565338430314743182,1550.0,1550.0,1550.0,1550.0,0.0,0.0
1565338430364681724,1550.0,1550.0,1550.0,1550.0,0.0,0.0
1565338430414708182,1550.0,1550.0,1550.0,1550.0,0.0,0.0
1565338430464700474,1550.0,1550.0,1550.0,1550.0,0.0,0.0
1565338430515028963,1550.0,1550.0,1550.0,1550.0,0.0,0.0
1565338430565189328,1550.0,1550.0,1550.0,1550.0,0.0,0.0
1565338430614922609,1550.0,1550.0,1550.0,1550.0,0.0,0.0
1565338430665842088,1550.0,1550.0,1550.0,1550.0,0.0,0.0
1565338430714821307,1550.0,1550.0,1550.0,1550.0,0.0,0.0
1565338430764805005,1562.01730594,1550.0,1550.0,1562.01730594,0.0,0.0
1565338430815422401,1562.01730594,1550.0,1550.0,1562.01730594,0.0,0.0
1565338430864968442,1562.01730594,1550.0,1550.0,1562.01730594,0.0,0.0
1565338430914751515,1550.0,1550.0,1550.0,1550.0,0.0,0.0
1565338430965021203,1550.0,1550.0,1550.0,1550.0,0.0,0.0
1565338431015905109,1550.0,1550.0,1550.0,1550.0,0.0,0.0
1565338431064687817,1550.0,1550.0,1550.0,1550.0,0.0,0.0
1565338431114869901,1550.0,1550.0,1550.0,1550.0,0.0,0.0
1565338431165378025,1550.0,1550.0,1550.0,1550.0,0.0,0.0
1565338431215057713,1550.0,1550.0,1550.0,1550.0,0.0,0.0
1565338431265059171,1600.0,1550.0,1550.0,1600.0,0.0,0.0
1565338431315194953,1600.0,1550.0,1550.0,1600.0,0.0,0.0
1565338431365334380,1583.72239172,1550.0,1550.0,1583.72239172,0.0,0.0
1565338431414691567,1583.72239172,1550.0,1550.0,1583.72239172,0.0,0.0
1565338431465193286,1550.0,1550.0,1550.0,1550.0,0.0,0.0
1565338431515232036,1550.0,1550.0,1550.0,1550.0,0.0,0.0
1565338431565254119,1550.0,1550.0,1550.0,1550.0,0.0,0.0
1565338431614724327,1550.0,1550.0,1550.0,1550.0,0.0,0.0
1565338431665160317,1550.0,1550.0,1550.0,1550.0,0.0,0.0
1565338431715695057,1597.28706479,1550.0,1550.0,1597.28706479,0.0,0.0
1565338431764830786,1597.28706479,1550.0,1550.0,1597.28706479,0.0,0.0
1565338431815685838,1550.0,1550.0,1550.0,1550.0,0.0,0.0
1565338431865159536,1550.0,1550.0,1550.0,1550.0,0.0,0.0
1565338431915094067,1550.0,1550.0,1550.0,1550.0,0.0,0.0
1565338431964976879,1550.0,1550.0,1550.0,1550.0,0.0,0.0
1565338432014884848,1550.0,1550.0,1550.0,1550.0,0.0,0.0
1565338432064952296,1550.0,1550.0,1550.0,1550.0,0.0,0.0
1565338432114890421,1550.0,1550.0,1550.0,1550.0,0.0,0.0
1565338432164969796,1550.0,1550.0,1550.0,1550.0,0.0,0.0
1565338432215030786,1550.0,1550.0,1550.0,1550.0,0.0,0.0
1565338432265016619,1550.0,1550.0,1550.0,1550.0,0.0,0.0
1565338432315348338,1550.0,1550.0,1550.0,1550.0,0.0,0.0
1565338432365149431,1550.0,1550.0,1550.0,1550.0,0.0,0.0
1565338432415706306,1550.0,1550.0,1550.0,1550.0,0.0,0.0
1565338432465062504,1600.0,1550.0,1550.0,1600.0,0.0,0.0
1565338432515274015,1600.0,1550.0,1550.0,1600.0,0.0,0.0
1565338432564639692,1600.0,1550.0,1550.0,1600.0,0.0,0.0
1565338432615100108,1550.0,1550.0,1550.0,1550.0,0.0,0.0
1565338432665031202,1550.0,1550.0,1550.0,1550.0,0.0,0.0
1565338432714826567,1550.0,1550.0,1550.0,1550.0,0.0,0.0
1565338432765093598,1550.0,1550.0,1550.0,1550.0,0.0,0.0
1565338432815045473,1598.91578853,1550.0,1550.0,1598.91578853,0.0,0.0
1565338432865161462,1598.91578853,1550.0,1550.0,1598.91578853,0.0,0.0
1565338432914674691,1550.0,1550.0,1550.0,1550.0,0.0,0.0
1565338432965118494,1550.0,1550.0,1550.0,1550.0,0.0,0.0
1565338433014617660,1550.0,1550.0,1550.0,1550.0,0.0,0.0
1565338433065086827,1550.0,1550.0,1550.0,1550.0,0.0,0.0
1565338433115339431,1550.0,1550.0,1550.0,1550.0,0.0,0.0
1565338433165144327,1550.0,1550.0,1550.0,1550.0,0.0,0.0
1565338433215034118,1550.0,1550.0,1550.0,1550.0,0.0,0.0
1565338433265206358,1600.0,1550.0,1550.0,1600.0,0.0,0.0
1565338433316082087,1600.0,1550.0,1550.0,1600.0,0.0,0.0
1565338433365204900,1600.0,1550.0,1550.0,1600.0,0.0,0.0
1565338433415970420,1550.0,1550.0,1550.0,1550.0,0.0,0.0
1565338433465763545,1550.0,1550.0,1550.0,1550.0,0.0,0.0
1565338433516173493,1550.0,1550.0,1550.0,1550.0,0.0,0.0
1565338433564844639,1550.0,1550.0,1550.0,1550.0,0.0,0.0
1565338433615454066,1550.0,1550.0,1550.0,1550.0,0.0,0.0
1565338433664918597,1550.0,1550.0,1550.0,1550.0,0.0,0.0
1565338433715245733,1550.0,1550.0,1550.0,1550.0,0.0,0.0
1565338433764998910,1550.0,1550.0,1550.0,1550.0,0.0,0.0
1565338433815074691,1600.0,1550.0,1550.0,1600.0,0.0,0.0
1565338433864968285,1600.0,1550.0,1550.0,1600.0,0.0,0.0
1565338433915024327,1550.0,1550.0,1550.0,1550.0,0.0,0.0
1565338433965078597,1550.0,1550.0,1550.0,1550.0,0.0,0.0
1565338434015042764,1550.0,1550.0,1550.0,1550.0,0.0,0.0
1565338434064952451,1550.0,1550.0,1550.0,1550.0,0.0,0.0
1565338434115028701,1550.0,1550.0,1550.0,1550.0,0.0,0.0
1565338434164940576,1550.0,1550.0,1550.0,1550.0,0.0,0.0
1565338434215120003,1600.0,1550.0,1550.0,1600.0,0.0,0.0
1565338434265170941,1600.0,1550.0,1550.0,1600.0,0.0,0.0
1565338434315526618,1550.0,1550.0,1550.0,1550.0,0.0,0.0
1565338434365153806,1550.0,1550.0,1550.0,1550.0,0.0,0.0
1565338434415189378,1550.0,1550.0,1550.0,1550.0,0.0,0.0
1565338434465045993,1550.0,1550.0,1550.0,1550.0,0.0,0.0
1565338434515461045,1550.0,1550.0,1550.0,1550.0,0.0,0.0
1565338434565196514,1550.0,1550.0,1550.0,1550.0,0.0,0.0
1565338434614984951,1550.0,1550.0,1550.0,1550.0,0.0,0.0
1565338434665185003,1550.0,1550.0,1550.0,1550.0,0.0,0.0
1565338434715445889,1550.0,1550.0,1550.0,1550.0,0.0,0.0
1565338434765591722,1550.0,1550.0,1550.0,1550.0,0.0,0.0
1565338434815021410,1550.0,1550.0,1550.0,1550.0,0.0,0.0
1565338434865058597,1550.0,1550.0,1550.0,1550.0,0.0,0.0
1565338434915498493,1550.0,1550.0,1550.0,1550.0,0.0,0.0
1565338434965359170,1600.0,1550.0,1550.0,1600.0,0.0,0.0
1565338435015130837,1600.0,1550.0,1550.0,1600.0,0.0,0.0
1565338435065168961,1550.0,1550.0,1550.0,1550.0,0.0,0.0
1565338435115224899,1550.0,1550.0,1550.0,1550.0,0.0,0.0
1565338435165183232,1550.0,1550.0,1550.0,1550.0,0.0,0.0
1565338435215185003,1550.0,1550.0,1550.0,1550.0,0.0,0.0
1565338435264978805,1550.0,1550.0,1550.0,1550.0,0.0,0.0
1565338435315337034,1600.0,1550.0,1550.0,1600.0,0.0,0.0
1565338435365028701,1600.0,1550.0,1550.0,1600.0,0.0,0.0
1565338435415561513,1550.0,1550.0,1550.0,1550.0,0.0,0.0
1565338435465461305,1550.0,1550.0,1550.0,1550.0,0.0,0.0
1565338435514949274,1550.0,1550.0,1550.0,1550.0,0.0,0.0
1565338435564888024,1550.0,1550.0,1550.0,1550.0,0.0,0.0
1565338435615007451,1550.0,1550.0,1550.0,1550.0,0.0,0.0
1565338435664937034,1550.0,1550.0,1550.0,1550.0,0.0,0.0
1565338435715218961,1550.0,1550.0,1550.0,1550.0,0.0,0.0
1565338435764994534,1550.0,1550.0,1550.0,1550.0,0.0,0.0
1565338435816001045,1550.0,1550.0,1550.0,1550.0,0.0,0.0
1565338435865324326,1600.0,1550.0,1550.0,1600.0,0.0,0.0
1565338435915376670,1600.0,1550.0,1550.0,1600.0,0.0,0.0
1565338435965077659,1550.0,1550.0,1550.0,1550.0,0.0,0.0
1565338436015233440,1550.0,1550.0,1550.0,1550.0,0.0,0.0
1565338436065198753,1550.0,1550.0,1550.0,1550.0,0.0,0.0
1565338436115982242,1550.0,1550.0,1550.0,1550.0,0.0,0.0
1565338436164919742,1550.0,1550.0,1550.0,1550.0,0.0,0.0
1565338436214920107,1550.0,1550.0,1550.0,1550.0,0.0,0.0
1565338436264985576,1550.0,1550.0,1550.0,1550.0,0.0,0.0
1565338436315393544,1550.0,1550.0,1550.0,1550.0,0.0,0.0
1565338436364928753,1550.0,1550.0,1550.0,1550.0,0.0,0.0
1565338436414930888,1550.0,1550.0,1550.0,1550.0,0.0,0.0
1565338436465205888,1550.0,1550.0,1550.0,1550.0,0.0,0.0
1565338436515047398,1550.0,1550.0,1550.0,1550.0,0.0,0.0
1565338436564944326,1550.0,1550.0,1550.0,1550.0,0.0,0.0
1565338436614936617,1550.0,1550.0,1550.0,1550.0,0.0,0.0
1565338436665160367,1550.0,1550.0,1550.0,1550.0,0.0,0.0
1565338436715101357,1550.0,1550.0,1550.0,1550.0,0.0,0.0
1565338436765096773,1550.0,1550.0,1550.0,1550.0,0.0,0.0
1565338436815122659,1550.0,1550.0,1550.0,1550.0,0.0,0.0
1565338436865009221,1550.0,1550.0,1550.0,1550.0,0.0,0.0
1565338436915340523,1550.0,1550.0,1550.0,1550.0,0.0,0.0
1565338436965136513,1550.0,1550.0,1550.0,1550.0,0.0,0.0
1565338437016587086,1550.0,1550.0,1550.0,1550.0,0.0,0.0
1565338437064977138,1550.0,1550.0,1550.0,1550.0,0.0,0.0
1565338437115322607,1550.0,1550.0,1550.0,1550.0,0.0,0.0
1565338437165015263,1590.23407698,1550.0,1550.0,1590.23407698,0.0,0.0
1565338437215294690,1590.23407698,1550.0,1550.0,1590.23407698,0.0,0.0
1565338437265333752,1585.35111547,1550.0,1550.0,1585.35111547,0.0,0.0
1565338437315349742,1585.35111547,1550.0,1550.0,1585.35111547,0.0,0.0
1565338437365494325,1550.0,1550.0,1550.0,1550.0,0.0,0.0
1565338437415641356,1550.0,1550.0,1550.0,1550.0,0.0,0.0
1565338437465463596,1550.0,1550.0,1550.0,1550.0,0.0,0.0
1565338437515499846,1550.0,1550.0,1550.0,1550.0,0.0,0.0
1565338437565112086,1550.0,1550.0,1550.0,1550.0,0.0,0.0
1565338437615197190,1550.0,1550.0,1550.0,1550.0,0.0,0.0
1565338437665293648,1550.0,1550.0,1550.0,1550.0,0.0,0.0
1565338437715916721,1550.0,1550.0,1550.0,1550.0,0.0,0.0
1565338437766308960,1550.0,1550.0,1550.0,1550.0,0.0,0.0
1565338437816233440,1598.91578853,1550.0,1550.0,1598.91578853,0.0,0.0
1565338437865500679,1598.91578853,1550.0,1550.0,1598.91578853,0.0,0.0
1565338437915514794,1550.0,1550.0,1550.0,1550.0,0.0,0.0
1565338437965397346,1550.0,1550.0,1550.0,1550.0,0.0,0.0
1565338438014892658,1550.0,1550.0,1550.0,1550.0,0.0,0.0
1565338438065707190,1550.0,1550.0,1550.0,1550.0,0.0,0.0
1565338438115763440,1550.0,1550.0,1550.0,1550.0,0.0,0.0
1565338438165140262,1550.0,1550.0,1550.0,1550.0,0.0,0.0
1565338438215596669,1550.0,1550.0,1550.0,1550.0,0.0,0.0
1565338438265404742,1550.0,1550.0,1550.0,1550.0,0.0,0.0
1565338438315330575,1550.0,1550.0,1550.0,1550.0,0.0,0.0
1565338438365527450,1550.0,1550.0,1550.0,1550.0,0.0,0.0
1565338438415528231,1550.0,1550.0,1550.0,1550.0,0.0,0.0
1565338438466241304,1550.0,1550.0,1550.0,1550.0,0.0,0.0
1565338438514849064,1550.0,1550.0,1550.0,1550.0,0.0,0.0
1565338438565325939,1550.0,1550.0,1550.0,1550.0,0.0,0.0
1565338438615182606,1550.0,1550.0,1550.0,1550.0,0.0,0.0
1565338438665570731,1550.0,1550.0,1550.0,1550.0,0.0,0.0
1565338438715525575,1550.0,1550.0,1550.0,1550.0,0.0,0.0
1565338438765640575,1550.0,1550.0,1550.0,1550.0,0.0,0.0
1565338438815476252,1550.0,1550.0,1550.0,1550.0,0.0,0.0
1565338438864993387,1550.0,1550.0,1550.0,1550.0,0.0,0.0
1565338438915104377,1550.0,1550.0,1550.0,1550.0,0.0,0.0
1565338438965267762,1550.0,1600.0,1600.0,1550.0,0.0,0.0
1565338439015008387,1550.0,1600.0,1600.0,1550.0,0.0,0.0
1565338439064952710,1550.0,1600.0,1600.0,1550.0,0.0,0.0
1565338439114932970,1550.0,1550.0,1550.0,1550.0,0.0,0.0
1565338439164900262,1550.0,1550.0,1550.0,1550.0,0.0,0.0
1565338439214858699,1550.0,1550.0,1550.0,1550.0,0.0,0.0
1565338439265055106,1550.0,1550.0,1550.0,1550.0,0.0,0.0
1565338439315383960,1550.0,1550.0,1550.0,1550.0,0.0,0.0
1565338439365167189,1550.0,1550.0,1550.0,1550.0,0.0,0.0
1565338439414929377,1550.0,1550.0,1550.0,1550.0,0.0,0.0
1565338439464932554,1550.0,1550.0,1550.0,1550.0,0.0,0.0
1565338439514960939,1550.0,1550.0,1550.0,1550.0,0.0,0.0
1565338439566082658,1550.0,1550.0,1550.0,1550.0,0.0,0.0
1565338439615562189,1550.0,1585.89402437,1585.89402437,1550.0,0.0,0.0
1565338439665376303,1550.0,1585.89402437,1585.89402437,1550.0,0.0,0.0
1565338439715907137,1550.0,1585.89402437,1585.89402437,1550.0,0.0,0.0
1565338439765073751,1550.0,1550.0,1550.0,1550.0,0.0,0.0
1565338439815189793,1550.0,1550.0,1550.0,1550.0,0.0,0.0
1565338439865522345,1550.0,1550.0,1550.0,1550.0,0.0,0.0
1565338439915792397,1550.0,1550.0,1550.0,1550.0,0.0,0.0
1565338439964792658,1550.0,1600.0,1600.0,1550.0,0.0,0.0
1565338440015391616,1550.0,1600.0,1600.0,1550.0,0.0,0.0
1565338440065136512,1550.0,1550.0,1550.0,1550.0,0.0,0.0
1565338440115564689,1550.0,1550.0,1550.0,1550.0,0.0,0.0
1565338440165056355,1550.0,1550.0,1550.0,1550.0,0.0,0.0
1565338440214900835,1550.0,1550.0,1550.0,1550.0,0.0,0.0
1565338440264884741,1550.0,1550.0,1550.0,1550.0,0.0,0.0
1565338440315685314,1550.0,1550.0,1550.0,1550.0,0.0,0.0
1565338440364784793,1550.0,1550.0,1550.0,1550.0,0.0,0.0
1565338440415231876,1550.0,1550.0,1550.0,1550.0,0.0,0.0
1565338440464981876,1550.0,1550.0,1550.0,1550.0,0.0,0.0
1565338440515463178,1550.0,1550.0,1550.0,1550.0,0.0,0.0
1565338440565393751,1550.0,1600.0,1600.0,1550.0,0.0,0.0
1565338440615380470,1550.0,1600.0,1600.0,1550.0,0.0,0.0
1565338440665818334,1550.0,1600.0,1600.0,1550.0,0.0,0.0
1565338440715172397,1550.0,1550.0,1550.0,1550.0,0.0,0.0
1565338440765308543,1550.0,1550.0,1550.0,1550.0,0.0,0.0
1565338440815484688,1550.0,1550.0,1550.0,1550.0,0.0,0.0
1565338440864984741,1550.0,1550.0,1550.0,1550.0,0.0,0.0
1565338440915529584,1550.0,1550.0,1550.0,1550.0,0.0,0.0
1565338440964932813,1550.0,1550.0,1550.0,1550.0,0.0,0.0
1565338441015119324,1550.0,1550.0,1550.0,1550.0,0.0,0.0
1565338441064961355,1550.0,1550.0,1550.0,1550.0,0.0,0.0
1565338441114909897,1550.0,1550.0,1550.0,1550.0,0.0,0.0
1565338441164922240,1550.0,1600.0,1600.0,1550.0,0.0,0.0
1565338441215403126,1550.0,1600.0,1600.0,1550.0,0.0,0.0
1565338441265935417,1550.0,1600.0,1600.0,1550.0,0.0,0.0
1565338441315712865,1550.0,1550.0,1550.0,1550.0,0.0,0.0
1565338441365330470,1550.0,1550.0,1550.0,1550.0,0.0,0.0
1565338441415113230,1550.0,1550.0,1550.0,1550.0,0.0,0.0
1565338441465205678,1550.0,1550.0,1550.0,1550.0,0.0,0.0
1565338441515204167,1550.0,1550.0,1550.0,1550.0,0.0,0.0
1565338441565148907,1550.0,1600.0,1600.0,1550.0,0.0,0.0
1565338441615465626,1550.0,1600.0,1600.0,1550.0,0.0,0.0
1565338441665513699,1550.0,1550.0,1550.0,1550.0,0.0,0.0
1565338441715286199,1550.0,1550.0,1550.0,1550.0,0.0,0.0
1565338441765708907,1550.0,1550.0,1550.0,1550.0,0.0,0.0
1565338441816160938,1550.0,1550.0,1550.0,1550.0,0.0,0.0
1565338441865995313,1550.0,1550.0,1550.0,1550.0,0.0,0.0
1565338441915593438,1550.0,1550.0,1550.0,1550.0,0.0,0.0
1565338441965848282,1550.0,1550.0,1550.0,1550.0,0.0,0.0
1565338442016174896,1550.0,1550.0,1550.0,1550.0,0.0,0.0
1565338442065632605,1550.0,1550.0,1550.0,1550.0,0.0,0.0
1565338442116101511,1550.0,1584.266904,1584.266904,1550.0,0.0,0.0
1565338442165461563,1550.0,1584.266904,1584.266904,1550.0,0.0,0.0
1565338442215434115,1550.0,1550.0,1550.0,1550.0,0.0,0.0
1565338442265540938,1550.0,1550.0,1550.0,1550.0,0.0,0.0
1565338442315558959,1550.0,1550.0,1550.0,1550.0,0.0,0.0
1565338442365625105,1550.0,1550.0,1550.0,1550.0,0.0,0.0
1565338442416219584,1550.0,1550.0,1550.0,1550.0,0.0,0.0
1565338442465601771,1550.0,1552.79589705,1552.79589705,1550.0,0.0,0.0
1565338442515271563,1550.0,1552.79589705,1552.79589705,1550.0,0.0,0.0
1565338442565119636,1550.0,1552.79589705,1552.79589705,1550.0,0.0,0.0
1565338442614884688,1550.0,1550.0,1550.0,1550.0,0.0,0.0
1565338442664896042,1550.0,1550.0,1550.0,1550.0,0.0,0.0
1565338442715780104,1550.0,1570.15932202,1570.15932202,1550.0,0.0,0.0
1565338442765058750,1550.0,1570.15932202,1570.15932202,1550.0,0.0,0.0
1565338442814644323,1550.0,1550.0,1550.0,1550.0,0.0,0.0
1565338442864983281,1550.0,1550.0,1550.0,1550.0,0.0,0.0
1565338442914731042,1550.0,1550.0,1550.0,1550.0,0.0,0.0
1565338442965812604,1550.0,1550.0,1550.0,1550.0,0.0,0.0
1565338443014948698,1550.0,1600.0,1600.0,1550.0,0.0,0.0
1565338443065141979,1550.0,1600.0,1600.0,1550.0,0.0,0.0
1565338443115314896,1550.0,1600.0,1600.0,1550.0,0.0,0.0
1565338443164947760,1550.0,1550.0,1550.0,1550.0,0.0,0.0
1565338443215176042,1550.0,1550.0,1550.0,1550.0,0.0,0.0
1565338443264942917,1550.0,1550.0,1550.0,1550.0,0.0,0.0
1565338443314927240,1550.0,1550.0,1550.0,1550.0,0.0,0.0
1565338443365002917,1550.0,1550.0,1550.0,1550.0,0.0,0.0
1565338443414604427,1550.0,1550.0,1550.0,1550.0,0.0,0.0
1565338443465120365,1550.0,1550.0,1550.0,1550.0,0.0,0.0
1565338443515568750,1550.0,1550.0,1550.0,1550.0,0.0,0.0
1565338443566096510,1550.0,1550.0,1550.0,1550.0,0.0,0.0
1565338443615132448,1550.0,1550.0,1550.0,1550.0,0.0,0.0
1565338443665167552,1550.0,1550.0,1550.0,1550.0,0.0,0.0
1565338443715805677,1550.0,1550.0,1550.0,1550.0,0.0,0.0
1565338443765168021,1550.0,1550.0,1550.0,1550.0,0.0,0.0
1565338443815178802,1550.0,1550.0,1550.0,1550.0,0.0,0.0
1565338443865098437,1550.0,1550.0,1550.0,1550.0,0.0,0.0
1565338443915321771,1550.0,1550.0,1550.0,1550.0,0.0,0.0
1565338443965165260,1550.0,1550.0,1550.0,1550.0,0.0,0.0
1565338444015692812,1550.0,1550.0,1550.0,1550.0,0.0,0.0
1565338444065213125,1550.0,1550.0,1550.0,1550.0,0.0,0.0
1565338444115585052,1550.0,1550.0,1550.0,1550.0,0.0,0.0
1565338444165362083,1550.0,1550.0,1550.0,1550.0,0.0,0.0
1565338444215290260,1550.0,1550.0,1550.0,1550.0,0.0,0.0
1565338444265231041,1550.0,1550.0,1550.0,1550.0,0.0,0.0
1565338444315311354,1550.0,1550.0,1550.0,1550.0,0.0,0.0
1565338444365204218,1550.0,1550.0,1550.0,1550.0,0.0,0.0
1565338444415272239,1550.0,1550.0,1550.0,1550.0,0.0,0.0
1565338444465135312,1550.0,1550.0,1550.0,1550.0,0.0,0.0
1565338444515481770,1550.0,1550.0,1550.0,1550.0,0.0,0.0
1565338444565198020,1550.0,1550.0,1550.0,1550.0,0.0,0.0
1565338444614961041,1550.0,1550.0,1550.0,1550.0,0.0,0.0
1565338444665478229,1550.0,1550.0,1550.0,1550.0,0.0,0.0
1565338444714831197,1550.0,1550.0,1550.0,1550.0,0.0,0.0
1565338444765498124,1550.0,1550.0,1550.0,1550.0,0.0,0.0
1565338444815174166,1550.0,1550.0,1550.0,1550.0,0.0,0.0
1565338444865317812,1550.0,1550.0,1550.0,1550.0,0.0,0.0
1565338444915417812,1550.0,1600.0,1600.0,1550.0,0.0,0.0
1565338444965300051,1550.0,1600.0,1600.0,1550.0,0.0,0.0
1565338445015040104,1550.0,1600.0,1600.0,1550.0,0.0,0.0
1565338445065289687,1550.0,1600.0,1600.0,1550.0,0.0,0.0
1565338445115979010,1550.0,1550.0,1550.0,1550.0,0.0,0.0
1565338445165312864,1550.0,1550.0,1550.0,1550.0,0.0,0.0
1565338445215233853,1550.0,1550.0,1550.0,1550.0,0.0,0.0
1565338445265388437,1550.0,1550.0,1550.0,1550.0,0.0,0.0
1565338445314888906,1550.0,1550.0,1550.0,1550.0,0.0,0.0
1565338445365591093,1550.0,1550.0,1550.0,1550.0,0.0,0.0
1565338445415186145,1550.0,1550.0,1550.0,1550.0,0.0,0.0
1565338445465055468,1550.0,1550.0,1550.0,1550.0,0.0,0.0
1565338445514737239,1550.0,1550.0,1550.0,1550.0,0.0,0.0
1565338445565320780,1550.0,1550.0,1550.0,1550.0,0.0,0.0
1565338445615253697,1550.0,1550.0,1550.0,1550.0,0.0,0.0
1565338445665172551,1550.0,1550.0,1550.0,1550.0,0.0,0.0
1565338445715625832,1550.0,1550.0,1550.0,1550.0,0.0,0.0
1565338445765114062,1550.0,1550.0,1550.0,1550.0,0.0,0.0
1565338445815410572,1550.0,1550.0,1550.0,1550.0,0.0,0.0
1565338445865255468,1550.0,1550.0,1550.0,1550.0,0.0,0.0
1565338445915064791,1550.0,1550.0,1550.0,1550.0,0.0,0.0
1565338445964812082,1550.0,1550.0,1550.0,1550.0,0.0,0.0
1565338446015888905,1550.0,1550.0,1550.0,1550.0,0.0,0.0
1565338446065315884,1550.0,1550.0,1550.0,1550.0,0.0,0.0
1565338446115821249,1550.0,1550.0,1550.0,1550.0,0.0,0.0
1565338446165171353,1550.0,1550.0,1550.0,1550.0,0.0,0.0
1565338446215033905,1550.0,1550.0,1550.0,1550.0,0.0,0.0
1565338446265346978,1550.0,1550.0,1550.0,1550.0,0.0,0.0
1565338446315193905,1550.0,1563.10472786,1563.10472786,1550.0,0.0,0.0
1565338446365142707,1550.0,1563.10472786,1563.10472786,1550.0,0.0,0.0
1565338446414985259,1550.0,1563.10472786,1563.10472786,1550.0,0.0,0.0
1565338446464988020,1550.0,1573.95646721,1573.95646721,1550.0,0.0,0.0
1565338446515095676,1550.0,1573.95646721,1573.95646721,1550.0,0.0,0.0
1565338446565219113,1550.0,1600.0,1600.0,1550.0,0.0,0.0
1565338446615044218,1550.0,1600.0,1600.0,1550.0,0.0,0.0
1565338446665224790,1550.0,1600.0,1600.0,1550.0,0.0,0.0
1565338446715978853,1550.0,1600.0,1600.0,1550.0,0.0,0.0
1565338446765376978,1550.0,1600.0,1600.0,1550.0,0.0,0.0
1565338446815184738,1550.0,1550.0,1550.0,1550.0,0.0,0.0
1565338446865336405,1550.0,1550.0,1550.0,1550.0,0.0,0.0
1565338446916028905,1550.0,1550.0,1550.0,1550.0,0.0,0.0
1565338446965284269,1550.0,1550.0,1550.0,1550.0,0.0,0.0
1565338447015213905,1550.0,1550.0,1550.0,1550.0,0.0,0.0
1565338447064704322,1550.0,1550.0,1550.0,1550.0,0.0,0.0
1565338447115796821,1550.0,1550.0,1550.0,1550.0,0.0,0.0
1565338447165434686,1550.0,1550.0,1550.0,1550.0,0.0,0.0
1565338447214876926,1550.0,1550.0,1550.0,1550.0,0.0,0.0
1565338447266599842,1550.0,1550.0,1550.0,1550.0,0.0,0.0
1565338447315273905,1550.0,1550.0,1550.0,1550.0,0.0,0.0
1565338447365208384,1550.0,1550.0,1550.0,1550.0,0.0,0.0
1565338447415206561,1550.0,1550.0,1550.0,1550.0,0.0,0.0
1565338447465219998,1550.0,1550.0,1550.0,1550.0,0.0,0.0
1565338447515174373,1550.0,1550.0,1550.0,1550.0,0.0,0.0
1565338447565006040,1550.0,1550.0,1550.0,1550.0,0.0,0.0
1565338447615010415,1550.0,1550.0,1550.0,1550.0,0.0,0.0
1565338447665140050,1550.0,1550.0,1550.0,1550.0,0.0,0.0
1565338447715660571,1550.0,1550.0,1550.0,1550.0,0.0,0.0
1565338447765098019,1550.0,1584.266904,1584.266904,1550.0,0.0,0.0
1565338447815114530,1550.0,1584.266904,1584.266904,1550.0,0.0,0.0
1565338447865111977,1550.0,1588.60695958,1588.60695958,1550.0,0.0,0.0
1565338447915188019,1550.0,1588.60695958,1588.60695958,1550.0,0.0,0.0
1565338447964961196,1550.0,1588.60695958,1588.60695958,1550.0,0.0,0.0
1565338448014993800,1550.0,1550.0,1550.0,1550.0,0.0,0.0
1565338448065095623,1550.0,1550.0,1550.0,1550.0,0.0,0.0
1565338448115387082,1550.0,1550.0,1550.0,1550.0,0.0,0.0
1565338448164741196,1550.0,1550.0,1550.0,1550.0,0.0,0.0
1565338448215306769,1550.0,1550.0,1550.0,1550.0,0.0,0.0
1565338448265232706,1550.0,1550.0,1550.0,1550.0,0.0,0.0
1565338448314873800,1550.0,1550.0,1550.0,1550.0,0.0,0.0
1565338448365108384,1550.0,1550.0,1550.0,1550.0,0.0,0.0
1565338448414900675,1550.0,1550.0,1550.0,1550.0,0.0,0.0
1565338448464931248,1550.0,1600.0,1600.0,1550.0,0.0,0.0
1565338448515029269,1550.0,1600.0,1600.0,1550.0,0.0,0.0
1565338448565222602,1550.0,1600.0,1600.0,1550.0,0.0,0.0
1565338448614947185,1550.0,1550.0,1550.0,1550.0,0.0,0.0
1565338448665082342,1550.0,1550.0,1550.0,1550.0,0.0,0.0
1565338448715309842,1550.0,1550.0,1550.0,1550.0,0.0,0.0
1565338448765104529,1550.0,1594.57573593,1594.57573593,1550.0,0.0,0.0
1565338448814947290,1550.0,1594.57573593,1594.57573593,1550.0,0.0,0.0
1565338448865741717,1550.0,1550.0,1550.0,1550.0,0.0,0.0
1565338448915591612,1550.0,1550.0,1550.0,1550.0,0.0,0.0
1565338448964983800,1550.0,1550.0,1550.0,1550.0,0.0,0.0
1565338449014945571,1550.0,1550.0,1550.0,1550.0,0.0,0.0
1565338449064981560,1550.0,1550.0,1550.0,1550.0,0.0,0.0
1565338449115054789,1550.0,1550.0,1550.0,1550.0,0.0,0.0
1565338449164893644,1550.0,1600.0,1600.0,1550.0,0.0,0.0
1565338449214990779,1550.0,1600.0,1600.0,1550.0,0.0,0.0
1565338449264979373,1550.0,1600.0,1600.0,1550.0,0.0,0.0
1565338449314912341,1550.0,1550.0,1550.0,1550.0,0.0,0.0
1565338449365488331,1550.0,1550.0,1550.0,1550.0,0.0,0.0
1565338449415370310,1550.0,1550.0,1550.0,1550.0,0.0,0.0
1565338449465054633,1550.0,1550.0,1550.0,1550.0,0.0,0.0
1565338449516032654,1550.0,1550.0,1550.0,1550.0,0.0,0.0
1565338449564905466,1550.0,1550.0,1550.0,1550.0,0.0,0.0
1565338449614915623,1550.0,1550.0,1550.0,1550.0,0.0,0.0
1565338449664920675,1550.0,1550.0,1550.0,1550.0,0.0,0.0
1565338449714984685,1550.0,1550.0,1550.0,1550.0,0.0,0.0
1565338449765132706,1550.0,1550.0,1550.0,1550.0,0.0,0.0
1565338449814970883,1550.0,1550.0,1550.0,1550.0,0.0,0.0
1565338449865219164,1550.0,1550.0,1550.0,1550.0,0.0,0.0
1565338449915330154,1550.0,1550.0,1550.0,1550.0,0.0,0.0
1565338449965152081,1550.0,1550.0,1550.0,1550.0,0.0,0.0
1565338450015088747,1550.0,1550.0,1550.0,1550.0,0.0,0.0
1565338450065123070,1550.0,1550.0,1550.0,1550.0,0.0,0.0
1565338450115023800,1550.0,1550.0,1550.0,1550.0,0.0,0.0
1565338450165101872,1550.0,1550.0,1550.0,1550.0,0.0,0.0
1565338450214702029,1550.0,1550.0,1550.0,1550.0,0.0,0.0
1565338450265125779,1550.0,1550.0,1550.0,1550.0,0.0,0.0
1565338450315056820,1550.0,1550.0,1550.0,1550.0,0.0,0.0
1565338450365149268,1550.0,1550.0,1550.0,1550.0,0.0,0.0
1565338450414888695,1550.0,1550.0,1550.0,1550.0,0.0,0.0
1565338450464876351,1550.0,1550.0,1550.0,1550.0,0.0,0.0
1565338450515342758,1550.0,1595.11864483,1595.11864483,1550.0,0.0,0.0
1565338450564677862,1550.0,1595.11864483,1595.11864483,1550.0,0.0,0.0
1565338450615099945,1550.0,1595.11864483,1595.11864483,1550.0,0.0,0.0
1565338450666705518,1550.0,1550.0,1550.0,1550.0,0.0,0.0
1565338450715103591,1550.0,1550.0,1550.0,1550.0,0.0,0.0
1565338450765092081,1550.0,1550.0,1550.0,1550.0,0.0,0.0
1565338450814930049,1550.0,1561.47760972,1561.47760972,1550.0,0.0,0.0
1565338450864930362,1550.0,1561.47760972,1561.47760972,1550.0,0.0,0.0
1565338450914680101,1550.0,1550.0,1550.0,1550.0,0.0,0.0
1565338450965179580,1550.0,1550.0,1550.0,1550.0,0.0,0.0
1565338451015011664,1550.0,1550.0,1550.0,1550.0,0.0,0.0
1565338451064970778,1550.0,1550.0,1550.0,1550.0,0.0,0.0
1565338451115536351,1550.0,1550.0,1550.0,1550.0,0.0,0.0
1565338451164916143,1550.0,1550.0,1550.0,1550.0,0.0,0.0
1565338451214963226,1550.0,1550.0,1550.0,1550.0,0.0,0.0
1565338451265064997,1550.0,1550.0,1550.0,1550.0,0.0,0.0
1565338451315955830,1550.0,1600.0,1600.0,1550.0,0.0,0.0
1565338451364969684,1550.0,1600.0,1600.0,1550.0,0.0,0.0
1565338451415110882,1550.0,1600.0,1600.0,1550.0,0.0,0.0
1565338451466410101,1550.0,1550.0,1550.0,1550.0,0.0,0.0
1565338451515033486,1550.0,1550.0,1550.0,1550.0,0.0,0.0
1565338451565079893,1550.0,1550.0,1550.0,1550.0,0.0,0.0
1565338451614905726,1550.0,1550.0,1550.0,1550.0,0.0,0.0
1565338451665324111,1550.0,1550.0,1550.0,1550.0,0.0,0.0
1565338451716616507,1550.0,1550.0,1550.0,1550.0,0.0,0.0
1565338451765667393,1550.0,1550.0,1550.0,1550.0,0.0,0.0
1565338451815493018,1550.0,1550.0,1550.0,1550.0,0.0,0.0
1565338451865135830,1550.0,1550.0,1550.0,1550.0,0.0,0.0
1565338451915036143,1550.0,1596.20446265,1596.20446265,1550.0,0.0,0.0
1565338451965583643,1550.0,1596.20446265,1596.20446265,1550.0,0.0,0.0
1565338452015782705,1550.0,1550.0,1550.0,1550.0,0.0,0.0
1565338452066376559,1550.0,1550.0,1550.0,1550.0,0.0,0.0
1565338452115023330,1550.0,1550.0,1550.0,1550.0,0.0,0.0
1565338452164887392,1550.0,1550.0,1550.0,1550.0,0.0,0.0
1565338452216085465,1550.0,1550.0,1550.0,1550.0,0.0,0.0
1565338452264932184,1550.0,1550.0,1550.0,1550.0,0.0,0.0
1565338452315287028,1550.0,1550.0,1550.0,1550.0,0.0,0.0
1565338452365087705,1550.0,1550.0,1550.0,1550.0,0.0,0.0
1565338452415089267,1550.0,1550.0,1550.0,1550.0,0.0,0.0
1565338452465035569,1550.0,1550.0,1550.0,1550.0,0.0,0.0
1565338452514952757,1550.0,1550.0,1550.0,1550.0,0.0,0.0
1565338452564988642,1550.0,1550.0,1550.0,1550.0,0.0,0.0
1565338452615015830,1550.0,1550.0,1550.0,1550.0,0.0,0.0
1565338452665071351,1550.0,1550.0,1550.0,1550.0,0.0,0.0
1565338452714689267,1550.0,1550.0,1550.0,1550.0,0.0,0.0
1565338452765077705,1550.0,1550.0,1550.0,1550.0,0.0,0.0
1565338452815616819,1550.0,1550.0,1550.0,1550.0,0.0,0.0
1565338452865482236,1550.0,1596.20446265,1596.20446265,1550.0,0.0,0.0
1565338452915214788,1550.0,1596.20446265,1596.20446265,1550.0,0.0,0.0
1565338452965151507,1550.0,1600.0,1600.0,1550.0,0.0,0.0
1565338453014763330,1550.0,1600.0,1600.0,1550.0,0.0,0.0
1565338453065124996,1550.0,1600.0,1600.0,1550.0,0.0,0.0
1565338453115367028,1550.0,1600.0,1600.0,1550.0,0.0,0.0
1565338453164996663,1550.0,1600.0,1600.0,1550.0,0.0,0.0
1565338453214977027,1550.0,1600.0,1600.0,1550.0,0.0,0.0
1565338453265032600,1550.0,1600.0,1600.0,1550.0,0.0,0.0
1565338453314984580,1550.0,1600.0,1600.0,1550.0,0.0,0.0
1565338453364908382,1550.0,1600.0,1600.0,1550.0,0.0,0.0
1565338453415942444,1550.0,1600.0,1600.0,1550.0,0.0,0.0
1565338453466325829,1550.0,1600.0,1600.0,1550.0,0.0,0.0
1565338453516271819,1550.0,1600.0,1600.0,1550.0,0.0,0.0
1565338453565860465,1550.0,1600.0,1600.0,1550.0,0.0,0.0
1565338453615279788,1550.0,1600.0,1600.0,1550.0,0.0,0.0
1565338453665100829,1550.0,1600.0,1600.0,1550.0,0.0,0.0
1565338453715047600,1550.0,1600.0,1600.0,1550.0,0.0,0.0
1565338453764979527,1550.0,1600.0,1600.0,1550.0,0.0,0.0
1565338453814982392,1550.0,1600.0,1600.0,1550.0,0.0,0.0
1565338453865037756,1550.0,1600.0,1600.0,1550.0,0.0,0.0
1565338453915223381,1550.0,1600.0,1600.0,1550.0,0.0,0.0
1565338453965112652,1550.0,1550.0,1550.0,1550.0,0.0,0.0
1565338454015193798,1550.0,1550.0,1550.0,1550.0,0.0,0.0
1565338454065228381,1550.0,1550.0,1550.0,1550.0,0.0,0.0
1565338454115431506,1550.0,1550.0,1550.0,1550.0,0.0,0.0
1565338454165579006,1550.0,1550.0,1550.0,1550.0,0.0,0.0
1565338454215161402,1550.0,1550.0,1550.0,1550.0,0.0,0.0
1565338454265080308,1550.0,1550.0,1550.0,1550.0,0.0,0.0
1565338454315081610,1550.0,1550.0,1550.0,1550.0,0.0,0.0
1565338454365602340,1550.0,1550.0,1550.0,1550.0,0.0,0.0
1565338454415175933,1550.0,1550.0,1550.0,1550.0,0.0,0.0
1565338454465196767,1550.0,1550.0,1550.0,1550.0,0.0,0.0
1565338454515179110,1550.0,1550.0,1550.0,1550.0,0.0,0.0
1565338454565110256,1550.0,1550.0,1550.0,1550.0,0.0,0.0
1565338454614948069,1550.0,1550.0,1550.0,1550.0,0.0,0.0
1565338454665048173,1550.0,1550.0,1550.0,1550.0,0.0,0.0
1565338454715009631,1550.0,1550.0,1550.0,1550.0,0.0,0.0
1565338454765764839,1550.0,1550.0,1550.0,1550.0,0.0,0.0
1565338454815154475,1550.0,1550.0,1550.0,1550.0,0.0,0.0
1565338454865118641,1550.0,1550.0,1550.0,1550.0,0.0,0.0
1565338454915064423,1550.0,1550.0,1550.0,1550.0,0.0,0.0
1565338454964800881,1550.0,1550.0,1550.0,1550.0,0.0,0.0
1565338455015392652,1550.0,1550.0,1550.0,1550.0,0.0,0.0
1565338455064829527,1550.0,1550.0,1550.0,1550.0,0.0,0.0
1565338455115117079,1550.0,1550.0,1550.0,1550.0,0.0,0.0
1565338455164689943,1550.0,1550.0,1550.0,1550.0,0.0,0.0
1565338455215350464,1550.0,1550.0,1550.0,1550.0,0.0,0.0
1565338455264675568,1550.0,1550.0,1550.0,1550.0,0.0,0.0
1565338455314864214,1550.0,1550.0,1550.0,1550.0,0.0,0.0
1565338455365194735,1550.0,1550.0,1550.0,1550.0,0.0,0.0
1565338455414773954,1550.0,1595.11864483,1595.11864483,1550.0,0.0,0.0
1565338455464848641,1550.0,1595.11864483,1595.11864483,1550.0,0.0,0.0
1565338455515130829,1550.0,1595.11864483,1595.11864483,1550.0,0.0,0.0
1565338455564899475,1550.0,1550.0,1550.0,1550.0,0.0,0.0
1565338455614946870,1550.0,1550.0,1550.0,1550.0,0.0,0.0
1565338455665170829,1550.0,1550.0,1550.0,1550.0,0.0,0.0
1565338455714831193,1550.0,1550.0,1550.0,1550.0,0.0,0.0
1565338455764829162,1550.0,1550.0,1550.0,1550.0,0.0,0.0
1565338455814818901,1550.0,1600.0,1600.0,1550.0,0.0,0.0
1565338455864808224,1550.0,1600.0,1600.0,1550.0,0.0,0.0
1565338455914829943,1550.0,1550.0,1550.0,1550.0,0.0,0.0
1565338455966838329,1550.0,1550.0,1550.0,1550.0,0.0,0.0
1565338456017038485,1550.0,1550.0,1550.0,1550.0,0.0,0.0
1565338456065970828,1550.0,1550.0,1550.0,1550.0,0.0,0.0
1565338456116030151,1550.0,1550.0,1550.0,1550.0,0.0,0.0
1565338456165328328,1550.0,1550.0,1550.0,1550.0,0.0,0.0
1565338456215638485,1550.0,1589.14986551,1589.14986551,1550.0,0.0,0.0
1565338456265087235,1550.0,1589.14986551,1589.14986551,1550.0,0.0,0.0
1565338456315053589,1550.0,1570.15932202,1570.15932202,1550.0,0.0,0.0
1565338456365073901,1550.0,1570.15932202,1570.15932202,1550.0,0.0,0.0
1565338456415010828,1550.0,1550.0,1550.0,1550.0,0.0,0.0
1565338456465409526,1550.0,1550.0,1550.0,1550.0,0.0,0.0
1565338456515030620,1550.0,1550.0,1550.0,1550.0,0.0,0.0
1565338456565073172,1550.0,1550.0,1550.0,1550.0,0.0,0.0
1565338456615093953,1550.0,1550.0,1550.0,1550.0,0.0,0.0
1565338456665034318,1550.0,1550.0,1550.0,1550.0,0.0,0.0
1565338456715021557,1550.0,1550.0,1550.0,1550.0,0.0,0.0
1565338456764965672,1550.0,1550.0,1550.0,1550.0,0.0,0.0
1565338456814921609,1550.0,1550.0,1550.0,1550.0,0.0,0.0
1565338456864979266,1550.0,1550.0,1550.0,1550.0,0.0,0.0
1565338456915135464,1550.0,1550.0,1550.0,1550.0,0.0,0.0
1565338456964958432,1550.0,1550.0,1550.0,1550.0,0.0,0.0
1565338457014695776,1550.0,1550.0,1550.0,1550.0,0.0,0.0
1565338457065260359,1550.0,1550.0,1550.0,1550.0,0.0,0.0
1565338457115054943,1550.0,1589.69277442,1589.69277442,1550.0,0.0,0.0
1565338457165102026,1550.0,1589.69277442,1589.69277442,1550.0,0.0,0.0
1565338457214969109,1550.0,1600.0,1600.0,1550.0,0.0,0.0
1565338457264975255,1550.0,1600.0,1600.0,1550.0,0.0,0.0
1565338457315429474,1550.0,1600.0,1600.0,1550.0,0.0,0.0
1565338457365154057,1550.0,1600.0,1600.0,1550.0,0.0,0.0
1565338457415352495,1550.0,1600.0,1600.0,1550.0,0.0,0.0
1565338457465436401,1550.0,1600.0,1600.0,1550.0,0.0,0.0
1565338457515580984,1550.0,1600.0,1600.0,1550.0,0.0,0.0
1565338457564967495,1550.0,1600.0,1600.0,1550.0,0.0,0.0
1565338457615059317,1550.0,1600.0,1600.0,1550.0,0.0,0.0
1565338457665066245,1550.0,1600.0,1600.0,1550.0,0.0,0.0
1565338457715735463,1550.0,1600.0,1600.0,1550.0,0.0,0.0
1565338457764894370,1550.0,1600.0,1600.0,1550.0,0.0,0.0
1565338457815273588,1550.0,1600.0,1600.0,1550.0,0.0,0.0
1565338457865159422,1550.0,1600.0,1600.0,1550.0,0.0,0.0
1565338457915064578,1550.0,1600.0,1600.0,1550.0,0.0,0.0
1565338457964950984,1550.0,1600.0,1600.0,1550.0,0.0,0.0
1565338458014973380,1550.0,1600.0,1600.0,1550.0,0.0,0.0
1565338458064994578,1550.0,1600.0,1600.0,1550.0,0.0,0.0
1565338458115852182,1550.0,1600.0,1600.0,1550.0,0.0,0.0
1565338458164975359,1550.0,1600.0,1600.0,1550.0,0.0,0.0
1565338458215112026,1550.0,1600.0,1600.0,1550.0,0.0,0.0
1565338458264723901,1550.0,1600.0,1600.0,1550.0,0.0,0.0
1565338458314686557,1550.0,1600.0,1600.0,1550.0,0.0,0.0
1565338458365239213,1550.0,1600.0,1600.0,1550.0,0.0,0.0
1565338458415025203,1550.0,1600.0,1600.0,1550.0,0.0,0.0
1565338458465244161,1550.0,1600.0,1600.0,1550.0,0.0,0.0
1565338458515408953,1550.0,1550.0,1550.0,1550.0,0.0,0.0
1565338458564926296,1550.0,1550.0,1550.0,1550.0,0.0,0.0
1565338458614980984,1550.0,1550.0,1550.0,1550.0,0.0,0.0
1565338458665042234,1550.0,1550.0,1550.0,1550.0,0.0,0.0
1565338458714979265,1550.0,1550.0,1550.0,1550.0,0.0,0.0
1565338458764961400,1550.0,1550.0,1550.0,1550.0,0.0,0.0
1565338458814998588,1550.0,1550.0,1550.0,1550.0,0.0,0.0
1565338458865596192,1550.0,1550.0,1550.0,1550.0,0.0,0.0
1565338458915455932,1550.0,1550.0,1550.0,1550.0,0.0,0.0
1565338458964973640,1550.0,1550.0,1550.0,1550.0,0.0,0.0
1565338459014734890,1550.0,1550.0,1550.0,1550.0,0.0,0.0
1565338459065145411,1550.0,1550.0,1550.0,1550.0,0.0,0.0
1565338459115572650,1550.0,1550.0,1550.0,1550.0,0.0,0.0
1565338459165211192,1550.0,1550.0,1550.0,1550.0,0.0,0.0
1565338459215063848,1550.0,1550.0,1550.0,1550.0,0.0,0.0
1565338459265190202,1550.0,1550.0,1550.0,1550.0,0.0,0.0
1565338459315368952,1550.0,1550.0,1550.0,1550.0,0.0,0.0
1565338459365052754,1550.0,1550.0,1550.0,1550.0,0.0,0.0
1565338459415071244,1550.0,1550.0,1550.0,1550.0,0.0,0.0
1565338459465008275,1550.0,1550.0,1550.0,1550.0,0.0,0.0
1565338459515329838,1550.0,1550.0,1550.0,1550.0,0.0,0.0
1565338459565157181,1550.0,1550.0,1550.0,1550.0,0.0,0.0
1565338459615176452,1550.0,1550.0,1550.0,1550.0,0.0,0.0
1565338459664975202,1550.0,1550.0,1550.0,1550.0,0.0,0.0
1565338459716174473,1550.0,1550.0,1550.0,1550.0,0.0,0.0
1565338459765087025,1550.0,1550.0,1550.0,1550.0,0.0,0.0
1565338459815492702,1550.0,1550.0,1550.0,1550.0,0.0,0.0
1565338459865249212,1550.0,1550.0,1550.0,1550.0,0.0,0.0
1565338459915423900,1550.0,1550.0,1550.0,1550.0,0.0,0.0
1565338459965168796,1550.0,1550.0,1550.0,1550.0,0.0,0.0
1565338460015486139,1550.0,1550.0,1550.0,1550.0,0.0,0.0
1565338460065219473,1550.0,1550.0,1550.0,1550.0,0.0,0.0
1565338460115416660,1550.0,1550.0,1550.0,1550.0,0.0,0.0
1565338460165241139,1550.0,1550.0,1550.0,1550.0,0.0,0.0
1565338460215171921,1550.0,1550.0,1550.0,1550.0,0.0,0.0
1565338460265170983,1550.0,1588.06565702,1588.06565702,1550.0,0.0,0.0
1565338460315580306,1550.0,1588.06565702,1588.06565702,1550.0,0.0,0.0
1565338460365149004,1550.0,1550.0,1550.0,1550.0,0.0,0.0
1565338460415016087,1550.0,1550.0,1550.0,1550.0,0.0,0.0
1565338460465019525,1550.0,1550.0,1550.0,1550.0,0.0,0.0
1565338460515502441,1550.0,1550.0,1550.0,1550.0,0.0,0.0
1565338460564739160,1550.0,1550.0,1550.0,1550.0,0.0,0.0
1565338460615693379,1550.0,1550.0,1550.0,1550.0,0.0,0.0
1565338460665208379,1550.0,1550.0,1550.0,1550.0,0.0,0.0
1565338460715703483,1550.0,1600.0,1600.0,1550.0,0.0,0.0
1565338460764927806,1550.0,1600.0,1600.0,1550.0,0.0,0.0
1565338460815219056,1550.0,1600.0,1600.0,1550.0,0.0,0.0
1565338460864686347,1550.0,1550.0,1550.0,1550.0,0.0,0.0
1565338460915482910,1550.0,1550.0,1550.0,1550.0,0.0,0.0
1565338460965139993,1550.0,1550.0,1550.0,1550.0,0.0,0.0
1565338461015033587,1550.0,1550.0,1550.0,1550.0,0.0,0.0
1565338461064647962,1550.0,1550.0,1550.0,1550.0,0.0,0.0
1565338461115923274,1550.0,1550.0,1550.0,1550.0,0.0,0.0
1565338461165401972,1550.0,1550.0,1550.0,1550.0,0.0,0.0
1565338461214970618,1550.0,1550.0,1550.0,1550.0,0.0,0.0
1565338461265323795,1550.0,1550.0,1550.0,1550.0,0.0,0.0
1565338461315969160,1550.0,1550.0,1550.0,1550.0,0.0,0.0
1565338461365030566,1550.0,1550.0,1550.0,1550.0,0.0,0.0
1565338461415200566,1550.0,1550.0,1550.0,1550.0,0.0,0.0
1565338461465411347,1550.0,1550.0,1550.0,1550.0,0.0,0.0
1565338461515768951,1550.0,1550.0,1550.0,1550.0,0.0,0.0
1565338461565561399,1550.0,1550.0,1550.0,1550.0,0.0,0.0
1565338461615095253,1550.0,1550.0,1550.0,1550.0,0.0,0.0
1565338461664922337,1550.0,1589.14986551,1589.14986551,1550.0,0.0,0.0
1565338461715145878,1550.0,1589.14986551,1589.14986551,1550.0,0.0,0.0
1565338461764986764,1550.0,1600.0,1600.0,1550.0,0.0,0.0
1565338461815027493,1550.0,1600.0,1600.0,1550.0,0.0,0.0
1565338461865307441,1550.0,1600.0,1600.0,1550.0,0.0,0.0
1565338461915940462,1550.0,1600.0,1600.0,1550.0,0.0,0.0
1565338461965480566,1550.0,1600.0,1600.0,1550.0,0.0,0.0
1565338462015082128,1550.0,1600.0,1600.0,1550.0,0.0,0.0
1565338462064710722,1550.0,1600.0,1600.0,1550.0,0.0,0.0
1565338462115127024,1550.0,1600.0,1600.0,1550.0,0.0,0.0
1565338462165337024,1550.0,1600.0,1600.0,1550.0,0.0,0.0
1565338462215326868,1550.0,1600.0,1600.0,1550.0,0.0,0.0
1565338462265301139,1550.0,1600.0,1600.0,1550.0,0.0,0.0
1565338462315383795,1550.0,1600.0,1600.0,1550.0,0.0,0.0
1565338462365393899,1550.0,1600.0,1600.0,1550.0,0.0,0.0
1565338462415004941,1550.0,1600.0,1600.0,1550.0,0.0,0.0
1565338462465359055,1550.0,1600.0,1600.0,1550.0,0.0,0.0
1565338462515238014,1550.0,1600.0,1600.0,1550.0,0.0,0.0
1565338462564907545,1550.0,1600.0,1600.0,1550.0,0.0,0.0
1565338462615193951,1550.0,1600.0,1600.0,1550.0,0.0,0.0
1565338462665604003,1550.0,1600.0,1600.0,1550.0,0.0,0.0
1565338462715924836,1550.0,1600.0,1600.0,1550.0,0.0,0.0
1565338462765191399,1550.0,1600.0,1600.0,1550.0,0.0,0.0
1565338462815042284,1550.0,1600.0,1600.0,1550.0,0.0,0.0
1565338462865405409,1550.0,1600.0,1600.0,1550.0,0.0,0.0
1565338462915479159,1550.0,1600.0,1600.0,1550.0,0.0,0.0
1565338462965395826,1550.0,1600.0,1600.0,1550.0,0.0,0.0
1565338463015441920,1550.0,1600.0,1600.0,1550.0,0.0,0.0
1565338463065327909,1550.0,1550.0,1550.0,1550.0,0.0,0.0
1565338463115879888,1550.0,1550.0,1550.0,1550.0,0.0,0.0
1565338463165726347,1550.0,1550.0,1550.0,1550.0,0.0,0.0
