%time,field.linear.x,field.linear.y,field.linear.z,field.angular.x,field.angular.y,field.angular.z
1565344080523454985,-0.0,-0.0,0.0,0.0,0.0,0.0
1565344080574057902,-0.0,-0.0,0.0,0.0,0.0,0.0
1565344080623891183,-0.0,-0.0,0.0,0.0,0.0,0.0
1565344080674038683,-0.0,-0.0,0.0,0.0,0.0,0.0
1565344080724252329,-0.0,-0.0,0.0,0.0,0.0,0.0
1565344080774028839,-0.0,-0.0,0.0,0.0,0.0,0.0
1565344080824671131,-0.0,-0.0,0.0,0.0,0.0,0.0
1565344080875749256,-0.0,-0.0,0.0,0.0,0.0,0.0
1565344080925134620,-0.0,-0.0,0.0,0.0,0.0,0.0
1565344080975557224,-0.0,-0.0,0.0,0.0,0.0,0.0
1565344081025598110,-0.0,-0.0,0.0,0.0,0.0,0.0
1565344081075891339,-0.0,-0.0,0.0,0.0,0.0,0.0
1565344081126052641,-0.0,-0.0,0.0,0.0,0.0,0.0
1565344081176346495,-0.0,-0.0,0.0,0.0,0.0,0.0
1565344081226316026,-0.0,-0.0,0.0,0.0,0.0,0.0
1565344081276697172,-0.0,-0.0,0.0,0.0,0.0,0.0
1565344081326554724,-0.0,-0.0,0.0,0.0,0.0,0.0
1565344081376661495,-0.0,-0.0,0.0,0.0,0.0,0.0
1565344081427417693,-0.0,-0.0,0.0,0.0,0.0,0.0
1565344081477894620,-0.0,-0.0,0.0,0.0,0.0,0.0
1565344081527238005,-0.0,-0.0,0.0,0.0,0.0,0.0
1565344081578630870,-0.0,-0.0,0.0,0.0,0.0,0.0
1565344081627833995,-0.0,-0.0,0.0,0.0,0.0,0.0
1565344081682983266,-0.0,-0.0,0.0,0.0,0.0,0.0
1565344081728124828,-0.0,-0.0,0.0,0.0,0.0,0.0
1565344081783165818,-0.0,-0.0,0.0,0.0,0.0,0.0
1565344081839586182,-0.0,-0.0,0.0,0.0,0.0,0.0
1565344081878913162,-0.0,-0.0,0.0,0.0,0.0,0.0
1565344081928584203,-0.0,-0.0,0.0,0.0,0.0,0.0
1565344081978849984,-0.0,-0.0,0.0,0.0,0.0,0.0
1565344082030198526,-0.0,-0.0,0.0,0.0,0.0,0.0
1565344082079861911,-0.0,-0.0,0.0,0.0,0.0,0.0
1565344082129638266,-0.0,-0.0,0.0,0.0,0.0,0.0
1565344082185046599,-0.0,-0.0,0.0,0.0,0.0,0.0
1565344082230217797,-0.0,-0.0,0.0,0.0,0.0,0.0
1565344082281379255,-0.0,-0.0,0.0,0.0,0.0,0.0
1565344082330156703,-0.0,-0.0,0.0,0.0,0.0,0.0
1565344082380236911,-0.0,-0.0,0.0,0.0,0.0,0.0
1565344082430296703,-0.0,-0.0,0.0,0.0,0.0,0.0
1565344082495051703,-0.0,-0.0,0.0,0.0,0.0,0.0
1565344082558836807,-0.0,-0.0,0.0,0.0,0.0,0.0
1565344082587700609,-0.0,-0.0,0.0,0.0,0.0,0.0
1565344082631275713,-0.0,-0.0,0.0,0.0,0.0,0.0
1565344082681593526,-0.0,-0.0,0.0,0.0,0.0,0.0
1565344082732184828,-0.0,-0.0,0.0,0.0,0.0,0.0
1565344082782055349,-0.0,-0.0,0.0,0.0,0.0,0.0
1565344082832344255,-0.0,-0.0,0.0,0.0,0.0,0.0
1565344082882680974,-0.0,-0.0,0.0,0.0,0.0,0.0
1565344082932891755,-0.0,-0.0,0.0,0.0,0.0,0.0
1565344082982585453,-0.0,-0.0,0.0,0.0,0.0,0.0
1565344083033045349,-0.0,-0.0,0.0,0.0,0.0,0.0
1565344083083150713,-0.0,-0.0,0.0,0.0,0.0,0.0
1565344083133776390,-0.0,-0.0,0.0,0.0,0.0,0.0
1565344083183767536,-0.0,-0.0,0.0,0.0,0.0,0.0
1565344083233383734,-0.0,-0.0,0.0,0.0,0.0,0.0
1565344083283690921,-0.0,-0.0,0.0,0.0,0.0,0.0
1565344083334008109,-0.0,-0.0,0.0,0.0,0.0,0.0
1565344083384125713,-0.0,-0.0,0.0,0.0,0.0,0.0
1565344083434190088,-0.0,-0.0,0.0,0.0,0.0,0.0
1565344083484587015,-0.0,-0.0,0.0,0.0,0.0,0.0
1565344083534895609,-0.0,-0.0,0.0,0.0,0.0,0.0
1565344083588735296,-0.0,-0.0,0.0,0.0,0.0,0.0
1565344083635268838,-0.0,-0.0,0.0,0.0,0.0,0.0
1565344083685418682,-0.0,-0.0,0.0,0.0,0.0,0.0
1565344083735714723,-0.0,-0.0,0.0,0.0,0.0,0.0
1565344083785533942,-0.0,-0.0,0.0,0.0,0.0,0.0
1565344083856201077,-0.0,-0.0,0.0,0.0,0.0,0.0
1565344083888028421,-0.0,-0.0,0.0,0.0,0.0,0.0
1565344083936075765,-0.0,-0.0,0.0,0.0,0.0,0.0
1565344083986319463,-0.0,-0.0,0.0,0.0,0.0,0.0
1565344084036366077,-0.0,-0.0,0.0,0.0,0.0,0.0
1565344084086743734,-0.0,-0.0,0.0,0.0,0.0,0.0
1565344084139511963,-0.0,-0.0,0.0,0.0,0.0,0.0
1565344084187164619,-0.0,-0.0,0.0,0.0,0.0,0.0
1565344084236901754,-0.0,-0.0,0.0,0.0,0.0,0.0
1565344084287752848,-0.0,-0.0,0.0,0.0,0.0,0.0
1565344084337590400,-0.0,-0.0,0.0,0.0,0.0,0.0
1565344084387701077,-0.0,-0.0,0.0,0.0,0.0,0.0
1565344084438915400,-0.0,-0.0,0.0,0.0,0.0,0.0
1565344084489979358,-0.0,-0.0,0.0,0.0,0.0,0.0
1565344084538768994,-0.0,-0.0,0.0,0.0,0.0,0.0
1565344084588873265,-0.0,-0.0,0.0,0.0,0.0,0.0
1565344084639722067,-0.0,-0.0,0.0,0.0,0.0,0.0
1565344084689375400,-0.0,-0.0,0.0,0.0,0.0,0.0
1565344084739609358,-0.0,-0.0,0.0,0.0,0.0,0.0
1565344084789471129,-0.0,-0.0,0.0,0.0,0.0,0.0
1565344084839865088,-0.0,-0.0,0.0,0.0,0.0,0.0
1565344084889981233,-0.0,-0.0,0.0,0.0,0.0,0.0
1565344084941230817,-0.0,-0.0,0.0,0.0,0.0,0.0
1565344084991720608,-0.0,-0.0,0.0,0.0,0.0,0.0
1565344085043584046,-0.0,-0.0,0.0,0.0,0.0,0.0
1565344085090217171,-0.0,-0.0,0.0,0.0,0.0,0.0
1565344085141964150,-0.0,-0.0,0.0,0.0,0.0,0.0
1565344085190830035,-0.0,-0.0,0.0,0.0,0.0,0.0
1565344085241211337,-0.0,-0.0,0.0,0.0,0.0,0.0
1565344085291032587,-0.0,-0.0,0.0,0.0,0.0,0.0
1565344085341624098,-0.0,-0.0,0.0,0.0,0.0,0.0
1565344085391383994,-0.0,-0.0,0.0,0.0,0.0,0.0
1565344085441392223,-0.0,-0.0,0.0,0.0,0.0,0.0
1565344085491712796,-0.0,-0.0,0.0,0.0,0.0,0.0
1565344085542893785,-0.0,-0.0,0.0,0.0,0.0,0.0
1565344085592467900,-0.0,-0.0,0.0,0.0,0.0,0.0
1565344085642372431,-0.0,-0.0,0.0,0.0,0.0,0.0
1565344085692817014,-0.0,-0.0,0.0,0.0,0.0,0.0
1565344085743973212,-0.0,-0.0,0.0,0.0,0.0,0.0
1565344085793005712,-0.0,-0.0,0.0,0.0,0.0,0.0
1565344085851355868,-0.0,-0.0,0.0,0.0,0.0,0.0
1565344085893550348,-0.0,-0.0,0.0,0.0,0.0,0.0
1565344085944343889,-0.0,-0.0,0.0,0.0,0.0,0.0
1565344085993753941,-0.0,-0.0,0.0,0.0,0.0,0.0
1565344086043826806,-0.0,-0.0,0.0,0.0,0.0,0.0
1565344086112101858,-0.0,-0.0,0.0,0.0,0.0,0.0
1565344086144501597,-0.0,-0.0,0.0,0.0,0.0,0.0
1565344086206842535,-0.0,-0.0,0.0,0.0,0.0,0.0
1565344086244085243,-0.0,-0.0,0.0,0.0,0.0,0.0
1565344086294610660,-0.0,-0.0,0.0,0.0,0.0,0.0
1565344086344440295,-0.0,-0.0,0.0,0.0,0.0,0.0
1565344086394988524,-0.0,-0.0,0.0,0.0,0.0,0.0
1565344086444730191,-0.0,-0.0,0.0,0.0,0.0,0.0
1565344086494794306,-0.0,-0.0,0.0,0.0,0.0,0.0
1565344086545499826,-0.0,-0.0,0.0,0.0,0.0,0.0
1565344086596574879,-0.0,-0.0,0.0,0.0,0.0,0.0
1565344086645615608,-0.0,-0.0,0.0,0.0,0.0,0.0
1565344086698683003,-0.0,-0.0,0.0,0.0,0.0,0.0
1565344086746132326,-0.0,-0.0,0.0,0.0,0.0,0.0
1565344086796523837,-0.0,-0.0,0.0,0.0,0.0,0.0
1565344086846106597,-0.0,-0.0,0.0,0.0,0.0,0.0
1565344086896666024,-0.0,-0.0,0.0,0.0,0.0,0.0
1565344086947230035,-0.0,-0.0,0.0,0.0,0.0,0.0
1565344086997377222,-0.0,-0.0,0.0,0.0,0.0,0.0
1565344087048406649,-0.0,-0.0,0.0,0.0,0.0,0.0
1565344087102267951,-0.0,-0.0,0.0,0.0,0.0,0.0
1565344087186567639,-0.0,-0.0,0.0,0.0,0.0,0.0
1565344087197852326,-0.0,-0.0,0.0,0.0,0.0,0.0
1565344087247873993,-0.0,-0.0,0.0,0.0,0.0,0.0
1565344087298392899,-0.0,-0.0,0.0,0.0,0.0,0.0
1565344087348263107,-0.0,-0.0,0.0,0.0,0.0,0.0
1565344087398338837,-0.0,-0.0,0.0,0.0,0.0,0.0
1565344087448695503,-0.0,-0.0,0.0,0.0,0.0,0.0
1565344087498623055,-0.0,-0.0,0.0,0.0,0.0,0.0
1565344087549054357,-0.0,-0.0,0.0,0.0,0.0,0.0
1565344087599216909,-0.0,-0.0,0.0,0.0,0.0,0.0
1565344087649113889,-0.0,-0.0,0.0,0.0,0.0,0.0
1565344087699548784,-0.0,-0.0,0.0,0.0,0.0,0.0
1565344087749690972,-0.0,-0.0,0.0,0.0,0.0,0.0
1565344087805412326,-0.0,-0.0,0.0,0.0,0.0,0.0
1565344087855976128,-0.0,-0.0,0.0,0.0,0.0,0.0
1565344087899992482,-0.0,-0.0,0.0,0.0,0.0,0.0
1565344087950101649,-0.0,-0.0,0.0,0.0,0.0,0.0
1565344088000642899,-0.0,-0.0,0.0,0.0,0.0,0.0
1565344088050616284,-0.0,-0.0,0.0,0.0,0.0,0.0
1565344088105933263,-0.0,-0.0,0.0,0.0,0.0,0.0
1565344088180966128,-0.0,-0.0,0.0,0.0,0.0,0.0
1565344088201462742,-0.0,-0.0,0.0,0.0,0.0,0.0
1565344088252213732,-0.0,-0.0,0.0,0.0,0.0,0.0
1565344088301986701,-0.0,-0.0,0.0,0.0,0.0,0.0
1565344088351870920,-0.0,-0.0,0.0,0.0,0.0,0.0
1565344088402491024,-0.0,-0.0,0.0,0.0,0.0,0.0
1565344088543561805,-0.717848360538,-0.0,0.0,0.0,0.0,0.0
1565344088646032690,-0.782965183258,-0.0,0.0,0.0,0.0,0.0
1565344088696397846,-0.782965183258,-0.0,0.0,0.0,0.0,0.0
1565344088748773836,-0.782965183258,-0.0,0.0,0.0,0.0,0.0
1565344088796824357,-0.782965183258,-0.0,0.0,0.0,0.0,0.0
1565344088849327065,-0.782965183258,-0.0,0.0,0.0,0.0,0.0
1565344088896969305,-0.782965183258,-0.0,0.0,0.0,0.0,0.0
1565344088961096076,-0.782965183258,-0.0,0.0,0.0,0.0,0.0
1565344088997153263,-0.782965183258,-0.0,0.0,0.0,0.0,0.0
1565344089098467898,-0.772107064724,-0.0,0.0,0.0,0.0,0.0
1565344089149108836,-0.772107064724,-0.0,0.0,0.0,0.0,0.0
1565344089199569565,-0.772107064724,-0.0,0.0,0.0,0.0,0.0
1565344089322055502,-0.782965183258,-0.0,0.0,0.0,0.0,0.0
1565344089430549877,-0.782965183258,-0.0,0.0,0.0,0.0,0.0
1565344089562655346,-0.815539717674,-0.0,0.0,0.0,0.0,0.0
1565344089668506857,-0.815539717674,-0.0,0.0,0.0,0.0,0.0
1565344089819110919,-0.815539717674,-0.0,0.0,0.0,0.0,0.0
1565344089856734200,-0.815539717674,-0.0,0.0,0.0,0.0,0.0
1565344089906923523,-0.815539717674,-0.0,0.0,0.0,0.0,0.0
1565344089956894304,-0.815539717674,-0.0,0.0,0.0,0.0,0.0
1565344090007333679,-0.815539717674,-0.0,0.0,0.0,0.0,0.0
1565344090118972950,-0.804681539536,-0.0,0.0,0.0,0.0,0.0
1565344090224906492,-0.815539717674,-0.0,0.0,0.0,0.0,0.0
1565344090332015138,-0.815539717674,-0.0,0.0,0.0,0.0,0.0
1565344090458902273,-0.815539717674,-0.0,0.0,0.0,0.0,0.0
1565344090594886231,-0.815539717674,-0.0,0.0,0.0,0.0,0.0
1565344090702785137,-0.815539717674,-0.0,0.0,0.0,0.0,0.0
1565344090846279408,-0.826365768909,-0.0,0.0,0.0,0.0,0.0
1565344090954379616,-0.837223887444,-0.0,0.0,0.0,0.0,0.0
1565344091091184773,-0.837223887444,-0.0,0.0,0.0,0.0,0.0
1565344091195046960,-0.826365768909,-0.0,0.0,0.0,0.0,0.0
1565344091299589512,-0.837223887444,-0.0,0.0,0.0,0.0,0.0
1565344091348461752,-0.837223887444,-0.0,0.0,0.0,0.0,0.0
1565344091399463783,-0.837223887444,-0.0,0.0,0.0,0.0,0.0
1565344091513337585,-0.837223887444,-0.0,0.0,0.0,0.0,0.0
1565344091646591960,-0.86979842186,-0.0,0.0,0.0,0.0,0.0
1565344091797095970,-0.0,-0.0,0.0,0.0,0.0,0.0
1565344091852540189,-0.0,-0.0,0.0,0.0,0.0,0.0
1565344091894857741,-0.0,-0.0,0.0,0.0,0.0,0.0
1565344091944915397,-0.0,-0.0,0.0,0.0,0.0,0.0
1565344091995329199,-0.0,-0.0,0.0,0.0,0.0,0.0
1565344092045273835,-0.0,-0.0,0.0,0.0,0.0,0.0
1565344092107201126,-0.0,-0.0,0.0,0.0,0.0,0.0
1565344092155093991,-0.0,-0.0,0.0,0.0,0.0,0.0
1565344092201173106,-0.0,-0.0,0.0,0.0,0.0,0.0
1565344092249297637,-0.0,-0.0,0.0,0.0,0.0,0.0
1565344092296098470,-0.0,-0.0,0.0,0.0,0.0,0.0
1565344092346566074,-0.0,-0.0,0.0,0.0,0.0,0.0
1565344092396827012,-0.0,-0.0,0.0,0.0,0.0,0.0
1565344092446566022,-0.0,-0.0,0.0,0.0,0.0,0.0
1565344092497206908,-0.0,-0.0,0.0,0.0,0.0,0.0
1565344092547307793,-0.0,-0.0,0.0,0.0,0.0,0.0
1565344092597514407,-0.0,-0.0,0.0,0.0,0.0,0.0
1565344092647331803,-0.0,-0.0,0.0,0.0,0.0,0.0
1565344092697934824,-0.0,-0.0,0.0,0.0,0.0,0.0
1565344092748227532,-0.0,-0.0,0.0,0.0,0.0,0.0
1565344092798388470,-0.0,-0.0,0.0,0.0,0.0,0.0
1565344092935201491,-0.435696691275,-0.0,0.0,0.0,0.0,0.0
1565344093039027845,-0.609330952168,-0.0,0.0,0.0,0.0,0.0
1565344093088523314,-0.609330952168,-0.0,0.0,0.0,0.0,0.0
1565344093141168782,-0.609330952168,-0.0,0.0,0.0,0.0,0.0
1565344093286719407,-0.75042283535,-0.0,0.0,0.0,0.0,0.0
1565344093392986491,-1.0,-0.0,0.0,0.0,0.0,0.0
1565344093440711126,-1.0,-0.0,0.0,0.0,0.0,0.0
1565344093491057428,-1.0,-0.0,0.0,0.0,0.0,0.0
1565344093543227324,-1.0,-0.0,0.0,0.0,0.0,0.0
1565344093591781126,-1.0,-0.0,0.0,0.0,0.0,0.0
1565344093642225293,-1.0,-0.0,0.0,0.0,0.0,0.0
1565344093692063990,-1.0,-0.0,0.0,0.0,0.0,0.0
1565344093743211230,-1.0,-0.0,0.0,0.0,0.0,0.0
1565344093792492376,-1.0,-0.0,0.0,0.0,0.0,0.0
1565344093887053730,-1.0,-0.0,0.0,0.0,0.0,0.0
1565344093894900344,-1.0,-0.0,0.0,0.0,0.0,0.0
1565344093943470969,-1.0,-0.0,0.0,0.0,0.0,0.0
1565344093993050397,-1.0,-0.0,0.0,0.0,0.0,0.0
1565344094043713782,-1.0,-0.0,0.0,0.0,0.0,0.0
1565344094093653521,-1.0,-0.0,0.0,0.0,0.0,0.0
1565344094242895240,-0.0,-0.0,0.0,0.0,0.0,0.0
1565344094292767376,-0.0,-0.0,0.0,0.0,0.0,0.0
1565344094342512219,-0.0,-0.0,0.0,0.0,0.0,0.0
1565344094392738157,-0.0,-0.0,0.0,0.0,0.0,0.0
1565344094442819094,-0.0,-0.0,0.0,0.0,0.0,0.0
1565344094493955501,-0.0,-0.0,0.0,0.0,0.0,0.0
1565344094543442219,-0.0,-0.0,0.0,0.0,0.0,0.0
1565344094593459146,-0.0,-0.0,0.0,0.0,0.0,0.0
1565344094654612011,-0.0,-0.0,0.0,0.0,0.0,0.0
1565344094713796490,-0.0,-0.0,0.0,0.0,0.0,0.0
1565344094744281646,-0.0,-0.0,0.0,0.0,0.0,0.0
1565344094794341542,-0.0,-0.0,0.0,0.0,0.0,0.0
1565344094845301282,-0.0,-0.0,0.0,0.0,0.0,0.0
1565344094894839771,-0.0,-0.0,0.0,0.0,0.0,0.0
1565344094945931855,-0.0,-0.0,0.0,0.0,0.0,0.0
1565344094995467636,-0.0,-0.0,0.0,0.0,0.0,0.0
1565344095045584823,-0.0,-0.0,0.0,0.0,0.0,0.0
1565344095095920448,-0.0,-0.0,0.0,0.0,0.0,0.0
1565344095145972479,-0.0,-0.0,0.0,0.0,0.0,0.0
1565344095199014042,-0.0,-0.0,0.0,0.0,0.0,0.0
1565344095246694354,-0.0,-0.0,0.0,0.0,0.0,0.0
1565344095296046438,-0.0,-0.0,0.0,0.0,0.0,0.0
1565344095418951802,-0.0,-0.0,0.0,0.0,0.0,0.293823361397
1565344095522601386,-0.0,-0.0,0.0,0.0,0.0,0.402340769768
1565344095572961906,-0.0,-0.0,0.0,0.0,0.0,0.402340769768
1565344095691469771,-0.0,-0.0,0.0,0.0,0.0,0.424041032791
1565344095798193677,-0.0,-0.0,0.0,0.0,0.0,0.489157885313
1565344095905539979,-0.0,-0.0,0.0,0.0,0.0,0.5
1565344095951021542,-0.0,-0.0,0.0,0.0,0.0,0.5
1565344095999008156,-0.0,-0.0,0.0,0.0,0.0,0.5
1565344096049553000,-0.0,-0.0,0.0,0.0,0.0,0.5
1565344096110906229,-0.0,-0.0,0.0,0.0,0.0,0.5
1565344096186184771,-0.0,-0.0,0.0,0.0,0.0,0.5
1565344096199821958,-0.0,-0.0,0.0,0.0,0.0,0.5
1565344096250252219,-0.0,-0.0,0.0,0.0,0.0,0.5
1565344096300372219,-0.0,-0.0,0.0,0.0,0.0,0.5
1565344096451263729,-0.0,-0.0,0.0,0.0,0.0,0.0
1565344096501177323,-0.0,-0.0,0.0,0.0,0.0,0.0
1565344096553791125,-0.0,-0.0,0.0,0.0,0.0,0.0
1565344096601019614,-0.0,-0.0,0.0,0.0,0.0,0.0
1565344096651466802,-0.0,-0.0,0.0,0.0,0.0,0.0
1565344096701950760,-0.0,-0.0,0.0,0.0,0.0,0.0
1565344096751625187,-0.0,-0.0,0.0,0.0,0.0,0.0
1565344096802393625,-0.0,-0.0,0.0,0.0,0.0,0.0
1565344096852331489,-0.0,-0.0,0.0,0.0,0.0,0.0
1565344096902455500,-0.0,-0.0,0.0,0.0,0.0,0.0
1565344096952791333,-0.0,-0.0,0.0,0.0,0.0,0.0
1565344097107175500,0.294669061899,-0.0,0.0,0.0,0.0,0.0
1565344097199394614,0.403186440468,-0.0,0.0,0.0,0.0,0.0
1565344097248809718,0.403186440468,-0.0,0.0,0.0,0.0,0.0
1565344097395147947,0.62022125721,-0.0,0.0,0.0,0.0,0.0
1565344097498670968,0.826397895813,-0.0,0.0,0.0,0.0,0.0
1565344097548947062,0.826397895813,-0.0,0.0,0.0,0.0,0.0
1565344097599156281,0.826397895813,-0.0,0.0,0.0,0.0,0.0
1565344097649290447,0.826397895813,-0.0,0.0,0.0,0.0,0.0
1565344097770756020,1.0,-0.0,0.0,0.0,0.0,0.0
1565344097831699770,1.0,-0.0,0.0,0.0,0.0,0.0
1565344097876227635,1.0,-0.0,0.0,0.0,0.0,0.0
1565344097921695812,1.0,-0.0,0.0,0.0,0.0,0.0
1565344097971798208,1.0,-0.0,0.0,0.0,0.0,0.0
1565344098022875916,1.0,-0.0,0.0,0.0,0.0,0.0
1565344098072561072,1.0,-0.0,0.0,0.0,0.0,0.0
1565344098122239405,1.0,-0.0,0.0,0.0,0.0,0.0
1565344098185204614,1.0,-0.0,0.0,0.0,0.0,0.0
1565344098222323885,1.0,-0.0,0.0,0.0,0.0,0.0
1565344098275308624,1.0,-0.0,0.0,0.0,0.0,0.0
1565344098322727843,1.0,-0.0,0.0,0.0,0.0,0.0
1565344098372948624,1.0,-0.0,0.0,0.0,0.0,0.0
1565344098423183416,1.0,-0.0,0.0,0.0,0.0,0.0
1565344098475970707,1.0,-0.0,0.0,0.0,0.0,0.0
1565344098523576124,1.0,-0.0,0.0,0.0,0.0,0.0
1565344098573461697,1.0,-0.0,0.0,0.0,0.0,0.0
1565344098623904457,1.0,-0.0,0.0,0.0,0.0,0.0
1565344098676408468,1.0,-0.0,0.0,0.0,0.0,0.0
1565344098724609457,1.0,-0.0,0.0,0.0,0.0,0.0
1565344098775069353,1.0,-0.0,0.0,0.0,0.0,0.0
1565344098825182530,1.0,-0.0,0.0,0.0,0.0,0.0
1565344098875496697,1.0,-0.0,0.0,0.0,0.0,0.0
1565344098925672322,1.0,-0.0,0.0,0.0,0.0,0.0
1565344098976087634,1.0,-0.0,0.0,0.0,0.0,0.0
1565344099026452582,1.0,-0.0,0.0,0.0,0.0,0.0
1565344099076727113,1.0,-0.0,0.0,0.0,0.0,0.0
1565344099126300290,1.0,-0.0,0.0,0.0,0.0,0.0
1565344099194276957,1.0,-0.0,0.0,0.0,0.0,0.0
1565344099228440707,1.0,-0.0,0.0,0.0,0.0,0.0
1565344099280672634,1.0,-0.0,0.0,0.0,0.0,0.0
1565344099330773884,1.0,-0.0,0.0,0.0,0.0,0.0
1565344099377247165,1.0,-0.0,0.0,0.0,0.0,0.0
1565344099426793051,1.0,-0.0,0.0,0.0,0.0,0.0
1565344099477065915,1.0,-0.0,0.0,0.0,0.0,0.0
1565344099527322009,1.0,-0.0,0.0,0.0,0.0,0.0
1565344099578694821,1.0,-0.0,0.0,0.0,0.0,0.0
1565344099627969405,1.0,-0.0,0.0,0.0,0.0,0.0
1565344099678025186,1.0,-0.0,0.0,0.0,0.0,0.0
1565344099729235551,1.0,-0.0,0.0,0.0,0.0,0.0
1565344099778806540,1.0,-0.0,0.0,0.0,0.0,0.0
1565344099850426644,1.0,-0.0,0.0,0.0,0.0,0.0
1565344099892454509,1.0,-0.0,0.0,0.0,0.0,0.0
1565344099929049092,1.0,-0.0,0.0,0.0,0.0,0.0
1565344100050812790,1.0,-0.0,0.0,0.0,0.0,0.0
1565344100162305759,1.0,-0.0,0.0,0.0,0.0,0.0
1565344100215778207,1.0,-0.0,0.0,0.0,0.0,0.0
1565344100262699717,1.0,-0.0,0.0,0.0,0.0,0.0
1565344100390321123,1.0,-0.0,0.0,0.0,0.0,0.0
1565344100441191748,1.0,-0.0,0.0,0.0,0.0,0.0
1565344100490847842,1.0,-0.0,0.0,0.0,0.0,0.0
1565344100603036957,-0.0,-0.0,0.0,0.0,0.0,0.0
1565344100652962217,-0.0,-0.0,0.0,0.0,0.0,0.0
1565344100703563779,-0.0,-0.0,0.0,0.0,0.0,0.0
1565344100753767686,-0.0,-0.0,0.0,0.0,0.0,0.0
1565344100803807269,-0.0,-0.0,0.0,0.0,0.0,0.0
1565344100854540602,-0.0,-0.0,0.0,0.0,0.0,0.0
1565344100905125029,-0.0,-0.0,0.0,0.0,0.0,0.0
1565344100969275394,-0.0,-0.0,0.0,0.0,0.0,0.0
1565344101004438936,-0.0,-0.0,0.0,0.0,0.0,0.0
1565344101054934196,-0.0,-0.0,0.0,0.0,0.0,0.0
1565344101104582008,-0.0,-0.0,0.0,0.0,0.0,0.0
1565344101154878571,-0.0,-0.0,0.0,0.0,0.0,0.0
1565344101279530133,0.370611965656,-0.0,0.0,0.0,0.0,0.0
1565344101383261435,0.62022125721,-0.0,0.0,0.0,0.0,0.0
1565344101494598154,0.663621783257,-0.0,0.0,0.0,0.0,0.0
1565344101599797060,0.717880487442,-0.0,0.0,0.0,0.0,0.0
1565344101754785966,0.880688667297,-0.0,0.0,0.0,0.0,0.0
1565344101859622789,1.0,-0.0,0.0,0.0,0.0,0.0
1565344101901096956,1.0,-0.0,0.0,0.0,0.0,0.0
1565344101951423519,1.0,-0.0,0.0,0.0,0.0,0.0
1565344102001294768,1.0,-0.0,0.0,0.0,0.0,0.0
1565344102051979664,1.0,-0.0,0.0,0.0,0.0,0.0
1565344102109638154,1.0,-0.0,0.0,0.0,0.0,0.0
1565344102181283362,1.0,-0.0,0.0,0.0,0.0,0.0
1565344102202513466,1.0,-0.0,0.0,0.0,0.0,0.0
1565344102252347789,1.0,-0.0,0.0,0.0,0.0,0.0
1565344102302861904,1.0,-0.0,0.0,0.0,0.0,0.0
1565344102446936070,-0.0,-0.0,0.0,0.0,0.0,0.0
1565344102496787164,-0.0,-0.0,0.0,0.0,0.0,0.0
1565344102547292372,-0.0,-0.0,0.0,0.0,0.0,0.0
1565344102597311643,-0.0,-0.0,0.0,0.0,0.0,0.0
1565344102647749352,-0.0,-0.0,0.0,0.0,0.0,0.0
1565344102697393154,-0.0,-0.0,0.0,0.0,0.0,0.0
1565344102747547060,-0.0,-0.0,0.0,0.0,0.0,0.0
1565344102798007320,-0.0,-0.0,0.0,0.0,0.0,0.0
1565344102848127529,-0.0,-0.0,0.0,0.0,0.0,0.0
1565344102898297997,-0.0,-0.0,0.0,0.0,0.0,0.0
1565344102948386435,-0.0,-0.0,0.0,0.0,0.0,0.0
1565344102999058570,-0.0,-0.0,0.0,0.0,0.0,0.0
1565344103049781070,-0.0,-0.0,0.0,0.0,0.0,0.0
1565344103099337008,-0.0,-0.0,0.0,0.0,0.0,0.0
1565344103149546383,-0.0,-0.0,0.0,0.0,0.0,0.0
1565344103199719716,-0.0,-0.0,0.0,0.0,0.0,0.0
1565344103250207789,-0.0,-0.0,0.0,0.0,0.0,0.0
1565344103300067112,-0.0,-0.0,0.0,0.0,0.0,0.0
1565344103350350028,-0.0,-0.0,0.0,0.0,0.0,0.0
1565344103400594039,-0.0,-0.0,0.0,0.0,0.0,0.0
1565344103450219560,-0.0,-0.0,0.0,0.0,0.0,0.0
1565344103583478935,-0.414012491703,-0.0,0.0,0.0,0.0,0.0
1565344103691018205,-0.587646722794,-0.0,0.0,0.0,0.0,0.0
1565344103741776226,-0.587646722794,-0.0,0.0,0.0,0.0,0.0
1565344103855531851,-0.620189130306,-0.0,0.0,0.0,0.0,0.0
1565344103954751122,-0.815539717674,-0.0,0.0,0.0,0.0,0.0
1565344104062685757,-0.837223887444,-0.0,0.0,0.0,0.0,0.0
1565344104116702476,-0.837223887444,-0.0,0.0,0.0,0.0,0.0
1565344104240572841,-0.86979842186,-0.0,0.0,0.0,0.0,0.0
1565344104350913466,-0.880656540394,-0.0,0.0,0.0,0.0,0.0
1565344104400940601,-0.880656540394,-0.0,0.0,0.0,0.0,0.0
1565344104451700705,-0.880656540394,-0.0,0.0,0.0,0.0,0.0
1565344104501473778,-0.880656540394,-0.0,0.0,0.0,0.0,0.0
1565344104551593361,-0.880656540394,-0.0,0.0,0.0,0.0,0.0
1565344104601480184,-0.880656540394,-0.0,0.0,0.0,0.0,0.0
1565344104746954976,-0.891482591629,-0.0,0.0,0.0,0.0,0.0
1565344104797141747,-0.891482591629,-0.0,0.0,0.0,0.0,0.0
1565344104870906226,-0.891482591629,-0.0,0.0,0.0,0.0,0.0
1565344104897574090,-0.891482591629,-0.0,0.0,0.0,0.0,0.0
1565344104947475653,-0.891482591629,-0.0,0.0,0.0,0.0,0.0
1565344104998276955,-0.891482591629,-0.0,0.0,0.0,0.0,0.0
1565344105047855549,-0.891482591629,-0.0,0.0,0.0,0.0,0.0
1565344105098326226,-0.891482591629,-0.0,0.0,0.0,0.0,0.0
1565344105148426642,-0.891482591629,-0.0,0.0,0.0,0.0,0.0
1565344105198977996,-0.891482591629,-0.0,0.0,0.0,0.0,0.0
1565344105318685913,-0.891482591629,-0.0,0.0,0.0,0.0,0.0
1565344105368862371,-0.891482591629,-0.0,0.0,0.0,0.0,0.0
1565344105419112840,-0.891482591629,-0.0,0.0,0.0,0.0,0.0
1565344105471719819,-0.891482591629,-0.0,0.0,0.0,0.0,0.0
1565344105520641798,-0.891482591629,-0.0,0.0,0.0,0.0,0.0
1565344105570878934,-0.891482591629,-0.0,0.0,0.0,0.0,0.0
1565344105622640653,-0.891482591629,-0.0,0.0,0.0,0.0,0.0
1565344105670270027,-0.891482591629,-0.0,0.0,0.0,0.0,0.0
1565344105720572840,-0.891482591629,-0.0,0.0,0.0,0.0,0.0
1565344105770113673,-0.891482591629,-0.0,0.0,0.0,0.0,0.0
1565344105839605027,-0.891482591629,-0.0,0.0,0.0,0.0,0.0
1565344105870687944,-0.891482591629,-0.0,0.0,0.0,0.0,0.0
1565344105920993152,-0.891482591629,-0.0,0.0,0.0,0.0,0.0
1565344105971030809,-0.891482591629,-0.0,0.0,0.0,0.0,0.0
1565344106021660809,-0.891482591629,-0.0,0.0,0.0,0.0,0.0
1565344106071367163,-0.891482591629,-0.0,0.0,0.0,0.0,0.0
1565344106121634142,-0.891482591629,-0.0,0.0,0.0,0.0,0.0
1565344106178686069,-0.891482591629,-0.0,0.0,0.0,0.0,0.0
1565344106221892944,-0.891482591629,-0.0,0.0,0.0,0.0,0.0
1565344106343957475,-1.0,-0.0,0.0,0.0,0.0,0.0
1565344106392863881,-1.0,-0.0,0.0,0.0,0.0,0.0
1565344106442781277,-1.0,-0.0,0.0,0.0,0.0,0.0
1565344106493258569,-1.0,-0.0,0.0,0.0,0.0,0.0
1565344106544898413,-1.0,-0.0,0.0,0.0,0.0,0.0
1565344106593904558,-1.0,-0.0,0.0,0.0,0.0,0.0
1565344106647098985,-1.0,-0.0,0.0,0.0,0.0,0.0
1565344106693505704,-1.0,-0.0,0.0,0.0,0.0,0.0
1565344106744355704,-1.0,-0.0,0.0,0.0,0.0,0.0
1565344106794613048,-1.0,-0.0,0.0,0.0,0.0,0.0
1565344106844723360,-1.0,-0.0,0.0,0.0,0.0,0.0
1565344106894728517,-1.0,-0.0,0.0,0.0,0.0,0.0
1565344106944935652,-1.0,-0.0,0.0,0.0,0.0,0.0
1565344106994713517,-1.0,-0.0,0.0,0.0,0.0,0.0
1565344107044977527,-1.0,-0.0,0.0,0.0,0.0,0.0
1565344107110259610,-1.0,-0.0,0.0,0.0,0.0,0.0
1565344107145258985,-1.0,-0.0,0.0,0.0,0.0,0.0
1565344107217261954,-1.0,-0.0,0.0,0.0,0.0,0.0
1565344107245697371,-1.0,-0.0,0.0,0.0,0.0,0.0
1565344107295918569,-1.0,-0.0,0.0,0.0,0.0,0.0
1565344107346643829,-1.0,-0.0,0.0,0.0,0.0,0.0
1565344107395978360,-1.0,-0.0,0.0,0.0,0.0,0.0
1565344107446423308,-1.0,-0.0,0.0,0.0,0.0,0.0
1565344107496354662,-1.0,-0.0,0.0,0.0,0.0,0.0
1565344107547206746,-1.0,-0.0,0.0,0.0,0.0,0.0
1565344107597524662,-1.0,-0.0,0.0,0.0,0.0,0.0
1565344107647325079,-1.0,-0.0,0.0,0.0,0.0,0.0
1565344107697470183,-1.0,-0.0,0.0,0.0,0.0,0.0
1565344107747152110,-1.0,-0.0,0.0,0.0,0.0,0.0
1565344107797755652,-1.0,-0.0,0.0,0.0,0.0,0.0
1565344107874753464,-1.0,-0.0,0.0,0.0,0.0,0.0
1565344107898189610,-1.0,-0.0,0.0,0.0,0.0,0.0
1565344107948946068,-1.0,-0.0,0.0,0.0,0.0,0.0
1565344107999099870,-1.0,-0.0,0.0,0.0,0.0,0.0
1565344108048516954,-1.0,-0.0,0.0,0.0,0.0,0.0
1565344108103952943,-1.0,-0.0,0.0,0.0,0.0,0.0
1565344108189814349,-1.0,-0.0,0.0,0.0,0.0,0.0
1565344108199968204,-1.0,-0.0,0.0,0.0,0.0,0.0
1565344108249547943,-1.0,-0.0,0.0,0.0,0.0,0.0
1565344108300101433,-1.0,-0.0,0.0,0.0,0.0,0.0
1565344108350049922,-1.0,-0.0,0.0,0.0,0.0,0.0
1565344108399861276,-1.0,-0.0,0.0,0.0,0.0,0.0
1565344108450110651,-1.0,-0.0,0.0,0.0,0.0,0.0
1565344108500062683,-1.0,-0.0,0.0,0.0,0.0,0.0
1565344108550168672,-1.0,-0.0,0.0,0.0,0.0,0.0
1565344108601201589,-1.0,-0.0,0.0,0.0,0.0,0.0
1565344108650895183,-1.0,-0.0,0.0,0.0,0.0,0.0
1565344108702406641,-1.0,-0.0,0.0,0.0,0.0,0.0
1565344108750881016,-1.0,-0.0,0.0,0.0,0.0,0.0
1565344108801267005,-1.0,-0.0,0.0,0.0,0.0,0.0
1565344108851533360,-1.0,-0.0,0.0,0.0,0.0,0.0
1565344108901318985,-1.0,-0.0,0.0,0.0,0.0,0.0
1565344108951652162,-1.0,-0.0,0.0,0.0,0.0,0.0
1565344109001897995,-1.0,-0.0,0.0,0.0,0.0,0.0
1565344109052056641,-1.0,-0.0,0.0,0.0,0.0,0.0
1565344109102067318,-1.0,-0.0,0.0,0.0,0.0,0.0
1565344109152364401,-1.0,-0.0,0.0,0.0,0.0,0.0
1565344109204811328,-1.0,-0.0,0.0,0.0,0.0,0.0
1565344109254642682,-1.0,-0.0,0.0,0.0,0.0,0.0
1565344109303109193,-1.0,-0.0,0.0,0.0,0.0,0.0
1565344109353345912,-1.0,-0.0,0.0,0.0,0.0,0.0
1565344109403545182,-1.0,-0.0,0.0,0.0,0.0,0.0
1565344109543163984,-0.0,-0.0,0.0,0.0,0.0,0.0
1565344109593223828,-0.0,-0.0,0.0,0.0,0.0,0.0
1565344109643283880,-0.0,-0.0,0.0,0.0,0.0,0.0
1565344109693644661,-0.0,-0.0,0.0,0.0,0.0,0.0
1565344109744654088,-0.0,-0.0,0.0,0.0,0.0,0.0
1565344109793792578,-0.0,-0.0,0.0,0.0,0.0,0.0
1565344109846566120,-0.0,-0.0,0.0,0.0,0.0,0.0
1565344109894184505,-0.0,-0.0,0.0,0.0,0.0,0.0
1565344109944921536,-0.0,-0.0,0.0,0.0,0.0,0.0
1565344109994475130,-0.0,-0.0,0.0,0.0,0.0,0.0
1565344110046432786,-0.0,-0.0,0.0,0.0,0.0,0.0
1565344110094702213,-0.0,-0.0,0.0,0.0,0.0,0.0
1565344110144696797,-0.0,-0.0,0.0,0.0,0.0,0.0
1565344110195062317,-0.0,-0.0,0.0,0.0,0.0,0.0
1565344110245137630,-0.0,-0.0,0.0,0.0,0.0,0.0
1565344110295367682,-0.0,-0.0,0.0,0.0,0.0,0.0
1565344110345140182,-0.0,-0.0,0.0,0.0,0.0,0.0
1565344110396546067,-0.0,-0.0,0.0,0.0,0.0,0.0
1565344110446408880,-0.0,-0.0,0.0,0.0,0.0,0.0
1565344110496140078,-0.0,-0.0,0.0,0.0,0.0,0.0
1565344110547985911,-0.0,-0.0,0.0,0.0,0.0,0.0
1565344110596221015,-0.0,-0.0,0.0,0.0,0.0,0.0
1565344110646511640,-0.0,-0.0,0.0,0.0,0.0,0.0
1565344110702633255,-0.0,-0.0,0.0,0.0,0.0,0.0
1565344110746724609,-0.0,-0.0,0.0,0.0,0.0,0.0
1565344110797188828,-0.0,-0.0,0.0,0.0,0.0,0.0
1565344110847187265,-0.0,-0.0,0.0,0.0,0.0,0.0
1565344110897467630,-0.0,-0.0,0.0,0.0,0.0,0.0
1565344110947485807,-0.0,-0.0,0.0,0.0,0.0,0.0
1565344110998272578,-0.0,-0.0,0.0,0.0,0.0,0.0
1565344111048099869,-0.0,-0.0,0.0,0.0,0.0,0.0
1565344111098167213,-0.0,-0.0,0.0,0.0,0.0,0.0
1565344111149101171,-0.0,-0.0,0.0,0.0,0.0,0.0
1565344111199383775,-0.0,-0.0,0.0,0.0,0.0,0.0
1565344111250993202,-0.0,-0.0,0.0,0.0,0.0,0.0
1565344111301069348,-0.0,-0.0,0.0,0.0,0.0,0.0
1565344111349031015,-0.0,-0.0,0.0,0.0,0.0,0.0
1565344111399678567,-0.0,-0.0,0.0,0.0,0.0,0.0
1565344111449359609,-0.0,-0.0,0.0,0.0,0.0,0.0
1565344111499721223,-0.0,-0.0,0.0,0.0,0.0,0.0
1565344111549971536,-0.0,-0.0,0.0,0.0,0.0,0.0
1565344111600098827,-0.0,-0.0,0.0,0.0,0.0,0.0
1565344111735350806,0.381470113993,-0.0,0.0,0.0,0.0,0.0
1565344111840302942,0.674479961395,-0.0,0.0,0.0,0.0,0.0
1565344111983551744,0.804713666439,-0.0,0.0,0.0,0.0,0.0
1565344112032959400,0.804713666439,-0.0,0.0,0.0,0.0,0.0
1565344112190205129,0.804713666439,-0.0,0.0,0.0,0.0,0.0
1565344112277560337,-0.0,-0.0,0.0,0.0,0.0,0.0
1565344112325676535,-0.0,-0.0,0.0,0.0,0.0,0.0
1565344112376564035,-0.0,-0.0,0.0,0.0,0.0,0.0
1565344112427243358,-0.0,-0.0,0.0,0.0,0.0,0.0
1565344112479759087,-0.0,-0.0,0.0,0.0,0.0,0.0
1565344112526450285,-0.0,-0.0,0.0,0.0,0.0,0.0
1565344112652036692,0.403186440468,-0.0,0.0,0.0,0.0,0.0
1565344112763681014,0.511703848839,-0.0,0.0,0.0,0.0,0.0
1565344112867640233,0.598504900932,-0.0,0.0,0.0,0.0,0.0
1565344112917559660,0.598504900932,-0.0,0.0,0.0,0.0,0.0
1565344112967846587,0.598504900932,-0.0,0.0,0.0,0.0,0.0
1565344113017622837,0.598504900932,-0.0,0.0,0.0,0.0,0.0
1565344113067968514,0.598504900932,-0.0,0.0,0.0,0.0,0.0
1565344113199344868,0.652763605118,-0.0,0.0,0.0,0.0,0.0
1565344113303219816,0.804713666439,-0.0,0.0,0.0,0.0,0.0
1565344113353441431,0.804713666439,-0.0,0.0,0.0,0.0,0.0
1565344113403514816,0.804713666439,-0.0,0.0,0.0,0.0,0.0
1565344113453828097,0.804713666439,-0.0,0.0,0.0,0.0,0.0
1565344113503798931,0.804713666439,-0.0,0.0,0.0,0.0,0.0
1565344113553972368,0.804713666439,-0.0,0.0,0.0,0.0,0.0
1565344113695213827,0.815571844578,-0.0,0.0,0.0,0.0,0.0
1565344113745012160,0.815571844578,-0.0,0.0,0.0,0.0,0.0
1565344113797419139,0.815571844578,-0.0,0.0,0.0,0.0,0.0
1565344113854131274,0.815571844578,-0.0,0.0,0.0,0.0,0.0
1565344113955034972,0.815571844578,-0.0,0.0,0.0,0.0,0.0
1565344114065844503,0.967489778996,-0.0,0.0,0.0,0.0,0.0
1565344114167028983,1.0,0.110176637769,0.0,0.0,0.0,0.0
1565344114279204035,1.0,0.110176637769,0.0,0.0,0.0,0.0
1565344114383012889,1.0,0.110176637769,0.0,0.0,0.0,0.0
1565344114433427628,1.0,0.110176637769,0.0,0.0,0.0,0.0
1565344114483201587,1.0,0.110176637769,0.0,0.0,0.0,0.0
1565344114611318045,1.0,0.121034801006,0.0,0.0,0.0,0.0
1565344114661007368,1.0,0.121034801006,0.0,0.0,0.0,0.0
1565344114811557368,1.0,0.121034801006,0.0,0.0,0.0,0.0
1565344114915097055,1.0,0.110176637769,0.0,0.0,0.0,0.0
1565344115036931639,1.0,0.121034801006,0.0,0.0,0.0,0.0
1565344115087764243,1.0,0.121034801006,0.0,0.0,0.0,0.0
1565344115135850805,1.0,0.121034801006,0.0,0.0,0.0,0.0
1565344115185412732,1.0,0.121034801006,0.0,0.0,0.0,0.0
1565344115298651222,1.0,0.0993184745312,0.0,0.0,0.0,0.0
1565344115411461482,1.0,0.0993184745312,0.0,0.0,0.0,0.0
1565344115549140753,1.0,0.110176637769,0.0,0.0,0.0,0.0
1565344115599941430,1.0,0.110176637769,0.0,0.0,0.0,0.0
1565344115647484295,1.0,0.110176637769,0.0,0.0,0.0,0.0
1565344115698254503,1.0,0.110176637769,0.0,0.0,0.0,0.0
1565344115748238461,1.0,0.110176637769,0.0,0.0,0.0,0.0
1565344115880090492,1.0,0.110176637769,0.0,0.0,0.0,0.0
1565344116028343565,1.0,0.110176637769,0.0,0.0,0.0,0.0
1565344116127057055,1.0,0.110176637769,0.0,0.0,0.0,0.0
1565344116255468826,-0.0,-0.0,0.0,0.0,0.0,0.0
1565344116305224034,-0.0,-0.0,0.0,0.0,0.0,0.0
1565344116356074138,-0.0,-0.0,0.0,0.0,0.0,0.0
1565344116406791690,-0.0,-0.0,0.0,0.0,0.0,0.0
1565344116456292419,-0.0,-0.0,0.0,0.0,0.0,0.0
1565344116506278409,-0.0,-0.0,0.0,0.0,0.0,0.0
1565344116556604242,-0.0,-0.0,0.0,0.0,0.0,0.0
1565344116607132992,-0.0,-0.0,0.0,0.0,0.0,0.0
1565344116657105648,-0.0,-0.0,0.0,0.0,0.0,0.0
1565344116707088148,-0.0,-0.0,0.0,0.0,0.0,0.0
1565344116757643461,-0.0,-0.0,0.0,0.0,0.0,0.0
1565344116873632419,-0.0,-0.0,0.0,0.0,0.0,0.261264950037
1565344116975656221,-0.0,-0.0,0.0,0.0,0.0,0.402340769768
1565344117079183617,-0.0,-0.0,0.0,0.0,0.0,0.445741295815
1565344117191305388,-0.0,-0.0,0.0,0.0,0.0,0.440328270197
1565344117294966638,-0.0,-0.0,0.0,0.0,0.0,0.472870647907
1565344117399209398,-0.0,-0.0,0.0,0.0,0.0,0.5
1565344117544046325,-0.0,-0.0,0.0,0.0,0.0,0.0
1565344117595288721,-0.0,-0.0,0.0,0.0,0.0,0.0
1565344117643377210,-0.0,-0.0,0.0,0.0,0.0,0.0
1565344117693709867,-0.0,-0.0,0.0,0.0,0.0,0.0
1565344117743869137,-0.0,-0.0,0.0,0.0,0.0,0.0
1565344117796549658,-0.0,-0.0,0.0,0.0,0.0,0.0
1565344117851755335,-0.0,-0.0,0.0,0.0,0.0,0.0
1565344117894653512,-0.0,-0.0,0.0,0.0,0.0,0.0
1565344117945239346,-0.0,-0.0,0.0,0.0,0.0,0.0
1565344117995657783,-0.0,-0.0,0.0,0.0,0.0,0.0
1565344118112208825,-0.0,-0.0,0.0,0.0,0.0,0.0
1565344118239773304,0.121034801006,-0.0,0.0,0.0,0.0,0.0
1565344118344693200,0.403186440468,-0.0,0.0,0.0,0.0,0.0
1565344118447186846,0.5008456707,-0.0,0.0,0.0,0.0,0.0
1565344118551395439,-0.0,-0.0,0.0,0.0,0.0,0.0
1565344118601803877,-0.0,-0.0,0.0,0.0,0.0,0.0
1565344118651843668,-0.0,-0.0,0.0,0.0,0.0,0.0
1565344118701992418,-0.0,-0.0,0.0,0.0,0.0,0.0
1565344118752168460,-0.0,-0.0,0.0,0.0,0.0,0.0
1565344118802502991,-0.0,-0.0,0.0,0.0,0.0,0.0
1565344118853116377,-0.0,-0.0,0.0,0.0,0.0,0.0
1565344118902834293,-0.0,-0.0,0.0,0.0,0.0,0.0
1565344118955297158,-0.0,-0.0,0.0,0.0,0.0,0.0
1565344119003267887,-0.0,-0.0,0.0,0.0,0.0,0.0
1565344119053410127,-0.0,-0.0,0.0,0.0,0.0,0.0
1565344119103679502,-0.0,-0.0,0.0,0.0,0.0,0.0
1565344119219541272,-0.0,-0.0,0.0,0.0,0.0,0.131031215191
1565344119323922939,-0.0,-0.0,0.0,0.0,0.0,0.407769858837
1565344119427424762,-0.0,-0.0,0.0,0.0,0.0,0.429470121861
1565344119544230074,-0.0,-0.0,0.0,0.0,0.0,0.413182884455
1565344119683319658,-0.0,-0.0,0.0,0.0,0.0,0.407769858837
1565344119733815855,-0.0,-0.0,0.0,0.0,0.0,0.407769858837
1565344119783824658,-0.0,-0.0,0.0,0.0,0.0,0.407769858837
1565344119837769085,-0.0,-0.0,0.0,0.0,0.0,0.407769858837
1565344119935489241,-0.0,-0.0,0.0,0.0,0.0,0.0
1565344119985493824,-0.0,-0.0,0.0,0.0,0.0,0.0
1565344120136005178,0.468303322792,-0.0,0.0,0.0,0.0,0.0
1565344120239203459,0.511703848839,-0.0,0.0,0.0,0.0,0.0
1565344120289133355,0.511703848839,-0.0,0.0,0.0,0.0,0.0
1565344120341233407,0.511703848839,-0.0,0.0,0.0,0.0,0.0
1565344120463460491,0.544246196747,-0.0,0.0,0.0,0.0,0.0
1565344120513323407,0.544246196747,-0.0,0.0,0.0,0.0,0.0
1565344120631535022,0.555104374886,-0.0,0.0,0.0,0.0,0.0
1565344120681462938,0.555104374886,-0.0,0.0,0.0,0.0,0.0
1565344120738465803,0.555104374886,-0.0,0.0,0.0,0.0,0.0
1565344120782214032,0.555104374886,-0.0,0.0,0.0,0.0,0.0
1565344120832737157,0.555104374886,-0.0,0.0,0.0,0.0,0.0
1565344120955632261,0.544246196747,-0.0,0.0,0.0,0.0,0.0
1565344121099395647,0.555104374886,-0.0,0.0,0.0,0.0,0.0
1565344121227787730,0.641937553883,-0.0,0.0,0.0,0.0,0.0
1565344121337997782,0.652763605118,-0.0,0.0,0.0,0.0,0.0
1565344121385313980,0.652763605118,-0.0,0.0,0.0,0.0,0.0
1565344121435559657,0.652763605118,-0.0,0.0,0.0,0.0,0.0
1565344121485655594,0.652763605118,-0.0,0.0,0.0,0.0,0.0
1565344121535846115,0.652763605118,-0.0,0.0,0.0,0.0,0.0
1565344121587719396,0.652763605118,-0.0,0.0,0.0,0.0,0.0
1565344121731200959,0.663621783257,-0.0,0.0,0.0,0.0,0.0
1565344121782047313,0.663621783257,-0.0,0.0,0.0,0.0,0.0
1565344121861066063,0.663621783257,-0.0,0.0,0.0,0.0,0.0
1565344121881764605,0.663621783257,-0.0,0.0,0.0,0.0,0.0
1565344121932098303,0.663621783257,-0.0,0.0,0.0,0.0,0.0
1565344122047812313,0.707054436207,-0.0,0.0,0.0,0.0,0.0
1565344122175348823,0.707054436207,-0.0,0.0,0.0,0.0,0.0
1565344122282345959,0.717880487442,-0.0,0.0,0.0,0.0,0.0
1565344122379031479,0.717880487442,-0.0,0.0,0.0,0.0,0.0
1565344122429061844,0.717880487442,-0.0,0.0,0.0,0.0,0.0
1565344122579297261,0.674479961395,-0.0,0.0,0.0,0.0,0.0
1565344122701498354,0.652763605118,-0.0,0.0,0.0,0.0,0.0
1565344122799422938,0.652763605118,-0.0,0.0,0.0,0.0,0.0
1565344122923280177,0.707054436207,-0.0,0.0,0.0,0.0,0.0
1565344123031795333,0.804713666439,-0.0,0.0,0.0,0.0,0.0
1565344123179488458,0.967489778996,-0.0,0.0,0.0,0.0,0.0
1565344123286957781,1.0,-0.0,0.0,0.0,0.0,0.0
1565344123337451583,1.0,-0.0,0.0,0.0,0.0,0.0
1565344123388025854,1.0,-0.0,0.0,0.0,0.0,0.0
1565344123437813562,1.0,-0.0,0.0,0.0,0.0,0.0
1565344123487912260,1.0,-0.0,0.0,0.0,0.0,0.0
1565344123539588562,1.0,-0.0,0.0,0.0,0.0,0.0
1565344123588662625,1.0,-0.0,0.0,0.0,0.0,0.0
1565344123638757000,1.0,-0.0,0.0,0.0,0.0,0.0
1565344123688647260,1.0,-0.0,0.0,0.0,0.0,0.0
1565344123740081948,1.0,-0.0,0.0,0.0,0.0,0.0
1565344123788862937,1.0,-0.0,0.0,0.0,0.0,0.0
1565344123854326062,1.0,-0.0,0.0,0.0,0.0,0.0
1565344123889165958,1.0,-0.0,0.0,0.0,0.0,0.0
1565344123940377729,1.0,-0.0,0.0,0.0,0.0,0.0
1565344123990953979,1.0,-0.0,0.0,0.0,0.0,0.0
1565344124042014656,1.0,-0.0,0.0,0.0,0.0,0.0
1565344124089821531,1.0,-0.0,0.0,0.0,0.0,0.0
1565344124141206687,1.0,-0.0,0.0,0.0,0.0,0.0
1565344124190460073,1.0,-0.0,0.0,0.0,0.0,0.0
1565344124240842520,1.0,-0.0,0.0,0.0,0.0,0.0
1565344124290858093,1.0,-0.0,0.0,0.0,0.0,0.0
1565344124342350437,1.0,-0.0,0.0,0.0,0.0,0.0
1565344124391419239,1.0,-0.0,0.0,0.0,0.0,0.0
1565344124441563145,1.0,-0.0,0.0,0.0,0.0,0.0
1565344124491806427,1.0,-0.0,0.0,0.0,0.0,0.0
1565344124543020229,1.0,-0.0,0.0,0.0,0.0,0.0
1565344124592094604,1.0,-0.0,0.0,0.0,0.0,0.0
1565344124641687312,1.0,-0.0,0.0,0.0,0.0,0.0
1565344124692589395,1.0,-0.0,0.0,0.0,0.0,0.0
1565344124742552520,1.0,-0.0,0.0,0.0,0.0,0.0
1565344124794479031,1.0,-0.0,0.0,0.0,0.0,0.0
1565344124842511947,1.0,-0.0,0.0,0.0,0.0,0.0
1565344124894498249,1.0,-0.0,0.0,0.0,0.0,0.0
1565344124943108614,1.0,-0.0,0.0,0.0,0.0,0.0
1565344124992906635,1.0,-0.0,0.0,0.0,0.0,0.0
1565344125043065437,1.0,-0.0,0.0,0.0,0.0,0.0
1565344125093754708,1.0,-0.0,0.0,0.0,0.0,0.0
1565344125144185385,1.0,-0.0,0.0,0.0,0.0,0.0
1565344125194290749,1.0,-0.0,0.0,0.0,0.0,0.0
1565344125244403249,1.0,-0.0,0.0,0.0,0.0,0.0
1565344125351828978,1.0,-0.0,0.0,0.0,0.0,0.0
1565344125455470072,1.0,-0.0,0.0,0.0,0.0,0.0
1565344125563741062,-0.0,-0.0,0.0,0.0,0.0,0.0
1565344125614278874,-0.0,-0.0,0.0,0.0,0.0,0.0
1565344125664295384,-0.0,-0.0,0.0,0.0,0.0,0.0
1565344125713942364,-0.0,-0.0,0.0,0.0,0.0,0.0
1565344125764517051,-0.0,-0.0,0.0,0.0,0.0,0.0
1565344125827842884,-0.0,-0.0,0.0,0.0,0.0,0.0
1565344125880342624,-0.0,-0.0,0.0,0.0,0.0,0.0
1565344125915417051,-0.0,-0.0,0.0,0.0,0.0,0.0
1565344125964849551,-0.0,-0.0,0.0,0.0,0.0,0.0
1565344126016350905,-0.0,-0.0,0.0,0.0,0.0,0.0
1565344126067068353,-0.0,-0.0,0.0,0.0,0.0,0.0
1565344126118648978,-0.0,-0.0,0.0,0.0,0.0,0.0
1565344126182233874,-0.0,-0.0,0.0,0.0,0.0,0.0
1565344126216149655,-0.0,-0.0,0.0,0.0,0.0,0.0
1565344126267106322,-0.0,-0.0,0.0,0.0,0.0,0.0
1565344126316440124,-0.0,-0.0,0.0,0.0,0.0,0.0
1565344126367593561,-0.0,-0.0,0.0,0.0,0.0,0.0
1565344126417690540,-0.0,-0.0,0.0,0.0,0.0,0.0
1565344126468183197,-0.0,-0.0,0.0,0.0,0.0,0.0
1565344126517661947,-0.0,-0.0,0.0,0.0,0.0,0.0
1565344126567504707,-0.0,-0.0,0.0,0.0,0.0,0.0
1565344126617809967,-0.0,-0.0,0.0,0.0,0.0,0.0
1565344126668061582,-0.0,-0.0,0.0,0.0,0.0,0.0
1565344126718224603,-0.0,-0.0,0.0,0.0,0.0,0.0
1565344126767918978,-0.0,-0.0,0.0,0.0,0.0,0.0
1565344126818150280,-0.0,-0.0,0.0,0.0,0.0,0.0
1565344126867872936,-0.0,-0.0,0.0,0.0,0.0,0.0
1565344126918189915,-0.0,-0.0,0.0,0.0,0.0,0.0
1565344126968225905,-0.0,-0.0,0.0,0.0,0.0,0.0
1565344127018405853,-0.0,-0.0,0.0,0.0,0.0,0.0
1565344127068497519,-0.0,-0.0,0.0,0.0,0.0,0.0
1565344127118935176,-0.0,-0.0,0.0,0.0,0.0,0.0
1565344127176199030,-0.0,-0.0,0.0,0.0,0.0,0.0
1565344127218816165,-0.0,-0.0,0.0,0.0,0.0,0.0
1565344127270594082,-0.0,-0.0,0.0,0.0,0.0,0.0
1565344127320056269,-0.0,-0.0,0.0,0.0,0.0,0.0
1565344127369996634,-0.0,-0.0,0.0,0.0,0.0,0.0
1565344127487150019,1.0,-0.0,0.0,0.0,0.0,0.0
1565344127537635175,1.0,-0.0,0.0,0.0,0.0,0.0
1565344127588814967,1.0,-0.0,0.0,0.0,0.0,0.0
1565344127637630488,1.0,-0.0,0.0,0.0,0.0,0.0
1565344127696050227,1.0,-0.0,0.0,0.0,0.0,0.0
1565344127739351529,1.0,-0.0,0.0,0.0,0.0,0.0
1565344127788653769,1.0,-0.0,0.0,0.0,0.0,0.0
1565344127903966894,-0.0,-0.0,0.0,0.0,0.0,0.0
1565344127953994081,-0.0,-0.0,0.0,0.0,0.0,0.0
1565344128003577102,-0.0,-0.0,0.0,0.0,0.0,0.0
1565344128054132675,-0.0,-0.0,0.0,0.0,0.0,0.0
1565344128272576113,-0.0,-0.0,0.0,0.0,0.0,0.380640506744
1565344128296209758,-0.0,-0.0,0.0,0.0,0.0,0.5
1565344128345413613,-0.0,-0.0,0.0,0.0,0.0,0.5
1565344128446559029,-0.0,-0.0,0.0,0.0,0.0,0.5
1565344128449182102,-0.0,-0.0,0.0,0.0,0.0,0.5
1565344128496679498,-0.0,-0.0,0.0,0.0,0.0,0.5
1565344128657781842,-0.0,-0.0,0.0,0.0,0.0,0.5
1565344128660318300,-0.0,-0.0,0.0,0.0,0.0,0.5
1565344128660538248,-0.0,-0.0,0.0,0.0,0.0,0.5
1565344128698606321,-0.0,-0.0,0.0,0.0,0.0,0.5
1565344128746762258,-0.0,-0.0,0.0,0.0,0.0,0.5
1565344128797331894,-0.0,-0.0,0.0,0.0,0.0,0.5
1565344128847143144,-0.0,-0.0,0.0,0.0,0.0,0.5
1565344129090249029,-0.0,-0.0,0.0,0.0,0.0,0.0
1565344129102044758,-0.0,-0.0,0.0,0.0,0.0,0.0
1565344129102110071,-0.0,-0.0,0.0,0.0,0.0,0.0
1565344129108088873,-0.0,-0.0,0.0,0.0,0.0,0.0
1565344129152761529,-0.0,-0.0,0.0,0.0,0.0,0.0
1565344129284918248,-0.0,-0.0,0.0,0.0,0.0,0.0
1565344129288771164,-0.0,-0.0,0.0,0.0,0.0,0.0
1565344129305943091,-0.0,-0.0,0.0,0.0,0.0,0.0
1565344129353093821,-0.0,-0.0,0.0,0.0,0.0,0.0
1565344129438766841,-0.0,-0.0,0.0,0.0,0.0,0.0
1565344129453350748,-0.0,-0.0,0.0,0.0,0.0,0.0
1565344129503409862,-0.0,-0.0,0.0,0.0,0.0,0.0
1565344129633971737,-0.0,-0.0,0.0,0.0,0.0,0.0
1565344129639387518,-0.0,-0.0,0.0,0.0,0.0,0.0
1565344129654075591,-0.0,-0.0,0.0,0.0,0.0,0.0
1565344129704597883,-0.0,-0.0,0.0,0.0,0.0,0.0
1565344129829583925,-0.0,-0.0,0.0,0.0,0.0,0.0
1565344129836935122,-0.0,-0.0,0.0,0.0,0.0,0.0
1565344129863051008,-0.0,-0.0,0.0,0.0,0.0,0.0
1565344130057422518,-0.0,-0.0,0.0,0.0,0.0,0.0
1565344130070888872,-0.0,-0.0,0.0,0.0,0.0,0.0
1565344130070953404,-0.0,-0.0,0.0,0.0,0.0,0.0
1565344130071254445,-0.0,-0.0,0.0,0.0,0.0,0.0
1565344130105516789,-0.0,-0.0,0.0,0.0,0.0,0.0
1565344130311111997,-0.0,-0.0,0.0,0.0,0.0,0.0
1565344130318563247,-0.0,-0.0,0.0,0.0,0.0,0.0
1565344130318625643,-0.0,-0.0,0.0,0.0,0.0,0.0
1565344130318771320,-0.0,-0.0,0.0,0.0,0.0,0.0
1565344130356799549,-0.0,-0.0,0.0,0.0,0.0,0.0
1565344130407423299,-0.0,-0.0,0.0,0.0,0.0,0.0
1565344130506225122,-0.0,-0.0,0.0,0.0,0.0,0.0
1565344130509147778,-0.0,-0.0,0.0,0.0,0.0,0.0
1565344130557554810,-0.0,-0.0,0.0,0.0,0.0,0.0
1565344130701062518,-0.0,-0.0,0.0,0.0,0.0,0.0
1565344130706474185,-0.0,-0.0,0.0,0.0,0.0,0.0
1565344130708918872,-0.0,-0.0,0.0,0.0,0.0,0.0
1565344130758548768,-0.0,-0.0,0.0,0.0,0.0,0.0
1565344130895985070,-0.0,-0.0,0.0,0.0,0.0,0.0
1565344130903088716,-0.0,-0.0,0.0,0.0,0.0,0.0
1565344130909130487,-0.0,-0.0,0.0,0.0,0.0,0.0
1565344130959005539,-0.0,-0.0,0.0,0.0,0.0,0.0
1565344131092797570,-0.0,-0.0,0.0,0.0,0.0,0.0
1565344131095608976,-0.0,-0.0,0.0,0.0,0.0,0.0
1565344131109567674,-0.0,-0.0,0.0,0.0,0.0,0.0
1565344131160240903,-0.0,-0.0,0.0,0.0,0.0,0.0
1565344131287248091,-0.0,-0.0,0.0,0.0,0.0,0.0
1565344131292129601,-0.0,-0.0,0.0,0.0,0.0,0.0
1565344131311686684,-0.0,-0.0,0.0,0.0,0.0,0.0
1565344131361473351,-0.0,-0.0,0.0,0.0,0.0,0.0
1565344131481640278,-0.0,-0.0,0.0,0.0,0.0,0.0
1565344131487527101,-0.0,-0.0,0.0,0.0,0.0,0.0
1565344131513332518,-0.0,-0.0,0.0,0.0,0.0,0.0
1565344131561031945,-0.0,-0.0,0.0,0.0,0.0,0.0
1565344131676225955,-0.0,-0.0,0.0,0.0,0.0,0.0
1565344131684025330,-0.0,-0.0,0.0,0.0,0.0,0.0
1565344131711596007,-0.0,-0.0,0.0,0.0,0.0,0.0
1565344131761736684,-0.0,-0.0,0.0,0.0,0.0,0.0
1565344131874060538,-0.0,-0.0,0.0,0.0,0.0,0.0
1565344131892036892,-0.0,-0.0,0.0,0.0,0.0,0.0
1565344131924451840,-0.0,-0.0,0.0,0.0,0.0,0.0
1565344132199999444,-0.0,-0.0,0.0,0.0,0.0,0.0
1565344132202447101,-0.0,-0.0,0.0,0.0,0.0,0.0
1565344132202660590,-0.0,-0.0,0.0,0.0,0.0,0.0
1565344132202705799,-0.0,-0.0,0.0,0.0,0.0,0.0
1565344132202831319,-0.0,-0.0,0.0,0.0,0.0,0.0
1565344132216568142,-0.0,-0.0,0.0,0.0,0.0,0.0
1565344132263977153,-0.0,-0.0,0.0,0.0,0.0,0.0
1565344132314106840,-0.0,-0.0,0.0,0.0,0.0,0.0
1565344132364210330,-0.0,-0.0,0.0,0.0,0.0,0.0
1565344132556659340,-0.0,-0.0,0.0,0.0,0.0,0.0
1565344132578229132,-0.0,-0.0,0.0,0.0,0.0,0.0
1565344132578294809,-0.0,-0.0,0.0,0.0,0.0,0.0
1565344132580711684,-0.0,-0.0,0.0,0.0,0.0,0.0
1565344132616175382,-0.0,-0.0,0.0,0.0,0.0,0.0
1565344132751665694,-0.0,-0.0,0.0,0.0,0.0,0.0
1565344132756376371,-0.0,-0.0,0.0,0.0,0.0,0.0
1565344132765788298,-0.0,-0.0,0.0,0.0,0.0,0.0
1565344132815796892,-0.0,-0.0,0.0,0.0,0.0,0.0
1565344132948866215,-0.0,-0.0,0.0,0.0,0.0,0.0
1565344132951916111,-0.0,-0.0,0.0,0.0,0.0,0.0
1565344133028490538,-0.0,-0.316321134567,0.0,0.0,0.0,0.0
1565344133144080642,-0.0,-0.316321134567,0.0,0.0,0.0,0.0
1565344133200981788,-0.0,-0.967457652092,0.0,0.0,0.0,0.0
1565344133303833767,-0.0,-1.0,0.0,0.0,0.0,0.0
1565344133354842986,-0.0,-1.0,0.0,0.0,0.0,0.0
1565344133407072569,-0.0,-1.0,0.0,0.0,0.0,0.0
1565344133454233246,-0.0,-1.0,0.0,0.0,0.0,0.0
1565344133504196944,-0.0,-1.0,0.0,0.0,0.0,0.0
1565344133554647517,-0.0,-1.0,0.0,0.0,0.0,0.0
1565344133604665538,-0.0,-1.0,0.0,0.0,0.0,0.0
1565344133654809548,-0.0,-1.0,0.0,0.0,0.0,0.0
1565344133705968558,-0.0,-1.0,0.0,0.0,0.0,0.0
1565344133754859444,-0.0,-1.0,0.0,0.0,0.0,0.0
1565344133807231371,-0.0,-1.0,0.0,0.0,0.0,0.0
1565344133871806631,-0.0,-1.0,0.0,0.0,0.0,0.0
1565344133906729548,-0.0,-1.0,0.0,0.0,0.0,0.0
1565344133955746319,-0.0,-1.0,0.0,0.0,0.0,0.0
1565344134008883090,-0.0,-1.0,0.0,0.0,0.0,0.0
1565344134147229444,-0.0,-0.0,0.0,0.0,0.0,0.0
1565344134198341110,-0.0,-0.0,0.0,0.0,0.0,0.0
1565344134248285798,-0.0,-0.0,0.0,0.0,0.0,0.0
1565344134298373402,-0.0,-0.0,0.0,0.0,0.0,0.0
1565344134348737569,-0.0,-0.0,0.0,0.0,0.0,0.0
1565344134399727412,-0.0,-0.0,0.0,0.0,0.0,0.0
1565344134449076892,-0.0,-0.0,0.0,0.0,0.0,0.0
1565344134498976579,-0.0,-0.0,0.0,0.0,0.0,0.0
1565344134549088298,-0.0,-0.0,0.0,0.0,0.0,0.0
1565344134599659652,-0.0,-0.0,0.0,0.0,0.0,0.0
1565344134649743194,-0.0,-0.0,0.0,0.0,0.0,0.0
1565344134700157412,-0.0,-0.0,0.0,0.0,0.0,0.0
1565344134750768714,-0.0,-0.0,0.0,0.0,0.0,0.0
1565344134800359548,-0.0,-0.0,0.0,0.0,0.0,0.0
1565344134850229652,-0.0,-0.0,0.0,0.0,0.0,0.0
1565344134901019079,-0.0,-0.0,0.0,0.0,0.0,0.0
1565344134951429079,-0.0,-0.0,0.0,0.0,0.0,0.0
1565344135068415641,-0.0,-0.0,0.0,0.0,0.0,0.28296521306
1565344135172001318,-0.0,-0.0,0.0,0.0,0.0,0.5
1565344135222190068,-0.0,-0.0,0.0,0.0,0.0,0.5
1565344135273544287,-0.0,-0.0,0.0,0.0,0.0,0.5
1565344135322874652,-0.0,-0.0,0.0,0.0,0.0,0.5
1565344135372569808,-0.0,-0.0,0.0,0.0,0.0,0.5
1565344135423300485,-0.0,-0.0,0.0,0.0,0.0,0.5
1565344135473329443,-0.0,-0.0,0.0,0.0,0.0,0.5
1565344135608551422,-0.0,-0.0,0.0,0.0,0.0,0.0
1565344135657816995,-0.0,-0.0,0.0,0.0,0.0,0.0
1565344135708414651,-0.0,-0.0,0.0,0.0,0.0,0.0
1565344135759255589,-0.0,-0.0,0.0,0.0,0.0,0.0
1565344135817546787,-0.0,-0.0,0.0,0.0,0.0,0.0
1565344135913187047,0.381470113993,-0.0,0.0,0.0,0.0,0.0
1565344136056335276,0.381470113993,-0.0,0.0,0.0,0.0,0.0
1565344136117371005,0.381470113993,-0.0,0.0,0.0,0.0,0.0
1565344136186553662,0.381470113993,-0.0,0.0,0.0,0.0,0.0
1565344136207909391,0.381470113993,-0.0,0.0,0.0,0.0,0.0
1565344136256452985,0.381470113993,-0.0,0.0,0.0,0.0,0.0
1565344136404316787,0.489987522364,-0.0,0.0,0.0,0.0,0.0
1565344136516448714,0.782997310162,-0.0,0.0,0.0,0.0,0.0
1565344136619865120,0.804713666439,-0.0,0.0,0.0,0.0,0.0
1565344136723662151,0.826397895813,-0.0,0.0,0.0,0.0,0.0
1565344136828372464,0.837256014347,-0.0,0.0,0.0,0.0,0.0
1565344136944551786,0.956631600857,-0.0,0.0,0.0,0.0,0.0
1565344137048315953,1.0,-0.0,0.0,0.0,0.0,0.0
1565344137175059130,1.0,-0.0,0.0,0.0,0.0,0.0
1565344137209506943,1.0,-0.0,0.0,0.0,0.0,0.0
1565344137256793661,1.0,-0.0,0.0,0.0,0.0,0.0
1565344137306415120,1.0,-0.0,0.0,0.0,0.0,0.0
1565344137356739234,1.0,-0.0,0.0,0.0,0.0,0.0
1565344137407377515,1.0,-0.0,0.0,0.0,0.0,0.0
1565344137457265797,1.0,-0.0,0.0,0.0,0.0,0.0
1565344137506808505,1.0,-0.0,0.0,0.0,0.0,0.0
1565344137556919495,1.0,-0.0,0.0,0.0,0.0,0.0
1565344137608386422,1.0,-0.0,0.0,0.0,0.0,0.0
1565344137657020797,1.0,-0.0,0.0,0.0,0.0,0.0
1565344137707592619,1.0,-0.0,0.0,0.0,0.0,0.0
1565344137757650328,1.0,-0.0,0.0,0.0,0.0,0.0
1565344137817400432,1.0,-0.0,0.0,0.0,0.0,0.0
1565344137889542932,1.0,-0.0,0.0,0.0,0.0,0.0
1565344137911294286,1.0,-0.0,0.0,0.0,0.0,0.0
1565344137959865796,1.0,-0.0,0.0,0.0,0.0,0.0
1565344138010915276,1.0,-0.0,0.0,0.0,0.0,0.0
1565344138058891682,1.0,-0.0,0.0,0.0,0.0,0.0
1565344138119411526,1.0,-0.0,0.0,0.0,0.0,0.0
1565344138170050119,1.0,-0.0,0.0,0.0,0.0,0.0
1565344138209649234,1.0,-0.0,0.0,0.0,0.0,0.0
1565344138259466161,1.0,-0.0,0.0,0.0,0.0,0.0
1565344138309664025,1.0,-0.0,0.0,0.0,0.0,0.0
1565344138417013609,-0.0,-0.0,0.0,0.0,0.0,0.0
1565344138466679807,-0.0,-0.0,0.0,0.0,0.0,0.0
1565344138516618192,-0.0,-0.0,0.0,0.0,0.0,0.0
1565344138566199546,-0.0,-0.0,0.0,0.0,0.0,0.0
1565344138616908661,-0.0,-0.0,0.0,0.0,0.0,0.0
1565344138666625952,-0.0,-0.0,0.0,0.0,0.0,0.0
1565344138718697671,-0.0,-0.0,0.0,0.0,0.0,0.0
1565344138767388244,-0.0,-0.0,0.0,0.0,0.0,0.0
1565344138817131942,-0.0,-0.0,0.0,0.0,0.0,0.0
1565344138867718504,-0.0,-0.0,0.0,0.0,0.0,0.0
1565344138917347463,-0.0,-0.0,0.0,0.0,0.0,0.0
1565344138968112306,-0.0,-0.0,0.0,0.0,0.0,0.0
1565344139018276786,-0.0,-0.0,0.0,0.0,0.0,0.0
1565344139068321629,-0.0,-0.0,0.0,0.0,0.0,0.0
1565344139118140536,-0.0,-0.0,0.0,0.0,0.0,0.0
1565344139169053869,-0.0,-0.0,0.0,0.0,0.0,0.0
1565344139218663296,-0.0,-0.0,0.0,0.0,0.0,0.0
1565344139268966317,-0.0,-0.0,0.0,0.0,0.0,0.0
1565344139319717306,-0.0,-0.0,0.0,0.0,0.0,0.0
1565344139369666108,-0.0,-0.0,0.0,0.0,0.0,0.0
1565344139512379963,-0.674447834492,-0.0,0.0,0.0,0.0,0.0
1565344139616241317,-0.837223887444,-0.0,0.0,0.0,0.0,0.0
1565344139723640535,-0.858940243721,-0.0,0.0,0.0,0.0,0.0
1565344139774670483,-0.858940243721,-0.0,0.0,0.0,0.0,0.0
1565344139877249233,-0.0233113225549,-0.0,0.0,0.0,0.0,0.0
1565344139980377306,-0.0,-0.0,0.0,0.0,0.0,0.0
1565344140029706733,-0.0,-0.0,0.0,0.0,0.0,0.0
1565344140080312098,-0.0,-0.0,0.0,0.0,0.0,0.0
1565344140130088348,-0.0,-0.0,0.0,0.0,0.0,0.0
1565344140256184806,-0.587646722794,-0.0,0.0,0.0,0.0,0.0
1565344140359602566,-0.641905426979,-0.0,0.0,0.0,0.0,0.0
1565344140463917462,-0.804681539536,-0.0,0.0,0.0,0.0,0.0
1565344140568993243,-0.924057126045,-0.0,0.0,0.0,0.0,0.0
1565344140620743816,-0.924057126045,-0.0,0.0,0.0,0.0,0.0
1565344140669917358,-0.924057126045,-0.0,0.0,0.0,0.0,0.0
1565344140779902722,-0.913198947906,-0.0,0.0,0.0,0.0,0.0
1565344140892098504,-0.924057126045,-0.0,0.0,0.0,0.0,0.0
1565344140943208399,-0.924057126045,-0.0,0.0,0.0,0.0,0.0
1565344140992730899,-0.924057126045,-0.0,0.0,0.0,0.0,0.0
1565344141042670691,-0.924057126045,-0.0,0.0,0.0,0.0,0.0
1565344141092900899,-0.924057126045,-0.0,0.0,0.0,0.0,0.0
1565344141143223191,-0.924057126045,-0.0,0.0,0.0,0.0,0.0
1565344141193190847,-0.924057126045,-0.0,0.0,0.0,0.0,0.0
1565344141243246212,-0.924057126045,-0.0,0.0,0.0,0.0,0.0
1565344141293446264,-0.924057126045,-0.0,0.0,0.0,0.0,0.0
1565344141343863556,-0.924057126045,-0.0,0.0,0.0,0.0,0.0
1565344141393797931,-0.924057126045,-0.0,0.0,0.0,0.0,0.0
1565344141444071472,-0.924057126045,-0.0,0.0,0.0,0.0,0.0
1565344141494238503,-0.924057126045,-0.0,0.0,0.0,0.0,0.0
1565344141545060639,-0.924057126045,-0.0,0.0,0.0,0.0,0.0
1565344141594427410,-0.924057126045,-0.0,0.0,0.0,0.0,0.0
1565344141644311108,-0.924057126045,-0.0,0.0,0.0,0.0,0.0
1565344141694746837,-0.924057126045,-0.0,0.0,0.0,0.0,0.0
1565344141862484076,-1.0,-0.0,0.0,0.0,0.0,0.0
1565344141889856264,-1.0,-0.0,0.0,0.0,0.0,0.0
1565344141941338712,-1.0,-0.0,0.0,0.0,0.0,0.0
1565344141989866316,-1.0,-0.0,0.0,0.0,0.0,0.0
1565344142057853659,-1.0,-0.0,0.0,0.0,0.0,0.0
1565344142090362253,-1.0,-0.0,0.0,0.0,0.0,0.0
1565344142141636316,-1.0,-0.0,0.0,0.0,0.0,0.0
1565344142212729232,-1.0,-0.0,0.0,0.0,0.0,0.0
1565344142340250222,-0.0,-0.0,0.0,0.0,0.0,0.0
1565344142390296628,-0.0,-0.0,0.0,0.0,0.0,0.0
1565344142440583555,-0.0,-0.0,0.0,0.0,0.0,0.0
1565344142544361420,-0.0,-0.0,0.0,0.0,0.0,0.174447819591
1565344142648190847,-0.0,-0.0,0.0,0.0,0.0,0.407769858837
1565344142751835118,-0.0,-0.0,0.0,0.0,0.0,0.5
1565344142895866940,-0.0,-0.0,0.0,0.0,0.0,0.5
1565344143000625065,-0.0,-0.0,0.0,0.0,0.0,0.5
1565344143136031992,-0.0,-0.0,0.0,0.0,0.0,0.5
1565344143247883503,-0.0,-0.0,0.0,0.0,0.0,0.5
1565344143360116992,-0.0,-0.0,0.0,0.0,0.0,0.0
1565344143410819076,-0.0,-0.0,0.0,0.0,0.0,0.0
1565344143460678034,-0.0,-0.0,0.0,0.0,0.0,0.0
1565344143510688763,-0.0,-0.0,0.0,0.0,0.0,0.0
1565344143560966680,-0.0,-0.0,0.0,0.0,0.0,0.0
1565344143611823919,-0.0,-0.0,0.0,0.0,0.0,0.0
1565344143661742826,-0.0,-0.0,0.0,0.0,0.0,0.0
1565344143712280221,-0.0,-0.0,0.0,0.0,0.0,0.0
1565344143762046888,-0.0,-0.0,0.0,0.0,0.0,0.0
1565344143813964336,-0.0,-0.0,0.0,0.0,0.0,0.0
1565344143868698659,-0.0,-0.0,0.0,0.0,0.0,0.0
1565344143999931732,0.110176637769,-0.0,0.0,0.0,0.0,0.0
1565344144112482825,0.381470113993,-0.0,0.0,0.0,0.0,0.0
1565344144220394284,0.815571844578,-0.0,0.0,0.0,0.0,0.0
1565344144270303554,0.815571844578,-0.0,0.0,0.0,0.0,0.0
1565344144320929909,0.815571844578,-0.0,0.0,0.0,0.0,0.0
1565344144431854856,0.804713666439,-0.0,0.0,0.0,0.0,0.0
1565344144539949440,0.815571844578,-0.0,0.0,0.0,0.0,0.0
1565344144643641158,0.902372896671,-0.0,0.0,0.0,0.0,0.0
1565344144764545117,0.91323107481,-0.0,0.0,0.0,0.0,0.0
1565344144879833710,0.967489778996,-0.0,0.0,0.0,0.0,0.0
1565344144999575637,1.0,-0.0,0.0,0.0,0.0,0.0
1565344145049740742,1.0,-0.0,0.0,0.0,0.0,0.0
1565344145100950898,1.0,-0.0,0.0,0.0,0.0,0.0
1565344145150464387,1.0,-0.0,0.0,0.0,0.0,0.0
1565344145201175273,1.0,-0.0,0.0,0.0,0.0,0.0
1565344145250300117,1.0,-0.0,0.0,0.0,0.0,0.0
1565344145300424856,1.0,-0.0,0.0,0.0,0.0,0.0
1565344145350946471,1.0,-0.0,0.0,0.0,0.0,0.0
1565344145400972252,1.0,-0.0,0.0,0.0,0.0,0.0
1565344145451596835,1.0,-0.0,0.0,0.0,0.0,0.0
1565344145501472721,1.0,-0.0,0.0,0.0,0.0,0.0
1565344145551715585,1.0,-0.0,0.0,0.0,0.0,0.0
1565344145665605741,1.0,-0.0,0.0,0.0,0.0,0.0
1565344145808149283,1.0,-0.0233113225549,0.0,0.0,0.0,0.0
1565344145923816783,1.0,-0.0341694876552,0.0,0.0,0.0,0.0
1565344145974837616,1.0,-0.0341694876552,0.0,0.0,0.0,0.0
1565344146024275585,1.0,-0.0341694876552,0.0,0.0,0.0,0.0
1565344146075608918,1.0,-0.0341694876552,0.0,0.0,0.0,0.0
1565344146124774804,1.0,-0.0341694876552,0.0,0.0,0.0,0.0
1565344146251921835,1.0,-0.0341694876552,0.0,0.0,0.0,0.0
1565344146302274647,1.0,-0.0341694876552,0.0,0.0,0.0,0.0
1565344146447378658,1.0,-0.0450276508927,0.0,0.0,0.0,0.0
1565344146551702564,1.0,-0.0450276508927,0.0,0.0,0.0,0.0
1565344146700093658,1.0,-0.0341694876552,0.0,0.0,0.0,0.0
1565344146751935324,1.0,-0.0341694876552,0.0,0.0,0.0,0.0
1565344146800917876,1.0,-0.0341694876552,0.0,0.0,0.0,0.0
1565344146850450949,1.0,-0.0341694876552,0.0,0.0,0.0,0.0
1565344146988150741,1.0,-0.0450276508927,0.0,0.0,0.0,0.0
1565344147112238085,1.0,-0.0341694876552,0.0,0.0,0.0,0.0
1565344147220672512,1.0,-0.0341694876552,0.0,0.0,0.0,0.0
1565344147224466314,1.0,-0.0341694876552,0.0,0.0,0.0,0.0
1565344147262527043,1.0,-0.0341694876552,0.0,0.0,0.0,0.0
1565344147312547876,1.0,-0.0341694876552,0.0,0.0,0.0,0.0
1565344147362666939,1.0,-0.0341694876552,0.0,0.0,0.0,0.0
1565344147413394387,1.0,-0.0341694876552,0.0,0.0,0.0,0.0
1565344147519813345,1.0,-0.0341694876552,0.0,0.0,0.0,0.0
1565344147623785584,1.0,-0.0341694876552,0.0,0.0,0.0,0.0
1565344147675932876,1.0,-0.0341694876552,0.0,0.0,0.0,0.0
1565344147776838709,-0.0,-0.0,0.0,0.0,0.0,0.0
1565344147850435584,-0.0,-0.0,0.0,0.0,0.0,0.0
1565344147896889543,-0.0,-0.0,0.0,0.0,0.0,0.0
1565344147926341366,-0.0,-0.0,0.0,0.0,0.0,0.0
1565344147977265063,-0.0,-0.0,0.0,0.0,0.0,0.0
1565344148026652303,-0.0,-0.0,0.0,0.0,0.0,0.0
1565344148076775011,-0.0,-0.0,0.0,0.0,0.0,0.0
1565344148127416001,-0.0,-0.0,0.0,0.0,0.0,0.0
1565344148186154282,-0.0,-0.0,0.0,0.0,0.0,0.0
1565344148227343605,-0.0,-0.0,0.0,0.0,0.0,0.0
1565344148280630584,-0.0,-0.0,0.0,0.0,0.0,0.0
1565344148327888188,-0.0,-0.0,0.0,0.0,0.0,0.0
1565344148377820688,-0.0,-0.0,0.0,0.0,0.0,0.0
1565344148427934907,-0.0,-0.0,0.0,0.0,0.0,0.0
1565344148478707615,-0.0,-0.0,0.0,0.0,0.0,0.0
1565344148528235376,-0.0,-0.0,0.0,0.0,0.0,0.0
1565344148578690063,-0.0,-0.0,0.0,0.0,0.0,0.0
1565344148628870428,-0.0,-0.0,0.0,0.0,0.0,0.0
1565344148680376834,-0.0,-0.0,0.0,0.0,0.0,0.0
1565344148728757824,-0.0,-0.0,0.0,0.0,0.0,0.0
1565344148871991938,-0.0,-0.0,0.0,0.0,0.0,0.43489921093
1565344148975945115,-0.0,-0.0,0.0,0.0,0.0,0.5
1565344149027693501,-0.0,-0.0,0.0,0.0,0.0,0.5
1565344149076764855,-0.0,-0.0,0.0,0.0,0.0,0.5
1565344149126491938,-0.0,-0.0,0.0,0.0,0.0,0.5
1565344149268761521,-0.0,-0.0,0.0,0.0,0.0,0.5
1565344149318701573,-0.0,-0.0,0.0,0.0,0.0,0.5
1565344149371372250,-0.0,-0.0,0.0,0.0,0.0,0.5
1565344149492014594,-0.0,-0.0,0.0,0.0,0.0,0.5
1565344149542493969,-0.0,-0.0,0.0,0.0,0.0,0.5
1565344149592624282,-0.0,-0.0,0.0,0.0,0.0,0.5
1565344149711929490,-0.0,-0.0,0.0,0.0,0.0,0.0
1565344149762719386,-0.0,-0.0,0.0,0.0,0.0,0.0
1565344149816105844,-0.0,-0.0,0.0,0.0,0.0,0.0
1565344149878213865,-0.0,-0.0,0.0,0.0,0.0,0.0
1565344149913097667,-0.0,-0.0,0.0,0.0,0.0,0.0
1565344149963314073,-0.0,-0.0,0.0,0.0,0.0,0.0
1565344150013822406,-0.0,-0.0,0.0,0.0,0.0,0.0
1565344150063459229,-0.0,-0.0,0.0,0.0,0.0,0.0
1565344150113466417,-0.0,-0.0,0.0,0.0,0.0,0.0
1565344150163701313,-0.0,-0.0,0.0,0.0,0.0,0.0
1565344150214155271,-0.0,-0.0,0.0,0.0,0.0,0.0
1565344150264469125,-0.0,-0.0,0.0,0.0,0.0,0.0
1565344150314449906,-0.0,-0.0,0.0,0.0,0.0,0.0
1565344150364580167,-0.0,-0.0,0.0,0.0,0.0,0.0
1565344150414474906,-0.0,-0.0,0.0,0.0,0.0,0.0
1565344150464580896,-0.0,-0.0,0.0,0.0,0.0,0.0
1565344150514937198,-0.0,-0.0,0.0,0.0,0.0,0.0
1565344150565082094,-0.0,-0.0,0.0,0.0,0.0,0.0
1565344150615085583,-0.0,-0.0,0.0,0.0,0.0,0.0
1565344150667124021,-0.0,-0.0,0.0,0.0,0.0,0.0
1565344150716537250,-0.0,-0.0,0.0,0.0,0.0,0.0
1565344150766078448,-0.0,-0.0,0.0,0.0,0.0,0.0
1565344150816067667,-0.0,-0.0,0.0,0.0,0.0,0.0
1565344150866613604,-0.0,-0.0,0.0,0.0,0.0,0.0
1565344150915917875,-0.0,-0.0,0.0,0.0,0.0,0.0
1565344150966525271,-0.0,-0.0,0.0,0.0,0.0,0.0
1565344151016676573,-0.0,-0.0,0.0,0.0,0.0,0.0
1565344151067667302,-0.0,-0.0,0.0,0.0,0.0,0.0
1565344151117397718,-0.0,-0.0,0.0,0.0,0.0,0.0
1565344151167260739,-0.0,-0.0,0.0,0.0,0.0,0.0
1565344151217724437,-0.0,-0.0,0.0,0.0,0.0,0.0
1565344151267455427,-0.0,-0.0,0.0,0.0,0.0,0.0
1565344151318160948,-0.0,-0.0,0.0,0.0,0.0,0.0
1565344151367932510,-0.0,-0.0,0.0,0.0,0.0,0.0
1565344151419028448,-0.0,-0.0,0.0,0.0,0.0,0.0
1565344151468506000,-0.0,-0.0,0.0,0.0,0.0,0.0
1565344151521217406,-0.0,-0.0,0.0,0.0,0.0,0.0
1565344151570666416,-0.0,-0.0,0.0,0.0,0.0,0.0
1565344151623556520,-0.0,-0.0,0.0,0.0,0.0,0.0
1565344151669497822,-0.0,-0.0,0.0,0.0,0.0,0.0
1565344151720415010,-0.0,-0.0,0.0,0.0,0.0,0.0
1565344151769759281,-0.0,-0.0,0.0,0.0,0.0,0.0
1565344151838790479,-0.0,-0.0,0.0,0.0,0.0,0.0
1565344151870077458,-0.0,-0.0,0.0,0.0,0.0,0.0
1565344151920240895,-0.0,-0.0,0.0,0.0,0.0,0.0
1565344151970704645,-0.0,-0.0,0.0,0.0,0.0,0.0
1565344152020928812,-0.0,-0.0,0.0,0.0,0.0,0.0
1565344152070984645,-0.0,-0.0,0.0,0.0,0.0,0.0
1565344152120976520,-0.0,-0.0,0.0,0.0,0.0,0.0
1565344152179513291,-0.0,-0.0,0.0,0.0,0.0,0.0
1565344152221107822,-0.0,-0.0,0.0,0.0,0.0,0.0
1565344152271608603,-0.0,-0.0,0.0,0.0,0.0,0.0
1565344152322194541,-0.0,-0.0,0.0,0.0,0.0,0.0
1565344152371783968,-0.0,-0.0,0.0,0.0,0.0,0.0
1565344152422062405,-0.0,-0.0,0.0,0.0,0.0,0.0
1565344152473220374,-0.0,-0.0,0.0,0.0,0.0,0.0
1565344152522404801,-0.0,-0.0,0.0,0.0,0.0,0.0
1565344152573024333,-0.0,-0.0,0.0,0.0,0.0,0.0
1565344152623521780,-0.0,-0.0,0.0,0.0,0.0,0.0
1565344152673833655,-0.0,-0.0,0.0,0.0,0.0,0.0
1565344152723605062,-0.0,-0.0,0.0,0.0,0.0,0.0
1565344152773244853,-0.0,-0.0,0.0,0.0,0.0,0.0
1565344152908756520,-0.0,-0.45741301775,0.0,0.0,0.0,0.0
1565344153012827614,-0.0,-0.707022309303,0.0,0.0,0.0,0.0
1565344153116639228,-0.0,-0.782965183258,0.0,0.0,0.0,0.0
1565344153227923082,-0.0,-0.772107064724,0.0,0.0,0.0,0.0
1565344153277888447,-0.0,-0.772107064724,0.0,0.0,0.0,0.0
1565344153328444957,-0.0,-0.772107064724,0.0,0.0,0.0,0.0
1565344153379437770,-0.0,-0.772107064724,0.0,0.0,0.0,0.0
1565344153507976520,-0.0,-0.0,0.0,0.0,0.0,0.0
1565344153558042405,-0.0,-0.0,0.0,0.0,0.0,0.0
1565344153609119332,-0.0,-0.0,0.0,0.0,0.0,0.0
1565344153658618082,-0.0,-0.0,0.0,0.0,0.0,0.0
1565344153709177613,-0.0,-0.0,0.0,0.0,0.0,0.0
1565344153766536676,-0.0,-0.0,0.0,0.0,0.0,0.0
1565344153812534124,-0.0,-0.0,0.0,0.0,0.0,0.0
1565344153916856780,0.175293505192,-0.0,0.0,0.0,0.0,0.0
1565344154020171988,0.370611965656,-0.0,0.0,0.0,0.0,0.0
1565344154135578342,0.91323107481,-0.0,0.0,0.0,0.0,0.0
1565344154232500426,1.0,-0.0,0.0,0.0,0.0,0.0
1565344154284041988,1.0,-0.0,0.0,0.0,0.0,0.0
1565344154333146988,1.0,-0.0,0.0,0.0,0.0,0.0
1565344154386608655,1.0,-0.0,0.0,0.0,0.0,0.0
1565344154432437196,1.0,-0.0,0.0,0.0,0.0,0.0
1565344154482707092,1.0,-0.0,0.0,0.0,0.0,0.0
1565344154533008290,1.0,-0.0,0.0,0.0,0.0,0.0
1565344154583305842,1.0,-0.0,0.0,0.0,0.0,0.0
1565344154633330738,1.0,-0.0,0.0,0.0,0.0,0.0
1565344154705802353,1.0,-0.0,0.0,0.0,0.0,0.0
1565344154734033707,1.0,-0.0,0.0,0.0,0.0,0.0
1565344154784650634,1.0,-0.0,0.0,0.0,0.0,0.0
1565344154834220946,1.0,-0.0,0.0,0.0,0.0,0.0
1565344154884331467,1.0,-0.0,0.0,0.0,0.0,0.0
1565344154934627665,1.0,-0.0,0.0,0.0,0.0,0.0
1565344154984700842,1.0,-0.0,0.0,0.0,0.0,0.0
1565344155034917509,1.0,-0.0,0.0,0.0,0.0,0.0
1565344155085333654,1.0,-0.0,0.0,0.0,0.0,0.0
1565344155135452665,1.0,-0.0,0.0,0.0,0.0,0.0
1565344155187855425,1.0,-0.0,0.0,0.0,0.0,0.0
1565344155244365425,1.0,-0.0,0.0,0.0,0.0,0.0
1565344155312755738,1.0,-0.0,0.0,0.0,0.0,0.0
1565344155344251363,1.0,-0.0,0.0,0.0,0.0,0.0
1565344155388737561,1.0,-0.0,0.0,0.0,0.0,0.0
1565344155460535373,1.0,-0.0,0.0,0.0,0.0,0.0
1565344155489234956,1.0,-0.0,0.0,0.0,0.0,0.0
1565344155537283342,1.0,-0.0,0.0,0.0,0.0,0.0
1565344155586568915,1.0,-0.0,0.0,0.0,0.0,0.0
1565344155636796936,1.0,-0.0,0.0,0.0,0.0,0.0
1565344155688113186,1.0,-0.0,0.0,0.0,0.0,0.0
1565344155737573290,1.0,-0.0,0.0,0.0,0.0,0.0
1565344155787970165,1.0,-0.0,0.0,0.0,0.0,0.0
1565344155849309123,1.0,-0.0,0.0,0.0,0.0,0.0
1565344155892116102,1.0,-0.0,0.0,0.0,0.0,0.0
1565344155939213602,1.0,-0.0,0.0,0.0,0.0,0.0
1565344155988517717,1.0,-0.0,0.0,0.0,0.0,0.0
1565344156092498498,-0.0,-0.0,0.0,0.0,0.0,0.0
1565344156142660946,-0.0,-0.0,0.0,0.0,0.0,0.0
1565344156192503914,-0.0,-0.0,0.0,0.0,0.0,0.0
1565344156243284175,-0.0,-0.0,0.0,0.0,0.0,0.0
1565344156293238654,-0.0,-0.0,0.0,0.0,0.0,0.0
1565344156404795998,-0.0,-0.0,0.0,0.0,0.0,0.342652976513
1565344156512932821,-0.0,-0.0,0.0,0.0,0.0,0.472870647907
1565344156624102456,-0.0,-0.0,0.0,0.0,0.0,0.5
1565344156675630529,-0.0,-0.0,0.0,0.0,0.0,0.5
1565344156784239696,-0.0,-0.0,0.0,0.0,0.0,0.396911680698
1565344156888210268,-0.0,-0.0,0.0,0.0,0.0,0.0
1565344156939201987,-0.0,-0.0,0.0,0.0,0.0,0.0
1565344156988463133,-0.0,-0.0,0.0,0.0,0.0,0.0
1565344157038476675,-0.0,-0.0,0.0,0.0,0.0,0.0
