%time,field.header.seq,field.header.stamp,field.header.frame_id,field.pose.position.x,field.pose.position.y,field.pose.position.z,field.pose.orientation.x,field.pose.orientation.y,field.pose.orientation.z,field.pose.orientation.w
1565344080536651495,87009,1565344080481397684,map,0.681874275208,0.043966293335,0.0,0.0,0.0,0.986805976108,0.161907274444
1565344080603303995,87010,1565344080548054715,map,0.680692672729,0.0419483184814,0.0,0.0,0.0,0.986760077703,0.162186772126
1565344080670226756,87011,1565344080614789715,map,0.681027412415,0.0423889160156,0.0,0.0,0.0,0.986556627152,0.163419770599
1565344080737036079,87012,1565344080681894299,map,0.679354667664,0.0408554077148,0.0,0.0,0.0,0.986470735278,0.163937452832
1565344080803906652,87013,1565344080748723726,map,0.678298950195,0.0396366119385,0.0,0.0,0.0,0.986422323745,0.164228496969
1565344080878060818,87014,1565344080817522163,map,0.677973747253,0.0395221710205,0.0,0.0,0.0,0.986234876521,0.165350440982
1565344080942950506,87015,1565344080883146330,map,0.67733001709,0.0375108718872,0.0,0.0,0.0,0.986103842917,0.166130102581
1565344081010388526,87016,1565344080949914142,map,0.676393508911,0.0367527008057,0.0,0.0,0.0,0.985900751575,0.167331132922
1565344081077460870,87017,1565344081016797267,map,0.674939155579,0.0367994308472,0.0,0.0,0.0,0.985723246721,0.168373634736
1565344081143670818,87018,1565344081083240496,map,0.675213813782,0.0353546142578,0.0,0.0,0.0,0.985640492814,0.168857392272
1565344081211206026,87019,1565344081150665965,map,0.67507648468,0.0359401702881,0.0,0.0,0.0,0.985380450692,0.170368328611
1565344081278039672,87020,1565344081216902475,map,0.67217540741,0.0331163406372,0.0,0.0,0.0,0.98533170828,0.170650006321
1565344081343782224,87021,1565344081283680496,map,0.67231464386,0.0326442718506,0.0,0.0,0.0,0.985211440489,0.171342982144
1565344081409954464,87022,1565344081350049923,map,0.671880722046,0.0326337814331,0.0,0.0,0.0,0.984961267197,0.172775293723
1565344081476512537,87023,1565344081416967215,map,0.671488761902,0.0315322875977,0.0,0.0,0.0,0.984820101652,0.173578130484
1565344081544490245,87024,1565344081483452788,map,0.670295715332,0.0304870605469,0.0,0.0,0.0,0.984678385658,0.174380264992
1565344081609750349,87025,1565344081549998152,map,0.669092178345,0.0297365188599,0.0,0.0,0.0,0.9845098803,0.175329106515
1565344081676780453,87026,1565344081616970757,map,0.668594360352,0.0285930633545,0.0,0.0,0.0,0.984405620545,0.175913541947
1565344081746878162,87027,1565344081686614611,map,0.6680727005,0.0289993286133,0.0,0.0,0.0,0.984136390278,0.177413543255
1565344081811757380,87028,1565344081751029246,map,0.666890144348,0.0276336669922,0.0,0.0,0.0,0.984075316225,0.177751995762
1565344081878062589,87029,1565344081817305027,map,0.665864944458,0.0269241333008,0.0,0.0,0.0,0.983866218009,0.178905743509
1565344081943507016,87030,1565344081883198465,map,0.664016723633,0.0253353118896,0.0,0.0,0.0,0.983788130852,0.17933464137
1565344082009736755,87031,1565344081949947944,map,0.664364814758,0.0240116119385,0.0,0.0,0.0,0.983603523546,0.180344416236
1565344082077056912,87032,1565344082016878100,map,0.66415977478,0.025408744812,0.0,0.0,0.0,0.983320560841,0.181880935304
1565344082144052484,87033,1565344082083236798,map,0.662973403931,0.0226421356201,0.0,0.0,0.0,0.98324515361,0.18228814526
1565344082211386391,87034,1565344082150032736,map,0.662405014038,0.0225553512573,0.0,0.0,0.0,0.983016760723,0.183515798062
1565344082277030036,87035,1565344082216842267,map,0.661323547363,0.0213108062744,0.0,0.0,0.0,0.982912447017,0.184073684972
1565344082343086859,87036,1565344082283355444,map,0.660455703735,0.0201854705811,0.0,0.0,0.0,0.982812350417,0.184607377611
1565344082409415297,87037,1565344082350104975,map,0.662129402161,0.0207185745239,0.0,0.0,0.0,0.982398312666,0.186798167207
1565344082477140036,87038,1565344082417419975,map,0.660334587097,0.0192899703979,0.0,0.0,0.0,0.982338405641,0.187112951992
1565344082543558786,87039,1565344082483401069,map,0.659662246704,0.0179653167725,0.0,0.0,0.0,0.982232587385,0.187667643131
1565344082609813943,87040,1565344082549962006,map,0.659235954285,0.0179471969604,0.0,0.0,0.0,0.982046848552,0.188637184164
1565344082676616443,87041,1565344082616593360,map,0.657641410828,0.0157794952393,0.0,0.0,0.0,0.98190375024,0.189380635929
1565344082745198838,87042,1565344082684536850,map,0.65758228302,0.0155153274536,0.0,0.0,0.0,0.981786800904,0.18998599309
1565344082810790557,87043,1565344082750601017,map,0.655746459961,0.015417098999,0.0,0.0,0.0,0.981672340998,0.19057653297
1565344082878154307,87044,1565344082816771485,map,0.654873847961,0.0131816864014,0.0,0.0,0.0,0.981539221916,0.191260962669
1565344082943067692,87045,1565344082883431746,map,0.654957771301,0.01305103302,0.0,0.0,0.0,0.981301622113,0.192476300977
1565344083009691963,87046,1565344082950147423,map,0.65441608429,0.0128688812256,0.0,0.0,0.0,0.981079946315,0.193603044754
1565344083076623474,87047,1565344083016625027,map,0.652812004089,0.0108308792114,0.0,0.0,0.0,0.981031772601,0.193847004483
1565344083144393057,87048,1565344083083893985,map,0.652013778687,0.0101871490479,0.0,0.0,0.0,0.980823952987,0.194895800998
1565344083210213005,87049,1565344083150515964,map,0.651577949524,0.00909233093262,0.0,0.0,0.0,0.980710268275,0.19546705528
1565344083277457536,87050,1565344083217383985,map,0.651208877563,0.00843334197998,0.0,0.0,0.0,0.980516666904,0.196435907929
1565344083344116130,87051,1565344083283679037,map,0.650097846985,0.00968933105469,0.0,0.0,0.0,0.980248760775,0.197768468161
1565344083410201911,87052,1565344083350001850,map,0.649073600769,0.00639629364014,0.0,0.0,0.0,0.980176813295,0.198124745248
1565344083476500765,87053,1565344083416639350,map,0.648488044739,0.00665283203125,0.0,0.0,0.0,0.979913055057,0.199425185292
1565344083543101598,87054,1565344083483296641,map,0.646969795227,0.00460815429688,0.0,0.0,0.0,0.97980083284,0.199975818455
1565344083610559567,87055,1565344083549955808,map,0.646695137024,0.00419807434082,0.0,0.0,0.0,0.979562873913,0.201138201371
1565344083676640505,87056,1565344083616655912,map,0.64515209198,0.00340461730957,0.0,0.0,0.0,0.979405450212,0.201903353354
1565344083746095244,87057,1565344083686145183,map,0.643743515015,0.00152111053467,0.0,0.0,0.0,0.979343860905,0.20220188453
1565344083812104932,87058,1565344083751454141,map,0.643490791321,0.00215148925781,0.0,0.0,0.0,0.979136339617,0.203204400647
1565344083877328577,87059,1565344083816946849,map,0.641781806946,2.00271606445e-05,0.0,0.0,0.0,0.978944658683,0.204125831868
1565344083944355088,87060,1565344083883261902,map,0.642702102661,-0.00130844116211,0.0,0.0,0.0,0.978693014493,0.205328963817
1565344084010567744,87061,1565344083950340860,map,0.641443252563,-0.001296043396,0.0,0.0,0.0,0.978451461746,0.206476964832
1565344084076789827,87062,1565344084016846537,map,0.639478683472,-0.00393676757812,0.0,0.0,0.0,0.978418688233,0.206632210743
1565344084143553629,87063,1565344084083277787,map,0.639520645142,-0.00410652160645,0.0,0.0,0.0,0.978130478856,0.207992226615
1565344084209668213,87064,1565344084150140964,map,0.637636184692,-0.00520324707031,0.0,0.0,0.0,0.978002353651,0.208593854784
1565344084276265400,87065,1565344084216606745,map,0.636403083801,-0.0059814453125,0.0,0.0,0.0,0.977834114474,0.209381098888
1565344084346099984,87066,1565344084283990547,map,0.636555671692,-0.00666999816895,0.0,0.0,0.0,0.977605598816,0.210445463633
1565344084410272431,87067,1565344084350419870,map,0.635404586792,-0.00808620452881,0.0,0.0,0.0,0.977444706812,0.211191489235
1565344084477048890,87068,1565344084417162943,map,0.635047912598,-0.00872993469238,0.0,0.0,0.0,0.977247178344,0.212103636034
1565344084544108161,87069,1565344084483862474,map,0.633830070496,-0.0104122161865,0.0,0.0,0.0,0.977140277127,0.212595575722
1565344084610629358,87070,1565344084550520964,map,0.632917404175,-0.0107345581055,0.0,0.0,0.0,0.976879064621,0.213792640438
1565344084677460140,87071,1565344084617357891,map,0.632249832153,-0.0101709365845,0.0,0.0,0.0,0.976625149843,0.214949567794
1565344084744894202,87072,1565344084683889193,map,0.63006401062,-0.0128402709961,0.0,0.0,0.0,0.976603518256,0.215047827541
1565344084810352379,87073,1565344084750431849,map,0.629155158997,-0.0132961273193,0.0,0.0,0.0,0.976512835035,0.215459237473
1565344084877244046,87074,1565344084817297578,map,0.628852844238,-0.0147495269775,0.0,0.0,0.0,0.976204808221,0.216850576218
1565344084943589931,87075,1565344084883234609,map,0.628535270691,-0.0165338516235,0.0,0.0,0.0,0.976086059651,0.217384461621
1565344085010063837,87076,1565344084950073776,map,0.62841796875,-0.0164051055908,0.0,0.0,0.0,0.975768091156,0.218807294855
1565344085077188004,87077,1565344085017308984,map,0.627372741699,-0.0179624557495,0.0,0.0,0.0,0.975648089427,0.219341755255
1565344085143858525,87078,1565344085083293620,map,0.626620292664,-0.0186204910278,0.0,0.0,0.0,0.975504985896,0.219977322677
1565344085211433577,87079,1565344085150538203,map,0.626070022583,-0.018102645874,0.0,0.0,0.0,0.975259613401,0.221062630195
1565344085276533056,87080,1565344085216618307,map,0.624491691589,-0.0207538604736,0.0,0.0,0.0,0.975211417475,0.221275148235
1565344085343829931,87081,1565344085283200026,map,0.625720024109,-0.0202875137329,0.0,0.0,0.0,0.974736151799,0.223359428671
1565344085409660035,87082,1565344085349968151,map,0.62442779541,-0.0219888687134,0.0,0.0,0.0,0.974599108521,0.223956642389
1565344085477185660,87083,1565344085417292422,map,0.623558044434,-0.0223598480225,0.0,0.0,0.0,0.974472593128,0.224506492651
1565344085545151181,87084,1565344085483184766,map,0.623022079468,-0.0243062973022,0.0,0.0,0.0,0.974204187487,0.225668343112
1565344085609810816,87085,1565344085549924193,map,0.622388839722,-0.0248699188232,0.0,0.0,0.0,0.973990988481,0.226586747976
1565344085676417118,87086,1565344085616628515,map,0.621839523315,-0.0253047943115,0.0,0.0,0.0,0.973790156929,0.22744830241
1565344085747713993,87087,1565344085683819765,map,0.621287345886,-0.0265026092529,0.0,0.0,0.0,0.973456399886,0.228872535534
1565344085812641858,87088,1565344085751096640,map,0.620289802551,-0.0265998840332,0.0,0.0,0.0,0.973437925629,0.228951097284
1565344085876768420,87089,1565344085816658567,map,0.620016098022,-0.0282192230225,0.0,0.0,0.0,0.973139828726,0.230214842585
1565344085943778316,87090,1565344085883949557,map,0.620119094849,-0.0299625396729,0.0,0.0,0.0,0.972912010246,0.231175734711
1565344086009954514,87091,1565344085950606484,map,0.618169784546,-0.0305767059326,0.0,0.0,0.0,0.972795370203,0.231666069399
1565344086076833316,87092,1565344086017387942,map,0.617256164551,-0.0316295623779,0.0,0.0,0.0,0.972576128844,0.23258476649
1565344086143393577,87093,1565344086083274922,map,0.617723464966,-0.0319728851318,0.0,0.0,0.0,0.972286192211,0.23379384174
1565344086212585087,87094,1565344086150653359,map,0.61597442627,-0.0321779251099,0.0,0.0,0.0,0.972074957312,0.234670572008
1565344086277980191,87095,1565344086216998880,map,0.615308761597,-0.0335559844971,0.0,0.0,0.0,0.971900994822,0.235390008847
1565344086345293524,87096,1565344086283282057,map,0.61483001709,-0.0344877243042,0.0,0.0,0.0,0.971633203181,0.236492956504
1565344086409827327,87097,1565344086350049192,map,0.613858222961,-0.0366907119751,0.0,0.0,0.0,0.971590109446,0.236669937312
1565344086478453368,87098,1565344086417219244,map,0.612698554993,-0.0373668670654,0.0,0.0,0.0,0.971459079595,0.237207201982
1565344086543353785,87099,1565344086483333567,map,0.612297058105,-0.0379238128662,0.0,0.0,0.0,0.971207234098,0.238236245009
1565344086609675347,87100,1565344086549977526,map,0.611490249634,-0.038444519043,0.0,0.0,0.0,0.97091224124,0.239435627698
1565344086676513993,87101,1565344086616654505,map,0.610890388489,-0.0402317047119,0.0,0.0,0.0,0.97076471871,0.240033041285
1565344086745037743,87102,1565344086683734244,map,0.610137939453,-0.0406179428101,0.0,0.0,0.0,0.970591522719,0.240732415819
1565344086810295556,87103,1565344086750526536,map,0.607727050781,-0.0419874191284,0.0,0.0,0.0,0.970630452581,0.240575402985
1565344086878030347,87104,1565344086817591223,map,0.608708381653,-0.0424966812134,0.0,0.0,0.0,0.970173669635,0.242410913012
1565344086944714462,87105,1565344086883467005,map,0.607668876648,-0.0435762405396,0.0,0.0,0.0,0.970031239527,0.242980234468
1565344087009537639,87106,1565344086950048202,map,0.606611251831,-0.044397354126,0.0,0.0,0.0,0.969878661264,0.243588551505
1565344087076388889,87107,1565344087016738098,map,0.605845451355,-0.046217918396,0.0,0.0,0.0,0.969678349591,0.24438473425
1565344087143420399,87108,1565344087083391119,map,0.604040145874,-0.0472764968872,0.0,0.0,0.0,0.969530059696,0.244972372619
1565344087209657326,87109,1565344087150104869,map,0.603810310364,-0.047700881958,0.0,0.0,0.0,0.969304026277,0.245865216415
1565344087276782535,87110,1565344087216634661,map,0.602869033813,-0.0479860305786,0.0,0.0,0.0,0.969070169279,0.246785346027
1565344087343735451,87111,1565344087283817838,map,0.601934432983,-0.0498027801514,0.0,0.0,0.0,0.968987447223,0.247109949462
1565344087410616857,87112,1565344087350641744,map,0.600618362427,-0.0513896942139,0.0,0.0,0.0,0.968859942965,0.247609391819
1565344087477158212,87113,1565344087417396119,map,0.600412368774,-0.0518226623535,0.0,0.0,0.0,0.968687001351,0.248285105098
1565344087544183316,87114,1565344087483343775,map,0.598442077637,-0.0533399581909,0.0,0.0,0.0,0.968568025216,0.248748830208
1565344087610330399,87115,1565344087550642004,map,0.597943305969,-0.0545778274536,0.0,0.0,0.0,0.968409748584,0.24936430949
1565344087676830451,87116,1565344087616913827,map,0.596440315247,-0.0556163787842,0.0,0.0,0.0,0.968333038066,0.249662026327
1565344087744859045,87117,1565344087683635338,map,0.595666885376,-0.0562925338745,0.0,0.0,0.0,0.968187635501,0.250225303402
1565344087812084513,87118,1565344087750360285,map,0.594082832336,-0.0575456619263,0.0,0.0,0.0,0.968118036441,0.250494446081
1565344087876334305,87119,1565344087816609817,map,0.593053817749,-0.0588874816895,0.0,0.0,0.0,0.967894618937,0.251356333982
1565344087943249878,87120,1565344087883586379,map,0.59253692627,-0.0597524642944,0.0,0.0,0.0,0.967776213835,0.251811834381
1565344088009620659,87121,1565344087949964296,map,0.592351913452,-0.0617351531982,0.0,0.0,0.0,0.967726845149,0.252001494396
1565344088077346805,87122,1565344088016640702,map,0.589288711548,-0.0627555847168,0.0,0.0,0.0,0.967617134282,0.252422426587
1565344088143465763,87123,1565344088083218150,map,0.589304924011,-0.0635614395142,0.0,0.0,0.0,0.967447473317,0.253071899612
1565344088210427847,87124,1565344088149984608,map,0.5883436203,-0.0646276473999,0.0,0.0,0.0,0.967364699549,0.253388117453
1565344088276162117,87125,1565344088216593098,map,0.587191581726,-0.0658931732178,0.0,0.0,0.0,0.967193693877,0.254040072674
1565344088342776492,87126,1565344088283230858,map,0.586207389832,-0.06653881073,0.0,0.0,0.0,0.967057701844,0.254557265274
1565344088409778732,87127,1565344088350158306,map,0.585336685181,-0.0675344467163,0.0,0.0,0.0,0.966930554802,0.255039805108
1565344088477513576,87128,1565344088417257108,map,0.584383964539,-0.0698843002319,0.0,0.0,0.0,0.966923044814,0.255068275972
1565344088544758576,87129,1565344088484287264,map,0.582898139954,-0.0697765350342,0.0,0.0,0.0,0.966629593067,0.256178121249
1565344088609778055,87130,1565344088549970546,map,0.581120491028,-0.071268081665,0.0,0.0,0.0,0.966574876024,0.256384494537
1565344088677657690,87131,1565344088617109608,map,0.580187797546,-0.073260307312,0.0,0.0,0.0,0.96654876986,0.256482895105
1565344088746845451,87132,1565344088686662421,map,0.579356193542,-0.0737743377686,0.0,0.0,0.0,0.966344282801,0.257252263545
1565344088812449617,87133,1565344088750950077,map,0.578956604004,-0.0747289657593,0.0,0.0,0.0,0.966442285192,0.256883844164
1565344088877329826,87134,1565344088817106535,map,0.578550338745,-0.0767078399658,0.0,0.0,0.0,0.966300323091,0.2574173374
1565344088942839826,87135,1565344088883362368,map,0.57972240448,-0.0780467987061,0.0,0.0,0.0,0.966113618226,0.258117176254
1565344089009702117,87136,1565344088950222420,map,0.579469680786,-0.0806322097778,0.0,0.0,0.0,0.966165753595,0.257921958314
1565344089076660919,87137,1565344089017036014,map,0.580949783325,-0.0826625823975,0.0,0.0,0.0,0.966149917227,0.257981273433
1565344089143359096,87138,1565344089083560077,map,0.583940505981,-0.0853061676025,0.0,0.0,0.0,0.966195602161,0.257810120755
1565344089209805034,87139,1565344089150147681,map,0.586715698242,-0.08815574646,0.0,0.0,0.0,0.966127986303,0.258063391596
1565344089276521961,87140,1565344089216642785,map,0.589718818665,-0.0921239852905,0.0,0.0,0.0,0.966267327128,0.257541166659
1565344089343231805,87141,1565344089283405441,map,0.593441963196,-0.0951795578003,0.0,0.0,0.0,0.966223133742,0.257706918461
1565344089409970555,87142,1565344089350137368,map,0.598295211792,-0.0993175506592,0.0,0.0,0.0,0.966205282489,0.257773839034
1565344089476892377,87143,1565344089416652004,map,0.602979660034,-0.103370666504,0.0,0.0,0.0,0.966324285089,0.257327371352
1565344089543476492,87144,1565344089483289764,map,0.607856750488,-0.10740852356,0.0,0.0,0.0,0.966321309471,0.257338545233
1565344089609550763,87145,1565344089549974087,map,0.613499641418,-0.111706733704,0.0,0.0,0.0,0.966556229786,0.256454780928
1565344089677489252,87146,1565344089617119347,map,0.618074417114,-0.116525650024,0.0,0.0,0.0,0.9666241264,0.256198747581
1565344089744298211,87147,1565344089683710701,map,0.6236743927,-0.120415687561,0.0,0.0,0.0,0.966644036388,0.256123616472
1565344089810152429,87148,1565344089750475753,map,0.62993144989,-0.125595092773,0.0,0.0,0.0,0.967045319699,0.254604300136
1565344089876662846,87149,1565344089816828670,map,0.63688659668,-0.130047798157,0.0,0.0,0.0,0.967152979853,0.254195030561
1565344089943272533,87150,1565344089883232576,map,0.642637252808,-0.135770797729,0.0,0.0,0.0,0.967447382811,0.253072245598
1565344090010051856,87151,1565344089950055180,map,0.649600028992,-0.139734268188,0.0,0.0,0.0,0.967657263572,0.252268547895
1565344090076601492,87152,1565344090016546899,map,0.657011032104,-0.145833969116,0.0,0.0,0.0,0.96796364944,0.251090368917
1565344090145313627,87153,1565344090084467993,map,0.664576530457,-0.150861740112,0.0,0.0,0.0,0.96823376478,0.250046749111
1565344090211946335,87154,1565344090150506430,map,0.672029495239,-0.156363487244,0.0,0.0,0.0,0.968525191686,0.248915554092
1565344090277340502,87155,1565344090217069712,map,0.680087089539,-0.162806510925,0.0,0.0,0.0,0.968865521497,0.247587562803
1565344090344031440,87156,1565344090283249399,map,0.687948226929,-0.168533325195,0.0,0.0,0.0,0.969066109311,0.246801288052
1565344090409968940,87157,1565344090350182368,map,0.696388244629,-0.174510955811,0.0,0.0,0.0,0.969363027508,0.245632491541
1565344090476431648,87158,1565344090416439712,map,0.704083442688,-0.179859161377,0.0,0.0,0.0,0.969603549126,0.244681338728
1565344090542973783,87159,1565344090483290701,map,0.712644577026,-0.186948776245,0.0,0.0,0.0,0.969924001834,0.243407951114
1565344090609575137,87160,1565344090550178826,map,0.72039604187,-0.191869735718,0.0,0.0,0.0,0.97012573841,0.242602662134
1565344090676073002,87161,1565344090616638566,map,0.728505134583,-0.197177886963,0.0,0.0,0.0,0.970390647561,0.241540868437
1565344090744088731,87162,1565344090683743149,map,0.737710952759,-0.202852249146,0.0,0.0,0.0,0.970703510089,0.240280451767
1565344090811833783,87163,1565344090750518201,map,0.745808601379,-0.208784103394,0.0,0.0,0.0,0.971127830702,0.238559712515
1565344090878218627,87164,1565344090816903097,map,0.754621505737,-0.214197158813,0.0,0.0,0.0,0.971265339927,0.237999242554
1565344090943484512,87165,1565344090883310284,map,0.76437664032,-0.220035552979,0.0,0.0,0.0,0.97146600712,0.237178829178
1565344091010288210,87166,1565344090950129503,map,0.773286819458,-0.226182937622,0.0,0.0,0.0,0.971828187059,0.23569042161
1565344091076718210,87167,1565344091016692055,map,0.782043457031,-0.231301307678,0.0,0.0,0.0,0.972085502872,0.234626884874
1565344091143733783,87168,1565344091083394138,map,0.792918205261,-0.237376213074,0.0,0.0,0.0,0.972457444987,0.23308049616
1565344091209694304,87169,1565344091149966847,map,0.801838874817,-0.242924690247,0.0,0.0,0.0,0.972815554352,0.231581297195
1565344091276095866,87170,1565344091216464711,map,0.81223487854,-0.248680114746,0.0,0.0,0.0,0.973216288147,0.229891401503
1565344091343289460,87171,1565344091283223930,map,0.821352005005,-0.254157066345,0.0,0.0,0.0,0.973596918134,0.228274048021
1565344091409867481,87172,1565344091349964815,map,0.832054138184,-0.261317253113,0.0,0.0,0.0,0.974093261688,0.226146672613
1565344091478491804,87173,1565344091417582420,map,0.841740608215,-0.266466140747,0.0,0.0,0.0,0.974589229419,0.22399962924
1565344091543754095,87174,1565344091483738357,map,0.851638793945,-0.272245407104,0.0,0.0,0.0,0.975053005559,0.221972152194
1565344091610942168,87175,1565344091550692888,map,0.862257003784,-0.277501106262,0.0,0.0,0.0,0.975421052767,0.220349199725
1565344091677501491,87176,1565344091617423722,map,0.872762680054,-0.282949447632,0.0,0.0,0.0,0.97587444995,0.218332448193
1565344091744044147,87177,1565344091683834607,map,0.882932662964,-0.288104057312,0.0,0.0,0.0,0.976279742444,0.216512966108
1565344091810007377,87178,1565344091750499086,map,0.893020629883,-0.293481826782,0.0,0.0,0.0,0.976807393961,0.214119861534
1565344091877346856,87179,1565344091816996482,map,0.903597831726,-0.298086166382,0.0,0.0,0.0,0.977167487895,0.212470469951
1565344091945942689,87180,1565344091883332628,map,0.915069580078,-0.304200172424,0.0,0.0,0.0,0.977602788979,0.210458516057
1565344092011033054,87181,1565344091949974711,map,0.925436019897,-0.308009147644,0.0,0.0,0.0,0.977939745988,0.208887178203
1565344092076287376,87182,1565344092016485596,map,0.93603515625,-0.313364028931,0.0,0.0,0.0,0.978475060152,0.20636510524
1565344092143643731,87183,1565344092083325440,map,0.946548461914,-0.318393707275,0.0,0.0,0.0,0.978922874454,0.204230276577
1565344092210627012,87184,1565344092150621534,map,0.955461502075,-0.323362350464,0.0,0.0,0.0,0.979318567792,0.202324350432
1565344092276802324,87185,1565344092216506325,map,0.965509414673,-0.328699111938,0.0,0.0,0.0,0.979756778503,0.20019154572
1565344092343303262,87186,1565344092283479711,map,0.97384929657,-0.333292961121,0.0,0.0,0.0,0.980098347405,0.198512542206
1565344092410357897,87187,1565344092349930388,map,0.981910705566,-0.337469100952,0.0,0.0,0.0,0.980471774385,0.196659857711
1565344092477065345,87188,1565344092416799867,map,0.988725662231,-0.341927528381,0.0,0.0,0.0,0.9807693393,0.195170446247
1565344092544913158,87189,1565344092483164711,map,0.99494934082,-0.346042633057,0.0,0.0,0.0,0.981173487242,0.193128423423
1565344092610691126,87190,1565344092550223461,map,1.00212860107,-0.350133895874,0.0,0.0,0.0,0.98143199893,0.191810405026
1565344092677018574,87191,1565344092616876169,map,1.00936889648,-0.354238510132,0.0,0.0,0.0,0.981700955226,0.190429079999
1565344092743488001,87192,1565344092683659034,map,1.01597118378,-0.357995986938,0.0,0.0,0.0,0.981994708007,0.188908426086
1565344092810992116,87193,1565344092750547784,map,1.02282905579,-0.361786842346,0.0,0.0,0.0,0.982301894994,0.187304530353
1565344092876521387,87194,1565344092816542211,map,1.02865886688,-0.365921020508,0.0,0.0,0.0,0.98250204133,0.186251815512
1565344092943670605,87195,1565344092883751481,map,1.03648090363,-0.369359016418,0.0,0.0,0.0,0.982672280749,0.185351527235
1565344093010370866,87196,1565344092950396065,map,1.04142951965,-0.373054504395,0.0,0.0,0.0,0.982841365387,0.184452840812
1565344093077286126,87197,1565344093017514450,map,1.04839897156,-0.376695632935,0.0,0.0,0.0,0.983054564808,0.183313181767
1565344093143814772,87198,1565344093083142992,map,1.05471611023,-0.380748748779,0.0,0.0,0.0,0.983340437266,0.18177344261
1565344093209553209,87199,1565344093149968617,map,1.06091594696,-0.384518623352,0.0,0.0,0.0,0.983466249887,0.181091510938
1565344093276697636,87200,1565344093216583460,map,1.06694984436,-0.388248443604,0.0,0.0,0.0,0.983681557632,0.179918295829
1565344093344690345,87201,1565344093283397106,map,1.07305717468,-0.393125534058,0.0,0.0,0.0,0.983954137671,0.178421565288
1565344093410169824,87202,1565344093349902315,map,1.08080863953,-0.395865440369,0.0,0.0,0.0,0.984091903464,0.177660140538
1565344093476506647,87203,1565344093416608512,map,1.08744621277,-0.400572776794,0.0,0.0,0.0,0.98430215,0.176491579135
1565344093545039511,87204,1565344093483781012,map,1.09598255157,-0.404239654541,0.0,0.0,0.0,0.984360333571,0.176166778059
1565344093611185136,87205,1565344093550444502,map,1.10348701477,-0.408498764038,0.0,0.0,0.0,0.984546581513,0.175122896366
1565344093675932011,87206,1565344093616616794,map,1.11293792725,-0.412969589233,0.0,0.0,0.0,0.984761963721,0.173907661731
1565344093745139615,87207,1565344093683455752,map,1.1218919754,-0.417164802551,0.0,0.0,0.0,0.984930645463,0.17294977198
1565344093813362740,87208,1565344093751739189,map,1.13317298889,-0.421523094177,0.0,0.0,0.0,0.985154521153,0.171669943357
1565344093877056126,87209,1565344093816806273,map,1.14362812042,-0.426637649536,0.0,0.0,0.0,0.985326967966,0.170677374597
1565344093944711803,87210,1565344093883060596,map,1.15491771698,-0.431212425232,0.0,0.0,0.0,0.985454466782,0.169939677235
1565344094010398938,87211,1565344093949769866,map,1.16510295868,-0.435954093933,0.0,0.0,0.0,0.985685185696,0.1685963069
1565344094076503313,87212,1565344094016816064,map,1.1788892746,-0.440592765808,0.0,0.0,0.0,0.985766168086,0.168122163492
1565344094142777844,87213,1565344094083078043,map,1.19092750549,-0.445727348328,0.0,0.0,0.0,0.98598768861,0.166818098266
1565344094210605396,87214,1565344094149877106,map,1.20265769958,-0.450887680054,0.0,0.0,0.0,0.986211765242,0.165488229484
1565344094276815396,87215,1565344094216599398,map,1.21657371521,-0.455897331238,0.0,0.0,0.0,0.986484177452,0.163856545906
1565344094345759459,87216,1565344094283711481,map,1.22909259796,-0.461000442505,0.0,0.0,0.0,0.986562198189,0.163386134983
1565344094409974355,87217,1565344094350405075,map,1.24185943604,-0.465803146362,0.0,0.0,0.0,0.986889628969,0.161396593005
1565344094476714198,87218,1565344094417143408,map,1.25299263,-0.470672607422,0.0,0.0,0.0,0.987048684656,0.160420990269
1565344094543301386,87219,1565344094483361012,map,1.26552295685,-0.474959373474,0.0,0.0,0.0,0.987177335708,0.15962740324
1565344094612823990,87220,1565344094549863043,map,1.27758026123,-0.480122566223,0.0,0.0,0.0,0.987369606988,0.158433769116
1565344094677532480,87221,1565344094616636064,map,1.28862571716,-0.484634399414,0.0,0.0,0.0,0.987628684009,0.156810658191
1565344094745993313,87222,1565344094683667991,map,1.2994556427,-0.488745689392,0.0,0.0,0.0,0.98781157533,0.155654398085
1565344094811012480,87223,1565344094750593252,map,1.31075286865,-0.493572235107,0.0,0.0,0.0,0.988093188594,0.153856591193
1565344094876569198,87224,1565344094816481637,map,1.32032585144,-0.497940063477,0.0,0.0,0.0,0.988182270313,0.15328339975
1565344094942859615,87225,1565344094883145074,map,1.32963275909,-0.502210617065,0.0,0.0,0.0,0.988381769248,0.15199170444
1565344095009363990,87226,1565344094949897262,map,1.33830833435,-0.505769729614,0.0,0.0,0.0,0.988582328204,0.150681718738
1565344095078453052,87227,1565344095017545439,map,1.34600639343,-0.50813293457,0.0,0.0,0.0,0.988735734438,0.149671799097
1565344095144275657,87228,1565344095083132679,map,1.35240459442,-0.512076377869,0.0,0.0,0.0,0.988903096618,0.14856199211
1565344095209434771,87229,1565344095149815647,map,1.36080646515,-0.515699386597,0.0,0.0,0.0,0.989050150666,0.147579807112
1565344095276307375,87230,1565344095216788356,map,1.36999797821,-0.519003868103,0.0,0.0,0.0,0.989333588721,0.145667601851
1565344095343396386,87231,1565344095283180803,map,1.37703418732,-0.521657943726,0.0,0.0,0.0,0.989451172496,0.144866756868
1565344095410356750,87232,1565344095350038564,map,1.38444328308,-0.524784088135,0.0,0.0,0.0,0.989632223229,0.143624728881
1565344095476967896,87233,1565344095416801741,map,1.39186286926,-0.527849197388,0.0,0.0,0.0,0.989803243448,0.142441353755
1565344095543510969,87234,1565344095483269658,map,1.39999675751,-0.530897140503,0.0,0.0,0.0,0.989999571593,0.141070366293
1565344095609746281,87235,1565344095549887262,map,1.40716743469,-0.534193992615,0.0,0.0,0.0,0.990151255117,0.140001757096
1565344095678896958,87236,1565344095617569918,map,1.41370201111,-0.537624359131,0.0,0.0,0.0,0.990182823148,0.139778312847
1565344095744733469,87237,1565344095684100178,map,1.42050743103,-0.539247512817,0.0,0.0,0.0,0.990046452759,0.140740972638
1565344095812635396,87238,1565344095751200335,map,1.42586517334,-0.541551589966,0.0,0.0,0.0,0.989767383635,0.142690316041
1565344095877293625,87239,1565344095817213876,map,1.43116760254,-0.54457950592,0.0,0.0,0.0,0.989200370567,0.146569529129
1565344095943199094,87240,1565344095883009709,map,1.43525218964,-0.54628944397,0.0,0.0,0.0,0.988404895532,0.151841241063
1565344096009426229,87241,1565344095949915491,map,1.43962669373,-0.5480260849,0.0,0.0,0.0,0.987522505019,0.157477941569
1565344096077812948,87242,1565344096016953980,map,1.4442949295,-0.550326347351,0.0,0.0,0.0,0.986193886163,0.165594742956
1565344096144009979,87243,1565344096083017366,map,1.44958782196,-0.552110671997,0.0,0.0,0.0,0.984668489104,0.17443613893
1565344096210834302,87244,1565344096149739449,map,1.45411491394,-0.553294181824,0.0,0.0,0.0,0.982656987233,0.18543259002
1565344096277263000,87245,1565344096216639345,map,1.45865917206,-0.555618286133,0.0,0.0,0.0,0.980446728586,0.196784685392
1565344096343768781,87246,1565344096282951428,map,1.4633436203,-0.557605743408,0.0,0.0,0.0,0.977673658964,0.210129047415
1565344096410534094,87247,1565344096349734657,map,1.46821403503,-0.559319496155,0.0,0.0,0.0,0.974556107254,0.224143690103
1565344096477369094,87248,1565344096416572261,map,1.47308158875,-0.562230110168,0.0,0.0,0.0,0.971035418036,0.238935591573
1565344096542937531,87249,1565344096483139293,map,1.47759819031,-0.562384605408,0.0,0.0,0.0,0.966923136034,0.255067930173
1565344096609301437,87250,1565344096549910230,map,1.4817533493,-0.564352035522,0.0,0.0,0.0,0.962406859468,0.271611923246
1565344096676265396,87251,1565344096616603303,map,1.4871673584,-0.565700531006,0.0,0.0,0.0,0.957703709611,0.28775615475
1565344096743050968,87252,1565344096683120699,map,1.49194812775,-0.567415237427,0.0,0.0,0.0,0.953235957446,0.30222708256
1565344096811346854,87253,1565344096750386897,map,1.49688911438,-0.568296432495,0.0,0.0,0.0,0.948463204669,0.316887281837
1565344096876051645,87254,1565344096816643459,map,1.49989128113,-0.569612503052,0.0,0.0,0.0,0.943842660067,0.330395267882
1565344096942670447,87255,1565344096883089553,map,1.50377082825,-0.570643424988,0.0,0.0,0.0,0.939199282882,0.343372548456
1565344097010849354,87256,1565344096950037626,map,1.50901985168,-0.571585655212,0.0,0.0,0.0,0.934147685304,0.356886679551
1565344097075951593,87257,1565344097016540751,map,1.51430511475,-0.573703765869,0.0,0.0,0.0,0.929341611749,0.369221029564
1565344097143329197,87258,1565344097083691011,map,1.51857948303,-0.574911117554,0.0,0.0,0.0,0.924844802127,0.380344701527
1565344097210789354,87259,1565344097150522365,map,1.52402973175,-0.577047348022,0.0,0.0,0.0,0.920133272373,0.391605363947
1565344097277712427,87260,1565344097217366636,map,1.52855873108,-0.578375816345,0.0,0.0,0.0,0.915838673981,0.401546414802
1565344097344042270,87261,1565344097283153980,map,1.53299236298,-0.579465866089,0.0,0.0,0.0,0.91136711456,0.411594439343
1565344097409985551,87262,1565344097349904813,map,1.53685188293,-0.580394744873,0.0,0.0,0.0,0.907062845954,0.420995241647
1565344097476955343,87263,1565344097416682834,map,1.54046630859,-0.581526756287,0.0,0.0,0.0,0.9027600353,0.430144532296
1565344097543678729,87264,1565344097483086271,map,1.54513835907,-0.581539154053,0.0,0.0,0.0,0.898654782103,0.438656565668
1565344097609729145,87265,1565344097550123563,map,1.54821586609,-0.581804275513,0.0,0.0,0.0,0.894863997079,0.446338914651
1565344097676347218,87266,1565344097616694032,map,1.55129241943,-0.581679344177,0.0,0.0,0.0,0.890793559577,0.454408224195
1565344097744042062,87267,1565344097683847990,map,1.55325603485,-0.581099510193,0.0,0.0,0.0,0.887001044447,0.461767416725
1565344097812174666,87268,1565344097751626219,map,1.5561876297,-0.579988479614,0.0,0.0,0.0,0.883823006123,0.467821433719
1565344097876830864,87269,1565344097816770855,map,1.55871772766,-0.578392028809,0.0,0.0,0.0,0.880394897028,0.474241315458
1565344097943436280,87270,1565344097883174813,map,1.56055927277,-0.576117515564,0.0,0.0,0.0,0.876992797892,0.480503519702
1565344098010269666,87271,1565344097950028302,map,1.56293201447,-0.574100494385,0.0,0.0,0.0,0.873430141796,0.486949471098
1565344098077037426,87272,1565344098016397000,map,1.56382751465,-0.57085609436,0.0,0.0,0.0,0.870882970797,0.49149043854
1565344098143590760,87273,1565344098083142782,map,1.56533050537,-0.567093849182,0.0,0.0,0.0,0.867828451029,0.496863944742
1565344098209487218,87274,1565344098149892000,map,1.56604290009,-0.563160896301,0.0,0.0,0.0,0.865509437587,0.500892616683
1565344098277906176,87275,1565344098216368146,map,1.56673431396,-0.55753993988,0.0,0.0,0.0,0.86334273269,0.504617999988
1565344098343855395,87276,1565344098283213823,map,1.56659889221,-0.552636146545,0.0,0.0,0.0,0.860855332726,0.508849777555
1565344098409176697,87277,1565344098349787886,map,1.56643390656,-0.54625415802,0.0,0.0,0.0,0.859146275755,0.511730082032
1565344098476721436,87278,1565344098416527208,map,1.56612586975,-0.540643692017,0.0,0.0,0.0,0.857326651628,0.514772777455
1565344098543058676,87279,1565344098483625333,map,1.56609535217,-0.535339355469,0.0,0.0,0.0,0.856086305221,0.516832891768
1565344098609632009,87280,1565344098550332573,map,1.56553077698,-0.528165817261,0.0,0.0,0.0,0.854324207113,0.519740463251
1565344098677239978,87281,1565344098617232625,map,1.56551837921,-0.521482467651,0.0,0.0,0.0,0.853158684505,0.52165147278
1565344098743375343,87282,1565344098683788823,map,1.56495380402,-0.515069961548,0.0,0.0,0.0,0.852669530452,0.522450640577
1565344098810318155,87283,1565344098750311323,map,1.56451416016,-0.507776260376,0.0,0.0,0.0,0.851640683032,0.524126079303
1565344098876447061,87284,1565344098816437260,map,1.56336975098,-0.500234603882,0.0,0.0,0.0,0.851159035227,0.524907893589
1565344098943751280,87285,1565344098883153823,map,1.56223583221,-0.491537094116,0.0,0.0,0.0,0.851448060047,0.524438939289
1565344099010158988,87286,1565344098949934135,map,1.56136798859,-0.483860015869,0.0,0.0,0.0,0.851256072792,0.524750510753
1565344099076170655,87287,1565344099016414760,map,1.56037902832,-0.474151611328,0.0,0.0,0.0,0.851850549853,0.523784918373
1565344099143075499,87288,1565344099083174396,map,1.5590839386,-0.465551376343,0.0,0.0,0.0,0.852621321352,0.522529312456
1565344099209654405,87289,1565344099150121167,map,1.55692577362,-0.456708908081,0.0,0.0,0.0,0.853221983267,0.521547933818
1565344099276432165,87290,1565344099216426114,map,1.5559463501,-0.447031974792,0.0,0.0,0.0,0.853880401555,0.520469268872
1565344099344703467,87291,1565344099283947052,map,1.55402374268,-0.436999320984,0.0,0.0,0.0,0.85459948999,0.519287696474
1565344099409778103,87292,1565344099349853041,map,1.5516462326,-0.428418159485,0.0,0.0,0.0,0.855328801665,0.518085553787
1565344099479254457,87293,1565344099417060698,map,1.54954338074,-0.417631149292,0.0,0.0,0.0,0.856254889729,0.516553543997
1565344099544708519,87294,1565344099483172469,map,1.54697608948,-0.407801628113,0.0,0.0,0.0,0.856806201364,0.515638568479
1565344099609993780,87295,1565344099549866896,map,1.54423522949,-0.397895812988,0.0,0.0,0.0,0.858218416016,0.513284668007
1565344099677755915,87296,1565344099617081114,map,1.54218006134,-0.387685775757,0.0,0.0,0.0,0.858819551903,0.512278222521
1565344099745088363,87297,1565344099684238354,map,1.53811454773,-0.376244544983,0.0,0.0,0.0,0.859659427062,0.510867565484
1565344099811048623,87298,1565344099751051739,map,1.53459358215,-0.365152359009,0.0,0.0,0.0,0.860244721184,0.509881378043
1565344099876739717,87299,1565344099816577573,map,1.53059673309,-0.353922843933,0.0,0.0,0.0,0.861413125589,0.507904939002
1565344099943831280,87300,1565344099883899395,map,1.52723693848,-0.343155860901,0.0,0.0,0.0,0.862069158427,0.50679065312
1565344100010633519,87301,1565344099950529864,map,1.52310466766,-0.332516670227,0.0,0.0,0.0,0.863071127555,0.505082398011
1565344100077645603,87302,1565344100017270125,map,1.51873016357,-0.321733474731,0.0,0.0,0.0,0.863933705087,0.503605553201
1565344100143524196,87303,1565344100083076895,map,1.51399421692,-0.309753417969,0.0,0.0,0.0,0.864852290989,0.50202640844
1565344100210245238,87304,1565344100150086270,map,1.5092792511,-0.299018859863,0.0,0.0,0.0,0.865648172858,0.500652814661
1565344100277731071,87305,1565344100217353249,map,1.50416278839,-0.288248062134,0.0,0.0,0.0,0.86682051882,0.498620284538
1565344100343789665,87306,1565344100283163770,map,1.49907493591,-0.276698112488,0.0,0.0,0.0,0.868061547094,0.496456594736
1565344100409637686,87307,1565344100349958093,map,1.49429130554,-0.265626907349,0.0,0.0,0.0,0.8692750772,0.494328676245
1565344100476618467,87308,1565344100417078249,map,1.48865032196,-0.25448513031,0.0,0.0,0.0,0.870746187502,0.491732729184
1565344100542892529,87309,1565344100483156687,map,1.48306846619,-0.24348449707,0.0,0.0,0.0,0.87220861251,0.489134067781
1565344100610738623,87310,1565344100549881635,map,1.47695159912,-0.230528831482,0.0,0.0,0.0,0.873807429276,0.486272121905
1565344100677199300,87311,1565344100616731322,map,1.47044849396,-0.219427108765,0.0,0.0,0.0,0.875371498476,0.483450865814
1565344100744037790,87312,1565344100683226426,map,1.46377277374,-0.208240509033,0.0,0.0,0.0,0.876921817807,0.480633046568
1565344100811468831,87313,1565344100750279395,map,1.45783519745,-0.196804046631,0.0,0.0,0.0,0.878393452881,0.47793821979
1565344100876232581,87314,1565344100816455593,map,1.45161628723,-0.186409950256,0.0,0.0,0.0,0.879857599775,0.475237418684
1565344100943601904,87315,1565344100883315905,map,1.44517993927,-0.176333427429,0.0,0.0,0.0,0.880990295584,0.473134335139
1565344101009906383,87316,1565344100949908405,map,1.44022846222,-0.166025161743,0.0,0.0,0.0,0.882578149147,0.47016572679
1565344101076230758,87317,1565344101016625333,map,1.43457221985,-0.156549453735,0.0,0.0,0.0,0.884177607817,0.467150894075
1565344101142590394,87318,1565344101083129551,map,1.42931175232,-0.147990226746,0.0,0.0,0.0,0.885501820823,0.464635906188
1565344101209457894,87319,1565344101150040072,map,1.42523479462,-0.140180587769,0.0,0.0,0.0,0.886703607072,0.462338310338
1565344101276424508,87320,1565344101216912676,map,1.42087364197,-0.132555961609,0.0,0.0,0.0,0.887905848084,0.460025222067
1565344101343958675,87321,1565344101283691687,map,1.41696739197,-0.125144958496,0.0,0.0,0.0,0.889219609383,0.457480585696
1565344101411162633,87322,1565344101350615489,map,1.41304016113,-0.118055343628,0.0,0.0,0.0,0.890325223956,0.455325153696
1565344101477828831,87323,1565344101417399759,map,1.40960121155,-0.110578536987,0.0,0.0,0.0,0.891286411875,0.453440770121
1565344101543150394,87324,1565344101483181947,map,1.40472698212,-0.103252410889,0.0,0.0,0.0,0.89239525259,0.45125459904
1565344101612192789,87325,1565344101550112936,map,1.40075683594,-0.0954113006592,0.0,0.0,0.0,0.893465324075,0.449132179516
1565344101676963675,87326,1565344101616819030,map,1.3960981369,-0.0861587524414,0.0,0.0,0.0,0.89450881858,0.447050303079
1565344101743478571,87327,1565344101683287468,map,1.39063072205,-0.0782604217529,0.0,0.0,0.0,0.895266893289,0.445530234419
1565344101812693154,87328,1565344101750507676,map,1.3862247467,-0.0697345733643,0.0,0.0,0.0,0.896153612096,0.44374396168
1565344101877132321,87329,1565344101816977311,map,1.38125419617,-0.0617370605469,0.0,0.0,0.0,0.896893943024,0.44224569525
1565344101943957060,87330,1565344101883338926,map,1.3746919632,-0.0530738830566,0.0,0.0,0.0,0.89780067504,0.440402029851
1565344102011386227,87331,1565344101950968301,map,1.36961078644,-0.0443115234375,0.0,0.0,0.0,0.898627379374,0.438712699883
1565344102077540446,87332,1565344102017066686,map,1.36260700226,-0.0355539321899,0.0,0.0,0.0,0.899220876237,0.437494932245
1565344102143822425,87333,1565344102083336790,map,1.35629558563,-0.0262145996094,0.0,0.0,0.0,0.900254071003,0.435364913196
1565344102210736227,87334,1565344102150256999,map,1.34927082062,-0.0170040130615,0.0,0.0,0.0,0.901264970064,0.433268339179
1565344102278724768,87335,1565344102217739603,map,1.34252738953,-0.00687122344971,0.0,0.0,0.0,0.902194181475,0.431330104344
1565344102343759664,87336,1565344102283399707,map,1.33444690704,0.00282001495361,0.0,0.0,0.0,0.903035362626,0.429566215905
1565344102409837164,87337,1565344102350088665,map,1.32609367371,0.0131607055664,0.0,0.0,0.0,0.904216528674,0.427074313524
1565344102477248831,87338,1565344102416918197,map,1.31845378876,0.023289680481,0.0,0.0,0.0,0.905477905661,0.42439340518
1565344102543499768,87339,1565344102483186947,map,1.30918121338,0.0353899002075,0.0,0.0,0.0,0.906616832211,0.421954878574
1565344102610290445,87340,1565344102549926530,map,1.30018615723,0.0457887649536,0.0,0.0,0.0,0.90782264222,0.41935432545
1565344102677197737,87341,1565344102617070332,map,1.29238700867,0.0560731887817,0.0,0.0,0.0,0.909038727901,0.416711640318
1565344102744252529,87342,1565344102684277571,map,1.28349590302,0.065465927124,0.0,0.0,0.0,0.91046980196,0.41357555503
1565344102810588570,87343,1565344102750805905,map,1.27659034729,0.0752506256104,0.0,0.0,0.0,0.911402046184,0.411517083741
1565344102876942893,87344,1565344102817156738,map,1.26828193665,0.0842027664185,0.0,0.0,0.0,0.912815004964,0.408373317826
1565344102944043883,87345,1565344102883130176,map,1.26109027863,0.0918626785278,0.0,0.0,0.0,0.914050336503,0.405600767181
1565344103011730185,87346,1565344102950472623,map,1.25514507294,0.099268913269,0.0,0.0,0.0,0.915387419432,0.402574058213
1565344103076769560,87347,1565344103016625384,map,1.24888801575,0.106954574585,0.0,0.0,0.0,0.916988846013,0.398912842973
1565344103143465810,87348,1565344103083484446,map,1.24288463593,0.114303588867,0.0,0.0,0.0,0.918262673961,0.395971793957
1565344103210580445,87349,1565344103150827467,map,1.23856163025,0.120699882507,0.0,0.0,0.0,0.919330689667,0.393485810465
1565344103277485601,87350,1565344103216775957,map,1.23337364197,0.128622055054,0.0,0.0,0.0,0.92059167404,0.390526528789
1565344103343000914,87351,1565344103283338717,map,1.22721385956,0.1352186203,0.0,0.0,0.0,0.921783476074,0.387705072492
1565344103410151955,87352,1565344103350621998,map,1.22200489044,0.142850875854,0.0,0.0,0.0,0.923040390974,0.384703049937
1565344103478914403,87353,1565344103416727311,map,1.21507835388,0.149624824524,0.0,0.0,0.0,0.924486292035,0.381215288045
1565344103543232424,87354,1565344103483220748,map,1.20991706848,0.156860351562,0.0,0.0,0.0,0.92589100449,0.377790746055
1565344103610155497,87355,1565344103549998196,map,1.20449352264,0.16369342804,0.0,0.0,0.0,0.92714301554,0.374707657695
1565344103677017060,87356,1565344103616664550,map,1.19847106934,0.169772148132,0.0,0.0,0.0,0.928632902236,0.370999909548
1565344103743511487,87357,1565344103683237727,map,1.19512939453,0.17603302002,0.0,0.0,0.0,0.929642450325,0.368462907975
1565344103817224455,87358,1565344103753133509,map,1.19062519073,0.180833816528,0.0,0.0,0.0,0.931181957713,0.364554744353
1565344103877856487,87359,1565344103817931842,map,1.18756580353,0.186932563782,0.0,0.0,0.0,0.932305071126,0.361672855427
1565344103943445705,87360,1565344103883150852,map,1.18285179138,0.190999984741,0.0,0.0,0.0,0.933810105636,0.357769040879
1565344104009910445,87361,1565344103949950696,map,1.18056201935,0.195531845093,0.0,0.0,0.0,0.935238542628,0.354018175216
1565344104079001174,87362,1565344104016534394,map,1.17712593079,0.20011138916,0.0,0.0,0.0,0.936459869498,0.350774732298
1565344104145902684,87363,1565344104083765071,map,1.17605304718,0.203677177429,0.0,0.0,0.0,0.937872994294,0.346978740811
1565344104210544195,87364,1565344104150430488,map,1.17390155792,0.206942558289,0.0,0.0,0.0,0.939252525677,0.343226882703
1565344104277882736,87365,1565344104217385019,map,1.17272377014,0.209477424622,0.0,0.0,0.0,0.940623927584,0.339450477766
1565344104343680601,87366,1565344104283135488,map,1.17283344269,0.212432861328,0.0,0.0,0.0,0.942109763667,0.33530462747
1565344104410839455,87367,1565344104350176946,map,1.17372703552,0.214828491211,0.0,0.0,0.0,0.94330473898,0.331927958175
1565344104476606747,87368,1565344104417094498,map,1.1738948822,0.21591758728,0.0,0.0,0.0,0.944947235042,0.32722274216
1565344104542682632,87369,1565344104483264758,map,1.17509174347,0.216873168945,0.0,0.0,0.0,0.946236130213,0.323476716133
1565344104610865132,87370,1565344104550065175,map,1.17682170868,0.217588424683,0.0,0.0,0.0,0.947689620108,0.319193333169
1565344104676681330,87371,1565344104616532362,map,1.17870807648,0.217432975769,0.0,0.0,0.0,0.949063489702,0.315084897312
1565344104743773830,87372,1565344104683148560,map,1.18174934387,0.217547416687,0.0,0.0,0.0,0.950529403341,0.310634597854
1565344104810724090,87373,1565344104750325279,map,1.18522834778,0.216366767883,0.0,0.0,0.0,0.952064633678,0.305896932477
1565344104876665288,87374,1565344104816629966,map,1.18846130371,0.216153144836,0.0,0.0,0.0,0.953670800182,0.300852131255
1565344104943577476,87375,1565344104883154550,map,1.19248390198,0.215543746948,0.0,0.0,0.0,0.955189776526,0.295994072273
1565344105010654924,87376,1565344104949994498,map,1.19592571259,0.214413642883,0.0,0.0,0.0,0.956717247134,0.291019087067
1565344105077607996,87377,1565344105017175852,map,1.20101642609,0.213055610657,0.0,0.0,0.0,0.9582402855,0.285964255189
1565344105143773934,87378,1565344105083136841,map,1.20442676544,0.211256027222,0.0,0.0,0.0,0.959715484358,0.280973644822
1565344105210436903,87379,1565344105149901633,map,1.20903491974,0.209673881531,0.0,0.0,0.0,0.961092413039,0.276227032707
1565344105276955392,87380,1565344105216604706,map,1.21394634247,0.207466125488,0.0,0.0,0.0,0.962486663668,0.271328992665
1565344105345079090,87381,1565344105283782727,map,1.2194442749,0.205311775208,0.0,0.0,0.0,0.963783821508,0.266684730345
1565344105410167892,87382,1565344105349741998,map,1.22503852844,0.203187942505,0.0,0.0,0.0,0.965277514869,0.261226566964
1565344105476770444,87383,1565344105416759810,map,1.23011302948,0.200876235962,0.0,0.0,0.0,0.966580957871,0.256361564748
1565344105544067371,87384,1565344105483707258,map,1.2359828949,0.197511672974,0.0,0.0,0.0,0.96786021119,0.251488790198
1565344105612139507,87385,1565344105550758872,map,1.23975944519,0.195030212402,0.0,0.0,0.0,0.969143791546,0.246496067532
1565344105677917215,87386,1565344105617384706,map,1.24482727051,0.191736221313,0.0,0.0,0.0,0.970231841505,0.242177979448
1565344105743568257,87387,1565344105683175383,map,1.25062847137,0.18853187561,0.0,0.0,0.0,0.971492663288,0.237069620951
1565344105810406330,87388,1565344105750316372,map,1.25741577148,0.185394287109,0.0,0.0,0.0,0.972607339856,0.232454215832
1565344105878596902,87389,1565344105817896633,map,1.26257801056,0.183517456055,0.0,0.0,0.0,0.973764446685,0.227558349378
1565344105943038725,87390,1565344105883101320,map,1.26867866516,0.180082321167,0.0,0.0,0.0,0.974829817905,0.222950277243
1565344106010149350,87391,1565344105949784029,map,1.27486419678,0.177157402039,0.0,0.0,0.0,0.975890818351,0.218259273934
1565344106076695340,87392,1565344106016565018,map,1.28087043762,0.174133300781,0.0,0.0,0.0,0.976945357826,0.213489502837
1565344106143554350,87393,1565344106083657518,map,1.28779125214,0.171458244324,0.0,0.0,0.0,0.977869843192,0.209214172023
1565344106209675184,87394,1565344106149883195,map,1.29414653778,0.169319152832,0.0,0.0,0.0,0.978873813103,0.204465297843
1565344106278324246,87395,1565344106217854862,map,1.30397224426,0.166877746582,0.0,0.0,0.0,0.979698077031,0.200478621959
1565344106344020027,87396,1565344106283337622,map,1.31360816956,0.16593170166,0.0,0.0,0.0,0.980484666302,0.196595572549
1565344106409990131,87397,1565344106349911476,map,1.32234477997,0.163438796997,0.0,0.0,0.0,0.98142079312,0.191867732646
1565344106478290027,87398,1565344106417777674,map,1.33057594299,0.162777900696,0.0,0.0,0.0,0.982277258233,0.187433689494
1565344106542749298,87399,1565344106483132987,map,1.34050178528,0.161964416504,0.0,0.0,0.0,0.98303873984,0.183398026091
1565344106611344767,87400,1565344106550074549,map,1.3511838913,0.160591125488,0.0,0.0,0.0,0.983747272692,0.179558635187
1565344106677129246,87401,1565344106617061789,map,1.36212730408,0.159495353699,0.0,0.0,0.0,0.984457563499,0.175622622889
1565344106742868829,87402,1565344106683107622,map,1.37265300751,0.158163070679,0.0,0.0,0.0,0.985026076475,0.172405419472
1565344106809746485,87403,1565344106750232778,map,1.38346385956,0.156122207642,0.0,0.0,0.0,0.98569147576,0.168559528397
1565344106877100912,87404,1565344106817453195,map,1.39678764343,0.154281616211,0.0,0.0,0.0,0.986050816408,0.166444547705
1565344106943098412,87405,1565344106883625955,map,1.4074420929,0.152376174927,0.0,0.0,0.0,0.986586066632,0.163241946592
1565344107011622423,87406,1565344106950468611,map,1.4206237793,0.151374816895,0.0,0.0,0.0,0.987181350529,0.15960257256
1565344107079214298,87407,1565344107018684236,map,1.43346691132,0.150410652161,0.0,0.0,0.0,0.987607383251,0.156944756357
1565344107143134923,87408,1565344107083144549,map,1.44570350647,0.149380683899,0.0,0.0,0.0,0.988069902388,0.154006064799
1565344107210271589,87409,1565344107149884184,map,1.45508384705,0.148327827454,0.0,0.0,0.0,0.988566749298,0.15078389232
1565344107277859454,87410,1565344107217859393,map,1.47098064423,0.148092269897,0.0,0.0,0.0,0.988798309832,0.149257838899
1565344107344704402,87411,1565344107283315695,map,1.48348045349,0.147092819214,0.0,0.0,0.0,0.989087819942,0.1473271341
1565344107409595235,87412,1565344107350109341,map,1.49596977234,0.145716667175,0.0,0.0,0.0,0.989420756464,0.145074348795
1565344107476935600,87413,1565344107416898663,map,1.51048469543,0.145922660828,0.0,0.0,0.0,0.989863638158,0.142021047219
1565344107543171068,87414,1565344107483287674,map,1.52460289001,0.144590377808,0.0,0.0,0.0,0.990195033254,0.139691789733
1565344107609851173,87415,1565344107550070955,map,1.53838348389,0.144101142883,0.0,0.0,0.0,0.990515067901,0.137404149358
1565344107676946641,87416,1565344107616930955,map,1.55283641815,0.142997741699,0.0,0.0,0.0,0.990831589127,0.135102783049
1565344107743060600,87417,1565344107683161632,map,1.56528282166,0.141717910767,0.0,0.0,0.0,0.991281845567,0.131758501242
1565344107812055027,87418,1565344107751615070,map,1.58230781555,0.140623092651,0.0,0.0,0.0,0.991506997483,0.130053350371
1565344107878579766,87419,1565344107817479601,map,1.59714317322,0.139366149902,0.0,0.0,0.0,0.991828613532,0.127577432876
1565344107943200652,87420,1565344107883185122,map,1.60990619659,0.137510299683,0.0,0.0,0.0,0.992204998119,0.124616378164
1565344108010173412,87421,1565344107950197778,map,1.62636375427,0.136454582214,0.0,0.0,0.0,0.99244107023,0.122722133783
1565344108077958204,87422,1565344108016797153,map,1.63959980011,0.135319709778,0.0,0.0,0.0,0.992764390495,0.120078578296
1565344108143040339,87423,1565344108083186215,map,1.65436553955,0.134826660156,0.0,0.0,0.0,0.993118457561,0.117114171866
1565344108210553099,87424,1565344108150340069,map,1.66963768005,0.133535385132,0.0,0.0,0.0,0.993402241122,0.114682114274
1565344108277267214,87425,1565344108216621319,map,1.68669223785,0.13214302063,0.0,0.0,0.0,0.993700552179,0.112067892811
1565344108345512006,87426,1565344108283956111,map,1.70006275177,0.131464004517,0.0,0.0,0.0,0.994011747941,0.109273258193
1565344108411669037,87427,1565344108350951423,map,1.71617984772,0.130271911621,0.0,0.0,0.0,0.994346646334,0.106182611213
1565344108480229558,87428,1565344108417574965,map,1.73323917389,0.129188537598,0.0,0.0,0.0,0.994596236522,0.103818718434
1565344108543861953,87429,1565344108483405225,map,1.74894714355,0.128059387207,0.0,0.0,0.0,0.994986573961,0.100008587822
1565344108610397631,87430,1565344108550404757,map,1.76496219635,0.127430915833,0.0,0.0,0.0,0.995306058393,0.0967773223754
1565344108677304089,87431,1565344108616872673,map,1.78317070007,0.126153945923,0.0,0.0,0.0,0.995633251728,0.0933511009745
1565344108743180755,87432,1565344108683169444,map,1.7980890274,0.125462532043,0.0,0.0,0.0,0.995919645075,0.0902444488853
1565344108810436016,87433,1565344108750902569,map,1.81745147705,0.125071525574,0.0,0.0,0.0,0.996210158091,0.0869788532751
1565344108876536745,87434,1565344108816644080,map,1.83562755585,0.124135971069,0.0,0.0,0.0,0.99649235795,0.0836838129308
1565344108942828151,87435,1565344108883135798,map,1.84893512726,0.124017715454,0.0,0.0,0.0,0.996828154477,0.0795841092264
1565344109011274818,87436,1565344108950117152,map,1.86777019501,0.123960494995,0.0,0.0,0.0,0.997103928806,0.0760510036737
1565344109076166276,87437,1565344109016619861,map,1.88582134247,0.124079704285,0.0,0.0,0.0,0.997398519033,0.0720846324121
1565344109145157005,87438,1565344109083806423,map,1.90102481842,0.12498664856,0.0,0.0,0.0,0.997694506389,0.0678651009134
1565344109212482005,87439,1565344109150101527,map,1.92049884796,0.124977111816,0.0,0.0,0.0,0.997958133518,0.0638714626857
1565344109277377318,87440,1565344109216910746,map,1.93953990936,0.125752449036,0.0,0.0,0.0,0.998207287619,0.0598515742794
1565344109343507630,87441,1565344109283173194,map,1.95506858826,0.12683391571,0.0,0.0,0.0,0.998475409843,0.055198332757
1565344109410985859,87442,1565344109349750173,map,1.97553348541,0.127321243286,0.0,0.0,0.0,0.998693407611,0.0511026182676
1565344109476912839,87443,1565344109416705381,map,1.99306964874,0.128150939941,0.0,0.0,0.0,0.998899368447,0.0469047089016
1565344109544331536,87444,1565344109483221215,map,2.01052856445,0.129277229309,0.0,0.0,0.0,0.999118579581,0.0419769453035
1565344109609684401,87445,1565344109549762152,map,2.02906513214,0.130516052246,0.0,0.0,0.0,0.999294453105,0.0375579018853
1565344109676817318,87446,1565344109616460850,map,2.04514789581,0.131410598755,0.0,0.0,0.0,0.999457303894,0.0329408210704
1565344109744561797,87447,1565344109684094600,map,2.06272983551,0.13300037384,0.0,0.0,0.0,0.999588827558,0.0286736084504
1565344109810654922,87448,1565344109750777881,map,2.08169651031,0.134417533875,0.0,0.0,0.0,0.999698978944,0.0245346998678
1565344109876719870,87449,1565344109817057412,map,2.09618854523,0.135793685913,0.0,0.0,0.0,0.999789679075,0.0205084766476
1565344109942887213,87450,1565344109883140017,map,2.11193656921,0.137431144714,0.0,0.0,0.0,0.999868276077,0.0162305420475
1565344110009293984,87451,1565344109949981319,map,2.12716197968,0.138826370239,0.0,0.0,0.0,0.99992263999,0.0124384096424
1565344110078938984,87452,1565344110016388350,map,2.14073181152,0.140383720398,0.0,0.0,0.0,0.999965750641,0.00827632435598
1565344110142879922,87453,1565344110083072725,map,2.1556854248,0.14142036438,0.0,0.0,0.0,0.999989486793,0.00458544475116
1565344110209935651,87454,1565344110149841423,map,2.17146873474,0.143280029297,0.0,0.0,0.0,0.999999814562,0.000608996511281
1565344110277146067,87455,1565344110217104964,map,2.18494415283,0.144456863403,0.0,0.0,0.0,-0.99999411154,0.00343174658028
1565344110343288307,87456,1565344110283112308,map,2.19694805145,0.1451587677,0.0,0.0,0.0,-0.999974432819,0.00715078378918
1565344110409571067,87457,1565344110349810121,map,2.20887565613,0.145967483521,0.0,0.0,0.0,-0.999935601709,0.0113486754544
1565344110477274244,87458,1565344110416401735,map,2.22039604187,0.147588729858,0.0,0.0,0.0,-0.999885128547,0.0151568370657
1565344110543582369,87459,1565344110483107360,map,2.23313140869,0.149182319641,0.0,0.0,0.0,-0.999816078282,0.0191783630254
1565344110609720755,87460,1565344110549813818,map,2.24525928497,0.150444030762,0.0,0.0,0.0,-0.999737851468,0.0228960333231
1565344110676846224,87461,1565344110616412881,map,2.25671482086,0.15264415741,0.0,0.0,0.0,-0.999651652311,0.0263926889803
1565344110743396796,87462,1565344110683181683,map,2.26833057404,0.153971672058,0.0,0.0,0.0,-0.999564263924,0.029517491192
1565344110810697473,87463,1565344110750180277,map,2.28017234802,0.155482292175,0.0,0.0,0.0,-0.999456675416,0.0329598841997
1565344110877217109,87464,1565344110816428193,map,2.28915214539,0.15752696991,0.0,0.0,0.0,-0.999304450965,0.0372909410159
1565344110943148411,87465,1565344110883118245,map,2.29991436005,0.159910202026,0.0,0.0,0.0,-0.999167097909,0.0408057649768
1565344111010408775,87466,1565344110950186995,map,2.31052684784,0.160967826843,0.0,0.0,0.0,-0.999001915653,0.0446673540856
1565344111077296640,87467,1565344111016786735,map,2.3202419281,0.162157058716,0.0,0.0,0.0,-0.99885189353,0.0479050601967
1565344111143615390,87468,1565344111083594860,map,2.33028411865,0.163858413696,0.0,0.0,0.0,-0.998663430021,0.0516851384714
1565344111211312890,87469,1565344111151070224,map,2.33934783936,0.164644241333,0.0,0.0,0.0,-0.998486064188,0.0550052690496
1565344111277679557,87470,1565344111217363349,map,2.34820652008,0.166395187378,0.0,0.0,0.0,-0.998265765737,0.058868165909
1565344111343902005,87471,1565344111283143870,map,2.35694694519,0.167253494263,0.0,0.0,0.0,-0.998031427482,0.0627157855601
1565344111410331484,87472,1565344111349876526,map,2.36697864532,0.168357849121,0.0,0.0,0.0,-0.997801459743,0.0662740291172
1565344111476332942,87473,1565344111416532568,map,2.37578392029,0.170339584351,0.0,0.0,0.0,-0.997543957457,0.0700432219426
1565344111543235494,87474,1565344111483108297,map,2.38453388214,0.172053337097,0.0,0.0,0.0,-0.997301132897,0.0734196861979
1565344111609934036,87475,1565344111549893974,map,2.39432048798,0.173632621765,0.0,0.0,0.0,-0.997059435858,0.0766321170697
1565344111676901640,87476,1565344111616340797,map,2.40230083466,0.175488471985,0.0,0.0,0.0,-0.996735116074,0.0807409956955
1565344111744297629,87477,1565344111683267203,map,2.41153717041,0.177085876465,0.0,0.0,0.0,-0.996498659883,0.0836087366891
1565344111812037161,87478,1565344111750382724,map,2.41865539551,0.178782463074,0.0,0.0,0.0,-0.996154263677,0.0876166819634
1565344111876452213,87479,1565344111816368401,map,2.42730712891,0.179898262024,0.0,0.0,0.0,-0.99587153456,0.0907738214033
1565344111942701952,87480,1565344111883067047,map,2.43388843536,0.181489944458,0.0,0.0,0.0,-0.995540860409,0.0943313058142
1565344112009425650,87481,1565344111950059599,map,2.44071483612,0.183431625366,0.0,0.0,0.0,-0.995182810581,0.0980365927856
1565344112076898567,87482,1565344112016485276,map,2.44717216492,0.18443775177,0.0,0.0,0.0,-0.99482367297,0.101616237373
1565344112143262213,87483,1565344112083166839,map,2.45312786102,0.185140609741,0.0,0.0,0.0,-0.994499834437,0.104738146373
1565344112209134140,87484,1565344112149755641,map,2.45888233185,0.185495376587,0.0,0.0,0.0,-0.994250765412,0.107076680365
1565344112277706067,87485,1565344112216986578,map,2.46379566193,0.18674659729,0.0,0.0,0.0,-0.993901223261,0.110274015075
1565344112342999504,87486,1565344112283145693,map,2.46770000458,0.18754863739,0.0,0.0,0.0,-0.993560214565,0.113305339829
1565344112409154765,87487,1565344112349835120,map,2.47118377686,0.187850952148,0.0,0.0,0.0,-0.993230567112,0.116159547844
1565344112476444087,87488,1565344112416967620,map,2.47345733643,0.187726974487,0.0,0.0,0.0,-0.992915912125,0.118819154388
1565344112542986171,87489,1565344112483588505,map,2.47684764862,0.18763923645,0.0,0.0,0.0,-0.992698854751,0.120619168363
1565344112609707160,87490,1565344112550329911,map,2.47908496857,0.187458992004,0.0,0.0,0.0,-0.992394726199,0.12309633387
1565344112678182629,87491,1565344112617469078,map,2.47982120514,0.188054084778,0.0,0.0,0.0,-0.992008625715,0.126170069772
1565344112743467733,87492,1565344112683265901,map,2.48243045807,0.188258171082,0.0,0.0,0.0,-0.991725819287,0.128374060307
1565344112809654035,87493,1565344112750260276,map,2.48541069031,0.188577651978,0.0,0.0,0.0,-0.991433881674,0.130609564228
1565344112876578046,87494,1565344112817041161,map,2.48958396912,0.188990592957,0.0,0.0,0.0,-0.991152844895,0.132725423547
1565344112942610962,87495,1565344112883041213,map,2.49361133575,0.189035415649,0.0,0.0,0.0,-0.990985601037,0.133968423656
1565344113010078775,87496,1565344112949818453,map,2.498087883,0.190098762512,0.0,0.0,0.0,-0.990771272215,0.135544406571
1565344113077429660,87497,1565344113016868297,map,2.50170612335,0.191030502319,0.0,0.0,0.0,-0.990502697102,0.137493298143
