%time,field.linear.x,field.linear.y,field.linear.z,field.angular.x,field.angular.y,field.angular.z
1565344080564186808,1550.0,1550.0,1550.0,1550.0,0.0,0.0
1565344080614361339,1550.0,1550.0,1550.0,1550.0,0.0,0.0
1565344080664308631,1550.0,1550.0,1550.0,1550.0,0.0,0.0
1565344080714624568,1550.0,1550.0,1550.0,1550.0,0.0,0.0
1565344080764415141,1550.0,1550.0,1550.0,1550.0,0.0,0.0
1565344080814408214,1550.0,1550.0,1550.0,1550.0,0.0,0.0
1565344080865609881,1550.0,1550.0,1550.0,1550.0,0.0,0.0
1565344080915756964,1550.0,1550.0,1550.0,1550.0,0.0,0.0
1565344080965708318,1550.0,1550.0,1550.0,1550.0,0.0,0.0
1565344081015448891,1550.0,1550.0,1550.0,1550.0,0.0,0.0
1565344081066184724,1550.0,1550.0,1550.0,1550.0,0.0,0.0
1565344081115436964,1550.0,1550.0,1550.0,1550.0,0.0,0.0
1565344081165389360,1550.0,1550.0,1550.0,1550.0,0.0,0.0
1565344081216207172,1550.0,1550.0,1550.0,1550.0,0.0,0.0
1565344081266610453,1550.0,1550.0,1550.0,1550.0,0.0,0.0
1565344081315441078,1550.0,1550.0,1550.0,1550.0,0.0,0.0
1565344081365204151,1550.0,1550.0,1550.0,1550.0,0.0,0.0
1565344081415869203,1550.0,1550.0,1550.0,1550.0,0.0,0.0
1565344081466256547,1550.0,1550.0,1550.0,1550.0,0.0,0.0
1565344081515388735,1550.0,1550.0,1550.0,1550.0,0.0,0.0
1565344081565882745,1550.0,1550.0,1550.0,1550.0,0.0,0.0
1565344081615453422,1550.0,1550.0,1550.0,1550.0,0.0,0.0
1565344081666283162,1550.0,1550.0,1550.0,1550.0,0.0,0.0
1565344081715045141,1550.0,1550.0,1550.0,1550.0,0.0,0.0
1565344081764881026,1550.0,1550.0,1550.0,1550.0,0.0,0.0
1565344081815646860,1550.0,1550.0,1550.0,1550.0,0.0,0.0
1565344081865710974,1550.0,1550.0,1550.0,1550.0,0.0,0.0
1565344081915113214,1550.0,1550.0,1550.0,1550.0,0.0,0.0
1565344081965164620,1550.0,1550.0,1550.0,1550.0,0.0,0.0
1565344082015146964,1550.0,1550.0,1550.0,1550.0,0.0,0.0
1565344082065327224,1550.0,1550.0,1550.0,1550.0,0.0,0.0
1565344082115283266,1550.0,1550.0,1550.0,1550.0,0.0,0.0
1565344082165077276,1550.0,1550.0,1550.0,1550.0,0.0,0.0
1565344082215326911,1550.0,1550.0,1550.0,1550.0,0.0,0.0
1565344082265637432,1550.0,1550.0,1550.0,1550.0,0.0,0.0
1565344082314930974,1550.0,1550.0,1550.0,1550.0,0.0,0.0
1565344082364648474,1550.0,1550.0,1550.0,1550.0,0.0,0.0
1565344082415044047,1550.0,1550.0,1550.0,1550.0,0.0,0.0
1565344082465038891,1550.0,1550.0,1550.0,1550.0,0.0,0.0
1565344082515158265,1550.0,1550.0,1550.0,1550.0,0.0,0.0
1565344082564764359,1550.0,1550.0,1550.0,1550.0,0.0,0.0
1565344082615191963,1550.0,1550.0,1550.0,1550.0,0.0,0.0
1565344082665187120,1550.0,1550.0,1550.0,1550.0,0.0,0.0
1565344082714670557,1550.0,1550.0,1550.0,1550.0,0.0,0.0
1565344082765139567,1550.0,1550.0,1550.0,1550.0,0.0,0.0
1565344082814997432,1550.0,1550.0,1550.0,1550.0,0.0,0.0
1565344082865774151,1550.0,1550.0,1550.0,1550.0,0.0,0.0
1565344082915881755,1550.0,1550.0,1550.0,1550.0,0.0,0.0
1565344082965625349,1550.0,1550.0,1550.0,1550.0,0.0,0.0
1565344083015172901,1550.0,1550.0,1550.0,1550.0,0.0,0.0
1565344083068428734,1550.0,1550.0,1550.0,1550.0,0.0,0.0
1565344083114887172,1550.0,1550.0,1550.0,1550.0,0.0,0.0
1565344083164930401,1550.0,1550.0,1550.0,1550.0,0.0,0.0
1565344083215087432,1550.0,1550.0,1550.0,1550.0,0.0,0.0
1565344083264658786,1550.0,1550.0,1550.0,1550.0,0.0,0.0
1565344083315199151,1550.0,1550.0,1550.0,1550.0,0.0,0.0
1565344083365278838,1550.0,1550.0,1550.0,1550.0,0.0,0.0
1565344083415208526,1550.0,1550.0,1550.0,1550.0,0.0,0.0
1565344083465806442,1550.0,1550.0,1550.0,1550.0,0.0,0.0
1565344083515563213,1550.0,1550.0,1550.0,1550.0,0.0,0.0
1565344083565201963,1550.0,1550.0,1550.0,1550.0,0.0,0.0
1565344083615420400,1550.0,1550.0,1550.0,1550.0,0.0,0.0
1565344083665556078,1550.0,1550.0,1550.0,1550.0,0.0,0.0
1565344083715070765,1550.0,1550.0,1550.0,1550.0,0.0,0.0
1565344083764737067,1550.0,1550.0,1550.0,1550.0,0.0,0.0
1565344083815712640,1550.0,1550.0,1550.0,1550.0,0.0,0.0
1565344083865413161,1550.0,1550.0,1550.0,1550.0,0.0,0.0
1565344083915033473,1550.0,1550.0,1550.0,1550.0,0.0,0.0
1565344083965048994,1550.0,1550.0,1550.0,1550.0,0.0,0.0
1565344084015179463,1550.0,1550.0,1550.0,1550.0,0.0,0.0
1565344084065811338,1550.0,1550.0,1550.0,1550.0,0.0,0.0
1565344084115051025,1550.0,1550.0,1550.0,1550.0,0.0,0.0
1565344084165113057,1550.0,1550.0,1550.0,1550.0,0.0,0.0
1565344084214930713,1550.0,1550.0,1550.0,1550.0,0.0,0.0
1565344084265544254,1550.0,1550.0,1550.0,1550.0,0.0,0.0
1565344084314869098,1550.0,1550.0,1550.0,1550.0,0.0,0.0
1565344084364893629,1550.0,1550.0,1550.0,1550.0,0.0,0.0
1565344084414915140,1550.0,1550.0,1550.0,1550.0,0.0,0.0
1565344084464916181,1550.0,1550.0,1550.0,1550.0,0.0,0.0
1565344084514901129,1550.0,1550.0,1550.0,1550.0,0.0,0.0
1565344084565352431,1550.0,1550.0,1550.0,1550.0,0.0,0.0
1565344084614921858,1550.0,1550.0,1550.0,1550.0,0.0,0.0
1565344084664895921,1550.0,1550.0,1550.0,1550.0,0.0,0.0
1565344084714625817,1550.0,1550.0,1550.0,1550.0,0.0,0.0
1565344084764942796,1550.0,1550.0,1550.0,1550.0,0.0,0.0
1565344084814915660,1550.0,1550.0,1550.0,1550.0,0.0,0.0
1565344084864967431,1550.0,1550.0,1550.0,1550.0,0.0,0.0
1565344084914947640,1550.0,1550.0,1550.0,1550.0,0.0,0.0
1565344084964878890,1550.0,1550.0,1550.0,1550.0,0.0,0.0
1565344085015177431,1550.0,1550.0,1550.0,1550.0,0.0,0.0
1565344085064981806,1550.0,1550.0,1550.0,1550.0,0.0,0.0
1565344085114976181,1550.0,1550.0,1550.0,1550.0,0.0,0.0
1565344085164957014,1550.0,1550.0,1550.0,1550.0,0.0,0.0
1565344085215068108,1550.0,1550.0,1550.0,1550.0,0.0,0.0
1565344085265172327,1550.0,1550.0,1550.0,1550.0,0.0,0.0
1565344085314962744,1550.0,1550.0,1550.0,1550.0,0.0,0.0
1565344085364739358,1550.0,1550.0,1550.0,1550.0,0.0,0.0
1565344085414954098,1550.0,1550.0,1550.0,1550.0,0.0,0.0
1565344085464857952,1550.0,1550.0,1550.0,1550.0,0.0,0.0
1565344085514996962,1550.0,1550.0,1550.0,1550.0,0.0,0.0
1565344085564884098,1550.0,1550.0,1550.0,1550.0,0.0,0.0
1565344085614916650,1550.0,1550.0,1550.0,1550.0,0.0,0.0
1565344085666227431,1550.0,1550.0,1550.0,1550.0,0.0,0.0
1565344085715825348,1550.0,1550.0,1550.0,1550.0,0.0,0.0
1565344085766116285,1550.0,1550.0,1550.0,1550.0,0.0,0.0
1565344085815044670,1550.0,1550.0,1550.0,1550.0,0.0,0.0
1565344085866154410,1550.0,1550.0,1550.0,1550.0,0.0,0.0
1565344085915831077,1550.0,1550.0,1550.0,1550.0,0.0,0.0
1565344085965283316,1550.0,1550.0,1550.0,1550.0,0.0,0.0
1565344086015190087,1550.0,1550.0,1550.0,1550.0,0.0,0.0
1565344086064785087,1550.0,1550.0,1550.0,1550.0,0.0,0.0
1565344086115032847,1550.0,1550.0,1550.0,1550.0,0.0,0.0
1565344086165018420,1550.0,1550.0,1550.0,1550.0,0.0,0.0
1565344086215232170,1550.0,1550.0,1550.0,1550.0,0.0,0.0
1565344086265746962,1550.0,1550.0,1550.0,1550.0,0.0,0.0
1565344086315674045,1550.0,1550.0,1550.0,1550.0,0.0,0.0
1565344086364713889,1550.0,1550.0,1550.0,1550.0,0.0,0.0
1565344086415023889,1550.0,1550.0,1550.0,1550.0,0.0,0.0
1565344086464909670,1550.0,1550.0,1550.0,1550.0,0.0,0.0
1565344086515614879,1550.0,1550.0,1550.0,1550.0,0.0,0.0
1565344086564924514,1550.0,1550.0,1550.0,1550.0,0.0,0.0
1565344086615209306,1550.0,1550.0,1550.0,1550.0,0.0,0.0
1565344086665991910,1550.0,1550.0,1550.0,1550.0,0.0,0.0
1565344086715041076,1550.0,1550.0,1550.0,1550.0,0.0,0.0
1565344086765435816,1550.0,1550.0,1550.0,1550.0,0.0,0.0
1565344086814870660,1550.0,1550.0,1550.0,1550.0,0.0,0.0
1565344086865793056,1550.0,1550.0,1550.0,1550.0,0.0,0.0
1565344086915043264,1550.0,1550.0,1550.0,1550.0,0.0,0.0
1565344086965076545,1550.0,1550.0,1550.0,1550.0,0.0,0.0
1565344087015206962,1550.0,1550.0,1550.0,1550.0,0.0,0.0
1565344087065533472,1550.0,1550.0,1550.0,1550.0,0.0,0.0
1565344087115572951,1550.0,1550.0,1550.0,1550.0,0.0,0.0
1565344087165463993,1550.0,1550.0,1550.0,1550.0,0.0,0.0
1565344087214993941,1550.0,1550.0,1550.0,1550.0,0.0,0.0
1565344087265399566,1550.0,1550.0,1550.0,1550.0,0.0,0.0
1565344087315722899,1550.0,1550.0,1550.0,1550.0,0.0,0.0
1565344087364874357,1550.0,1550.0,1550.0,1550.0,0.0,0.0
1565344087414776649,1550.0,1550.0,1550.0,1550.0,0.0,0.0
1565344087465774618,1550.0,1550.0,1550.0,1550.0,0.0,0.0
1565344087516487847,1550.0,1550.0,1550.0,1550.0,0.0,0.0
1565344087565250347,1550.0,1550.0,1550.0,1550.0,0.0,0.0
1565344087615269097,1550.0,1550.0,1550.0,1550.0,0.0,0.0
1565344087665365347,1550.0,1550.0,1550.0,1550.0,0.0,0.0
1565344087714903732,1550.0,1550.0,1550.0,1550.0,0.0,0.0
1565344087765314670,1550.0,1550.0,1550.0,1550.0,0.0,0.0
1565344087814711336,1550.0,1550.0,1550.0,1550.0,0.0,0.0
1565344087865472013,1550.0,1550.0,1550.0,1550.0,0.0,0.0
1565344087915043836,1550.0,1550.0,1550.0,1550.0,0.0,0.0
1565344087964653941,1550.0,1550.0,1550.0,1550.0,0.0,0.0
1565344088014606545,1550.0,1550.0,1550.0,1550.0,0.0,0.0
1565344088065196440,1550.0,1550.0,1550.0,1550.0,0.0,0.0
1565344088114922795,1550.0,1550.0,1550.0,1550.0,0.0,0.0
1565344088165083315,1550.0,1550.0,1550.0,1550.0,0.0,0.0
1565344088215339670,1550.0,1550.0,1550.0,1550.0,0.0,0.0
1565344088265481805,1550.0,1550.0,1550.0,1550.0,0.0,0.0
1565344088315235399,1550.0,1550.0,1550.0,1550.0,0.0,0.0
1565344088365030242,1550.0,1550.0,1550.0,1550.0,0.0,0.0
1565344088415102065,1550.0,1550.0,1550.0,1550.0,0.0,0.0
1565344088465315555,1550.0,1550.0,1550.0,1550.0,0.0,0.0
1565344088514970347,1550.0,1550.0,1550.0,1550.0,0.0,0.0
1565344088565008472,1621.78483605,1621.78483605,1550.0,1550.0,0.0,0.0
1565344088615186805,1621.78483605,1621.78483605,1550.0,1550.0,0.0,0.0
1565344088665132065,1628.29651833,1628.29651833,1550.0,1550.0,0.0,0.0
1565344088714602430,1628.29651833,1628.29651833,1550.0,1550.0,0.0,0.0
1565344088765156805,1628.29651833,1628.29651833,1550.0,1550.0,0.0,0.0
1565344088815050034,1628.29651833,1628.29651833,1550.0,1550.0,0.0,0.0
1565344088864955346,1628.29651833,1628.29651833,1550.0,1550.0,0.0,0.0
1565344088914635815,1628.29651833,1628.29651833,1550.0,1550.0,0.0,0.0
1565344088965089773,1628.29651833,1628.29651833,1550.0,1550.0,0.0,0.0
1565344089015066753,1628.29651833,1628.29651833,1550.0,1550.0,0.0,0.0
1565344089065104044,1628.29651833,1628.29651833,1550.0,1550.0,0.0,0.0
1565344089115069669,1627.21070647,1627.21070647,1550.0,1550.0,0.0,0.0
1565344089164897221,1627.21070647,1627.21070647,1550.0,1550.0,0.0,0.0
1565344089215084461,1627.21070647,1627.21070647,1550.0,1550.0,0.0,0.0
1565344089265184357,1627.21070647,1627.21070647,1550.0,1550.0,0.0,0.0
1565344089315803471,1627.21070647,1627.21070647,1550.0,1550.0,0.0,0.0
1565344089364926023,1628.29651833,1628.29651833,1550.0,1550.0,0.0,0.0
1565344089414902325,1628.29651833,1628.29651833,1550.0,1550.0,0.0,0.0
1565344089464993055,1628.29651833,1628.29651833,1550.0,1550.0,0.0,0.0
1565344089515181388,1628.29651833,1628.29651833,1550.0,1550.0,0.0,0.0
1565344089565169721,1631.55397177,1631.55397177,1550.0,1550.0,0.0,0.0
1565344089615065034,1631.55397177,1631.55397177,1550.0,1550.0,0.0,0.0
1565344089665013627,1631.55397177,1631.55397177,1550.0,1550.0,0.0,0.0
1565344089714923627,1631.55397177,1631.55397177,1550.0,1550.0,0.0,0.0
1565344089764698784,1631.55397177,1631.55397177,1550.0,1550.0,0.0,0.0
1565344089815092377,1631.55397177,1631.55397177,1550.0,1550.0,0.0,0.0
1565344089864573315,1631.55397177,1631.55397177,1550.0,1550.0,0.0,0.0
1565344089915314513,1631.55397177,1631.55397177,1550.0,1550.0,0.0,0.0
1565344089965103940,1631.55397177,1631.55397177,1550.0,1550.0,0.0,0.0
1565344090014945554,1631.55397177,1631.55397177,1550.0,1550.0,0.0,0.0
1565344090066113836,1631.55397177,1631.55397177,1550.0,1550.0,0.0,0.0
1565344090114919565,1631.55397177,1631.55397177,1550.0,1550.0,0.0,0.0
1565344090164649669,1630.46815395,1630.46815395,1550.0,1550.0,0.0,0.0
1565344090215067481,1630.46815395,1630.46815395,1550.0,1550.0,0.0,0.0
1565344090265611179,1631.55397177,1631.55397177,1550.0,1550.0,0.0,0.0
1565344090314914721,1631.55397177,1631.55397177,1550.0,1550.0,0.0,0.0
1565344090366117325,1631.55397177,1631.55397177,1550.0,1550.0,0.0,0.0
1565344090415675919,1631.55397177,1631.55397177,1550.0,1550.0,0.0,0.0
1565344090465384565,1631.55397177,1631.55397177,1550.0,1550.0,0.0,0.0
1565344090515138210,1631.55397177,1631.55397177,1550.0,1550.0,0.0,0.0
1565344090565176023,1631.55397177,1631.55397177,1550.0,1550.0,0.0,0.0
1565344090615710814,1631.55397177,1631.55397177,1550.0,1550.0,0.0,0.0
1565344090666032794,1631.55397177,1631.55397177,1550.0,1550.0,0.0,0.0
1565344090715035971,1631.55397177,1631.55397177,1550.0,1550.0,0.0,0.0
1565344090765079356,1631.55397177,1631.55397177,1550.0,1550.0,0.0,0.0
1565344090815472273,1631.55397177,1631.55397177,1550.0,1550.0,0.0,0.0
1565344090865717064,1632.63657689,1632.63657689,1550.0,1550.0,0.0,0.0
1565344090915178419,1632.63657689,1632.63657689,1550.0,1550.0,0.0,0.0
1565344090965281960,1633.72238874,1633.72238874,1550.0,1550.0,0.0,0.0
1565344091014928106,1633.72238874,1633.72238874,1550.0,1550.0,0.0,0.0
1565344091065473783,1633.72238874,1633.72238874,1550.0,1550.0,0.0,0.0
1565344091115151283,1633.72238874,1633.72238874,1550.0,1550.0,0.0,0.0
1565344091165150137,1633.72238874,1633.72238874,1550.0,1550.0,0.0,0.0
1565344091215094408,1632.63657689,1632.63657689,1550.0,1550.0,0.0,0.0
1565344091265475085,1632.63657689,1632.63657689,1550.0,1550.0,0.0,0.0
1565344091315222793,1633.72238874,1633.72238874,1550.0,1550.0,0.0,0.0
1565344091365105450,1633.72238874,1633.72238874,1550.0,1550.0,0.0,0.0
1565344091415117845,1633.72238874,1633.72238874,1550.0,1550.0,0.0,0.0
1565344091465557116,1633.72238874,1633.72238874,1550.0,1550.0,0.0,0.0
1565344091514903002,1633.72238874,1633.72238874,1550.0,1550.0,0.0,0.0
1565344091565155658,1633.72238874,1633.72238874,1550.0,1550.0,0.0,0.0
1565344091615173054,1633.72238874,1633.72238874,1550.0,1550.0,0.0,0.0
1565344091665073522,1636.97984219,1636.97984219,1550.0,1550.0,0.0,0.0
1565344091714931231,1636.97984219,1636.97984219,1550.0,1550.0,0.0,0.0
1565344091764925918,1636.97984219,1636.97984219,1550.0,1550.0,0.0,0.0
1565344091815177637,1550.0,1550.0,1550.0,1550.0,0.0,0.0
1565344091866727324,1550.0,1550.0,1550.0,1550.0,0.0,0.0
1565344091914985970,1550.0,1550.0,1550.0,1550.0,0.0,0.0
1565344091964915397,1550.0,1550.0,1550.0,1550.0,0.0,0.0
1565344092014907481,1550.0,1550.0,1550.0,1550.0,0.0,0.0
1565344092065070033,1550.0,1550.0,1550.0,1550.0,0.0,0.0
1565344092114943991,1550.0,1550.0,1550.0,1550.0,0.0,0.0
1565344092165293418,1550.0,1550.0,1550.0,1550.0,0.0,0.0
1565344092215146699,1550.0,1550.0,1550.0,1550.0,0.0,0.0
1565344092265057793,1550.0,1550.0,1550.0,1550.0,0.0,0.0
1565344092315327897,1550.0,1550.0,1550.0,1550.0,0.0,0.0
1565344092364719408,1550.0,1550.0,1550.0,1550.0,0.0,0.0
1565344092415066126,1550.0,1550.0,1550.0,1550.0,0.0,0.0
1565344092465095658,1550.0,1550.0,1550.0,1550.0,0.0,0.0
1565344092514994980,1550.0,1550.0,1550.0,1550.0,0.0,0.0
1565344092564887585,1550.0,1550.0,1550.0,1550.0,0.0,0.0
1565344092614898626,1550.0,1550.0,1550.0,1550.0,0.0,0.0
1565344092665091855,1550.0,1550.0,1550.0,1550.0,0.0,0.0
1565344092714947324,1550.0,1550.0,1550.0,1550.0,0.0,0.0
1565344092764970657,1550.0,1550.0,1550.0,1550.0,0.0,0.0
1565344092814937012,1550.0,1550.0,1550.0,1550.0,0.0,0.0
1565344092865009407,1550.0,1550.0,1550.0,1550.0,0.0,0.0
1565344092914923834,1550.0,1550.0,1550.0,1550.0,0.0,0.0
1565344092965106699,1593.56966913,1593.56966913,1550.0,1550.0,0.0,0.0
1565344093015114251,1593.56966913,1593.56966913,1550.0,1550.0,0.0,0.0
1565344093065209876,1610.93309522,1610.93309522,1550.0,1550.0,0.0,0.0
1565344093115153730,1610.93309522,1610.93309522,1550.0,1550.0,0.0,0.0
1565344093165065189,1610.93309522,1610.93309522,1550.0,1550.0,0.0,0.0
1565344093215114043,1610.93309522,1610.93309522,1550.0,1550.0,0.0,0.0
1565344093265079303,1610.93309522,1610.93309522,1550.0,1550.0,0.0,0.0
1565344093315043470,1625.04228354,1625.04228354,1550.0,1550.0,0.0,0.0
1565344093364988730,1625.04228354,1625.04228354,1550.0,1550.0,0.0,0.0
1565344093415615449,1650.0,1650.0,1550.0,1550.0,0.0,0.0
1565344093465057740,1650.0,1650.0,1550.0,1550.0,0.0,0.0
1565344093514917949,1650.0,1650.0,1550.0,1550.0,0.0,0.0
1565344093565415553,1650.0,1650.0,1550.0,1550.0,0.0,0.0
1565344093615732845,1650.0,1650.0,1550.0,1550.0,0.0,0.0
1565344093664901751,1650.0,1650.0,1550.0,1550.0,0.0,0.0
1565344093715084355,1650.0,1650.0,1550.0,1550.0,0.0,0.0
1565344093765406386,1650.0,1650.0,1550.0,1550.0,0.0,0.0
1565344093815380397,1650.0,1650.0,1550.0,1550.0,0.0,0.0
1565344093865395761,1650.0,1650.0,1550.0,1550.0,0.0,0.0
1565344093914888782,1650.0,1650.0,1550.0,1550.0,0.0,0.0
1565344093964939772,1650.0,1650.0,1550.0,1550.0,0.0,0.0
1565344094014937792,1650.0,1650.0,1550.0,1550.0,0.0,0.0
1565344094065408105,1650.0,1650.0,1550.0,1550.0,0.0,0.0
1565344094114889980,1650.0,1650.0,1550.0,1550.0,0.0,0.0
1565344094165068834,1650.0,1650.0,1550.0,1550.0,0.0,0.0
1565344094215650657,1650.0,1650.0,1550.0,1550.0,0.0,0.0
1565344094266092324,1550.0,1550.0,1550.0,1550.0,0.0,0.0
1565344094314903938,1550.0,1550.0,1550.0,1550.0,0.0,0.0
1565344094365188053,1550.0,1550.0,1550.0,1550.0,0.0,0.0
1565344094415107844,1550.0,1550.0,1550.0,1550.0,0.0,0.0
1565344094465439667,1550.0,1550.0,1550.0,1550.0,0.0,0.0
1565344094515134980,1550.0,1550.0,1550.0,1550.0,0.0,0.0
1565344094565104511,1550.0,1550.0,1550.0,1550.0,0.0,0.0
1565344094615197271,1550.0,1550.0,1550.0,1550.0,0.0,0.0
1565344094666281178,1550.0,1550.0,1550.0,1550.0,0.0,0.0
1565344094716595709,1550.0,1550.0,1550.0,1550.0,0.0,0.0
1565344094764933625,1550.0,1550.0,1550.0,1550.0,0.0,0.0
1565344094815730969,1550.0,1550.0,1550.0,1550.0,0.0,0.0
1565344094866197584,1550.0,1550.0,1550.0,1550.0,0.0,0.0
1565344094915698730,1550.0,1550.0,1550.0,1550.0,0.0,0.0
1565344094965761177,1550.0,1550.0,1550.0,1550.0,0.0,0.0
1565344095015143417,1550.0,1550.0,1550.0,1550.0,0.0,0.0
1565344095066069823,1550.0,1550.0,1550.0,1550.0,0.0,0.0
1565344095115019979,1550.0,1550.0,1550.0,1550.0,0.0,0.0
1565344095165028573,1550.0,1550.0,1550.0,1550.0,0.0,0.0
1565344095214918573,1550.0,1550.0,1550.0,1550.0,0.0,0.0
1565344095265385500,1550.0,1550.0,1550.0,1550.0,0.0,0.0
1565344095314914302,1550.0,1550.0,1550.0,1550.0,0.0,0.0
1565344095365065084,1550.0,1550.0,1550.0,1550.0,0.0,0.0
1565344095415169511,1550.0,1550.0,1550.0,1550.0,0.0,0.0
1565344095466731750,1579.38233614,1550.0,1550.0,1579.38233614,0.0,0.0
1565344095516196906,1579.38233614,1550.0,1550.0,1579.38233614,0.0,0.0
1565344095564990656,1590.23407698,1550.0,1550.0,1590.23407698,0.0,0.0
1565344095616058104,1590.23407698,1550.0,1550.0,1590.23407698,0.0,0.0
1565344095665387896,1590.23407698,1550.0,1550.0,1590.23407698,0.0,0.0
1565344095714639354,1592.40410328,1550.0,1550.0,1592.40410328,0.0,0.0
1565344095765608417,1592.40410328,1550.0,1550.0,1592.40410328,0.0,0.0
1565344095815463469,1598.91578853,1550.0,1550.0,1598.91578853,0.0,0.0
1565344095865496542,1598.91578853,1550.0,1550.0,1598.91578853,0.0,0.0
1565344095915076854,1600.0,1550.0,1550.0,1600.0,0.0,0.0
1565344095964949615,1600.0,1550.0,1550.0,1600.0,0.0,0.0
1565344096015102740,1600.0,1550.0,1550.0,1600.0,0.0,0.0
1565344096065498208,1600.0,1550.0,1550.0,1600.0,0.0,0.0
1565344096116065187,1600.0,1550.0,1550.0,1600.0,0.0,0.0
1565344096165092583,1600.0,1550.0,1550.0,1600.0,0.0,0.0
1565344096214911125,1600.0,1550.0,1550.0,1600.0,0.0,0.0
1565344096265084250,1600.0,1550.0,1550.0,1600.0,0.0,0.0
1565344096315821489,1600.0,1550.0,1550.0,1600.0,0.0,0.0
1565344096365948312,1600.0,1550.0,1550.0,1600.0,0.0,0.0
1565344096415883469,1600.0,1550.0,1550.0,1600.0,0.0,0.0
1565344096465173521,1550.0,1550.0,1550.0,1550.0,0.0,0.0
1565344096515146593,1550.0,1550.0,1550.0,1550.0,0.0,0.0
1565344096565748989,1550.0,1550.0,1550.0,1550.0,0.0,0.0
1565344096615535031,1550.0,1550.0,1550.0,1550.0,0.0,0.0
1565344096664886073,1550.0,1550.0,1550.0,1550.0,0.0,0.0
1565344096714743052,1550.0,1550.0,1550.0,1550.0,0.0,0.0
1565344096765013625,1550.0,1550.0,1550.0,1550.0,0.0,0.0
1565344096814971593,1550.0,1550.0,1550.0,1550.0,0.0,0.0
1565344096865057843,1550.0,1550.0,1550.0,1550.0,0.0,0.0
1565344096915581698,1550.0,1550.0,1550.0,1550.0,0.0,0.0
1565344096964977791,1550.0,1550.0,1550.0,1550.0,0.0,0.0
1565344097015121072,1550.0,1550.0,1550.0,1550.0,0.0,0.0
1565344097065003937,1550.0,1550.0,1550.0,1550.0,0.0,0.0
1565344097114893729,1550.0,1550.0,1579.46690619,1579.46690619,0.0,0.0
1565344097165130343,1550.0,1550.0,1579.46690619,1579.46690619,0.0,0.0
1565344097214981697,1550.0,1550.0,1590.31864405,1590.31864405,0.0,0.0
1565344097265050760,1550.0,1550.0,1590.31864405,1590.31864405,0.0,0.0
1565344097314918989,1550.0,1550.0,1590.31864405,1590.31864405,0.0,0.0
1565344097364902895,1550.0,1550.0,1590.31864405,1590.31864405,0.0,0.0
1565344097414954926,1550.0,1550.0,1612.02212572,1612.02212572,0.0,0.0
1565344097465523364,1550.0,1550.0,1612.02212572,1612.02212572,0.0,0.0
1565344097514941489,1550.0,1550.0,1632.63978958,1632.63978958,0.0,0.0
1565344097565564041,1550.0,1550.0,1632.63978958,1632.63978958,0.0,0.0
1565344097616117791,1550.0,1550.0,1632.63978958,1632.63978958,0.0,0.0
1565344097665508156,1550.0,1550.0,1632.63978958,1632.63978958,0.0,0.0
1565344097715078416,1550.0,1550.0,1632.63978958,1632.63978958,0.0,0.0
1565344097765725551,1550.0,1550.0,1632.63978958,1632.63978958,0.0,0.0
1565344097814968103,1550.0,1550.0,1650.0,1650.0,0.0,0.0
1565344097865562010,1550.0,1550.0,1650.0,1650.0,0.0,0.0
1565344097915582947,1550.0,1550.0,1650.0,1650.0,0.0,0.0
1565344097965240447,1550.0,1550.0,1650.0,1650.0,0.0,0.0
1565344098014896385,1550.0,1550.0,1650.0,1650.0,0.0,0.0
1565344098065686072,1550.0,1550.0,1650.0,1650.0,0.0,0.0
1565344098115203780,1550.0,1550.0,1650.0,1650.0,0.0,0.0
1565344098165138780,1550.0,1550.0,1650.0,1650.0,0.0,0.0
1565344098214662166,1550.0,1550.0,1650.0,1650.0,0.0,0.0
1565344098265890291,1550.0,1550.0,1650.0,1650.0,0.0,0.0
1565344098315859926,1550.0,1550.0,1650.0,1650.0,0.0,0.0
1565344098365139353,1550.0,1550.0,1650.0,1650.0,0.0,0.0
1565344098415179926,1550.0,1550.0,1650.0,1650.0,0.0,0.0
1565344098466434353,1550.0,1550.0,1650.0,1650.0,0.0,0.0
1565344098515074509,1550.0,1550.0,1650.0,1650.0,0.0,0.0
1565344098565012322,1550.0,1550.0,1650.0,1650.0,0.0,0.0
1565344098615114926,1550.0,1550.0,1650.0,1650.0,0.0,0.0
1565344098664700864,1550.0,1550.0,1650.0,1650.0,0.0,0.0
1565344098714998728,1550.0,1550.0,1650.0,1650.0,0.0,0.0
1565344098764927686,1550.0,1550.0,1650.0,1650.0,0.0,0.0
1565344098814884561,1550.0,1550.0,1650.0,1650.0,0.0,0.0
1565344098865374613,1550.0,1550.0,1650.0,1650.0,0.0,0.0
1565344098915089353,1550.0,1550.0,1650.0,1650.0,0.0,0.0
1565344098966044197,1550.0,1550.0,1650.0,1650.0,0.0,0.0
1565344099014791957,1550.0,1550.0,1650.0,1650.0,0.0,0.0
1565344099066078311,1550.0,1550.0,1650.0,1650.0,0.0,0.0
1565344099114695290,1550.0,1550.0,1650.0,1650.0,0.0,0.0
1565344099164686072,1550.0,1550.0,1650.0,1650.0,0.0,0.0
1565344099215248051,1550.0,1550.0,1650.0,1650.0,0.0,0.0
1565344099265496540,1550.0,1550.0,1650.0,1650.0,0.0,0.0
1565344099315067165,1550.0,1550.0,1650.0,1650.0,0.0,0.0
1565344099365152478,1550.0,1550.0,1650.0,1650.0,0.0,0.0
1565344099415366853,1550.0,1550.0,1650.0,1650.0,0.0,0.0
1565344099465526540,1550.0,1550.0,1650.0,1650.0,0.0,0.0
1565344099514958728,1550.0,1550.0,1650.0,1650.0,0.0,0.0
1565344099565343415,1550.0,1550.0,1650.0,1650.0,0.0,0.0
1565344099615210811,1550.0,1550.0,1650.0,1650.0,0.0,0.0
1565344099665428467,1550.0,1550.0,1650.0,1650.0,0.0,0.0
1565344099715213415,1550.0,1550.0,1650.0,1650.0,0.0,0.0
1565344099764760759,1550.0,1550.0,1650.0,1650.0,0.0,0.0
1565344099815402009,1550.0,1550.0,1650.0,1650.0,0.0,0.0
1565344099866222478,1550.0,1550.0,1650.0,1650.0,0.0,0.0
1565344099915275498,1550.0,1550.0,1650.0,1650.0,0.0,0.0
1565344099965100759,1550.0,1550.0,1650.0,1650.0,0.0,0.0
1565344100015213780,1550.0,1550.0,1650.0,1650.0,0.0,0.0
1565344100065071332,1550.0,1550.0,1650.0,1650.0,0.0,0.0
1565344100115627165,1550.0,1550.0,1650.0,1650.0,0.0,0.0
1565344100164638207,1550.0,1550.0,1650.0,1650.0,0.0,0.0
1565344100214659665,1550.0,1550.0,1650.0,1650.0,0.0,0.0
1565344100265664977,1550.0,1550.0,1650.0,1650.0,0.0,0.0
1565344100315077582,1550.0,1550.0,1650.0,1650.0,0.0,0.0
1565344100365197113,1550.0,1550.0,1650.0,1650.0,0.0,0.0
1565344100414827790,1550.0,1550.0,1650.0,1650.0,0.0,0.0
1565344100466085290,1550.0,1550.0,1650.0,1650.0,0.0,0.0
1565344100515095707,1550.0,1550.0,1650.0,1650.0,0.0,0.0
1565344100565087477,1550.0,1550.0,1650.0,1650.0,0.0,0.0
1565344100614979404,1550.0,1550.0,1550.0,1550.0,0.0,0.0
1565344100665821488,1550.0,1550.0,1550.0,1550.0,0.0,0.0
1565344100715567790,1550.0,1550.0,1550.0,1550.0,0.0,0.0
1565344100764938206,1550.0,1550.0,1550.0,1550.0,0.0,0.0
1565344100815478936,1550.0,1550.0,1550.0,1550.0,0.0,0.0
1565344100866586019,1550.0,1550.0,1550.0,1550.0,0.0,0.0
1565344100915097894,1550.0,1550.0,1550.0,1550.0,0.0,0.0
1565344100965062373,1550.0,1550.0,1550.0,1550.0,0.0,0.0
1565344101014633467,1550.0,1550.0,1550.0,1550.0,0.0,0.0
1565344101066547842,1550.0,1550.0,1550.0,1550.0,0.0,0.0
1565344101116193675,1550.0,1550.0,1550.0,1550.0,0.0,0.0
1565344101165058154,1550.0,1550.0,1550.0,1550.0,0.0,0.0
1565344101214999456,1550.0,1550.0,1550.0,1550.0,0.0,0.0
1565344101265603310,1550.0,1550.0,1550.0,1550.0,0.0,0.0
1565344101315652998,1550.0,1550.0,1587.06119657,1587.06119657,0.0,0.0
1565344101365419665,1550.0,1550.0,1587.06119657,1587.06119657,0.0,0.0
1565344101414964665,1550.0,1550.0,1612.02212572,1612.02212572,0.0,0.0
1565344101464813310,1550.0,1550.0,1612.02212572,1612.02212572,0.0,0.0
1565344101514962894,1550.0,1550.0,1616.36217833,1616.36217833,0.0,0.0
1565344101564942581,1550.0,1550.0,1616.36217833,1616.36217833,0.0,0.0
1565344101615106019,1550.0,1550.0,1621.78804874,1621.78804874,0.0,0.0
1565344101666255706,1550.0,1550.0,1621.78804874,1621.78804874,0.0,0.0
1565344101715039248,1550.0,1550.0,1621.78804874,1621.78804874,0.0,0.0
1565344101765266019,1550.0,1550.0,1638.06886673,1638.06886673,0.0,0.0
1565344101815102425,1550.0,1550.0,1638.06886673,1638.06886673,0.0,0.0
1565344101865851539,1550.0,1550.0,1650.0,1650.0,0.0,0.0
1565344101915046591,1550.0,1550.0,1650.0,1650.0,0.0,0.0
1565344101964738623,1550.0,1550.0,1650.0,1650.0,0.0,0.0
1565344102014973727,1550.0,1550.0,1650.0,1650.0,0.0,0.0
1565344102064960706,1550.0,1550.0,1650.0,1650.0,0.0,0.0
1565344102114786331,1550.0,1550.0,1650.0,1650.0,0.0,0.0
1565344102164968623,1550.0,1550.0,1650.0,1650.0,0.0,0.0
1565344102215096487,1550.0,1550.0,1650.0,1650.0,0.0,0.0
1565344102264903675,1550.0,1550.0,1650.0,1650.0,0.0,0.0
1565344102314882060,1550.0,1550.0,1650.0,1650.0,0.0,0.0
1565344102365098623,1550.0,1550.0,1650.0,1650.0,0.0,0.0
1565344102414869352,1550.0,1550.0,1650.0,1650.0,0.0,0.0
1565344102465135289,1550.0,1550.0,1550.0,1550.0,0.0,0.0
1565344102514870758,1550.0,1550.0,1550.0,1550.0,0.0,0.0
1565344102564875966,1550.0,1550.0,1550.0,1550.0,0.0,0.0
1565344102614890237,1550.0,1550.0,1550.0,1550.0,0.0,0.0
1565344102665004612,1550.0,1550.0,1550.0,1550.0,0.0,0.0
1565344102714711695,1550.0,1550.0,1550.0,1550.0,0.0,0.0
1565344102765001435,1550.0,1550.0,1550.0,1550.0,0.0,0.0
1565344102814918883,1550.0,1550.0,1550.0,1550.0,0.0,0.0
1565344102864878674,1550.0,1550.0,1550.0,1550.0,0.0,0.0
1565344102914845966,1550.0,1550.0,1550.0,1550.0,0.0,0.0
1565344102965052581,1550.0,1550.0,1550.0,1550.0,0.0,0.0
1565344103015104299,1550.0,1550.0,1550.0,1550.0,0.0,0.0
1565344103065760133,1550.0,1550.0,1550.0,1550.0,0.0,0.0
1565344103115803206,1550.0,1550.0,1550.0,1550.0,0.0,0.0
1565344103164910341,1550.0,1550.0,1550.0,1550.0,0.0,0.0
1565344103214926851,1550.0,1550.0,1550.0,1550.0,0.0,0.0
1565344103265591643,1550.0,1550.0,1550.0,1550.0,0.0,0.0
1565344103314985758,1550.0,1550.0,1550.0,1550.0,0.0,0.0
1565344103365123726,1550.0,1550.0,1550.0,1550.0,0.0,0.0
1565344103415022060,1550.0,1550.0,1550.0,1550.0,0.0,0.0
1565344103465528622,1550.0,1550.0,1550.0,1550.0,0.0,0.0
1565344103515064351,1550.0,1550.0,1550.0,1550.0,0.0,0.0
1565344103564941539,1550.0,1550.0,1550.0,1550.0,0.0,0.0
1565344103614879507,1591.40124917,1591.40124917,1550.0,1550.0,0.0,0.0
1565344103667921122,1591.40124917,1591.40124917,1550.0,1550.0,0.0,0.0
1565344103715684820,1608.76467228,1608.76467228,1550.0,1550.0,0.0,0.0
1565344103764924091,1608.76467228,1608.76467228,1550.0,1550.0,0.0,0.0
1565344103815085341,1608.76467228,1608.76467228,1550.0,1550.0,0.0,0.0
1565344103865021018,1612.01891303,1612.01891303,1550.0,1550.0,0.0,0.0
1565344103915079351,1612.01891303,1612.01891303,1550.0,1550.0,0.0,0.0
1565344103964919664,1631.55397177,1631.55397177,1550.0,1550.0,0.0,0.0
1565344104014918466,1631.55397177,1631.55397177,1550.0,1550.0,0.0,0.0
1565344104069164716,1633.72238874,1633.72238874,1550.0,1550.0,0.0,0.0
1565344104115123361,1633.72238874,1633.72238874,1550.0,1550.0,0.0,0.0
1565344104165047736,1633.72238874,1633.72238874,1550.0,1550.0,0.0,0.0
1565344104215186591,1633.72238874,1633.72238874,1550.0,1550.0,0.0,0.0
1565344104265073101,1636.97984219,1636.97984219,1550.0,1550.0,0.0,0.0
1565344104315005601,1636.97984219,1636.97984219,1550.0,1550.0,0.0,0.0
1565344104364901174,1638.06565404,1638.06565404,1550.0,1550.0,0.0,0.0
1565344104415085080,1638.06565404,1638.06565404,1550.0,1550.0,0.0,0.0
1565344104465201903,1638.06565404,1638.06565404,1550.0,1550.0,0.0,0.0
1565344104515075809,1638.06565404,1638.06565404,1550.0,1550.0,0.0,0.0
1565344104565086278,1638.06565404,1638.06565404,1550.0,1550.0,0.0,0.0
1565344104615077059,1638.06565404,1638.06565404,1550.0,1550.0,0.0,0.0
1565344104665075757,1638.06565404,1638.06565404,1550.0,1550.0,0.0,0.0
1565344104714839195,1638.06565404,1638.06565404,1550.0,1550.0,0.0,0.0
1565344104764997736,1639.14825916,1639.14825916,1550.0,1550.0,0.0,0.0
1565344104814895340,1639.14825916,1639.14825916,1550.0,1550.0,0.0,0.0
1565344104866772111,1639.14825916,1639.14825916,1550.0,1550.0,0.0,0.0
1565344104915756851,1639.14825916,1639.14825916,1550.0,1550.0,0.0,0.0
1565344104965264090,1639.14825916,1639.14825916,1550.0,1550.0,0.0,0.0
1565344105015945184,1639.14825916,1639.14825916,1550.0,1550.0,0.0,0.0
1565344105065548621,1639.14825916,1639.14825916,1550.0,1550.0,0.0,0.0
1565344105114819038,1639.14825916,1639.14825916,1550.0,1550.0,0.0,0.0
1565344105165195288,1639.14825916,1639.14825916,1550.0,1550.0,0.0,0.0
1565344105215100132,1639.14825916,1639.14825916,1550.0,1550.0,0.0,0.0
1565344105265006330,1639.14825916,1639.14825916,1550.0,1550.0,0.0,0.0
1565344105314906694,1639.14825916,1639.14825916,1550.0,1550.0,0.0,0.0
1565344105365446173,1639.14825916,1639.14825916,1550.0,1550.0,0.0,0.0
1565344105415088413,1639.14825916,1639.14825916,1550.0,1550.0,0.0,0.0
1565344105465086486,1639.14825916,1639.14825916,1550.0,1550.0,0.0,0.0
1565344105515373205,1639.14825916,1639.14825916,1550.0,1550.0,0.0,0.0
1565344105565193778,1639.14825916,1639.14825916,1550.0,1550.0,0.0,0.0
1565344105615430809,1639.14825916,1639.14825916,1550.0,1550.0,0.0,0.0
1565344105665990444,1639.14825916,1639.14825916,1550.0,1550.0,0.0,0.0
1565344105714955600,1639.14825916,1639.14825916,1550.0,1550.0,0.0,0.0
1565344105765283934,1639.14825916,1639.14825916,1550.0,1550.0,0.0,0.0
1565344105815469507,1639.14825916,1639.14825916,1550.0,1550.0,0.0,0.0
1565344105865337319,1639.14825916,1639.14825916,1550.0,1550.0,0.0,0.0
1565344105915387788,1639.14825916,1639.14825916,1550.0,1550.0,0.0,0.0
1565344105965316590,1639.14825916,1639.14825916,1550.0,1550.0,0.0,0.0
1565344106015351850,1639.14825916,1639.14825916,1550.0,1550.0,0.0,0.0
1565344106065239194,1639.14825916,1639.14825916,1550.0,1550.0,0.0,0.0
1565344106114938934,1639.14825916,1639.14825916,1550.0,1550.0,0.0,0.0
1565344106164864142,1639.14825916,1639.14825916,1550.0,1550.0,0.0,0.0
1565344106215264767,1639.14825916,1639.14825916,1550.0,1550.0,0.0,0.0
1565344106264886590,1639.14825916,1639.14825916,1550.0,1550.0,0.0,0.0
1565344106314961017,1639.14825916,1639.14825916,1550.0,1550.0,0.0,0.0
1565344106365267840,1650.0,1650.0,1550.0,1550.0,0.0,0.0
1565344106414895079,1650.0,1650.0,1550.0,1550.0,0.0,0.0
1565344106465036798,1650.0,1650.0,1550.0,1550.0,0.0,0.0
1565344106514968152,1650.0,1650.0,1550.0,1550.0,0.0,0.0
1565344106564708152,1650.0,1650.0,1550.0,1550.0,0.0,0.0
1565344106614871850,1650.0,1650.0,1550.0,1550.0,0.0,0.0
1565344106665118465,1650.0,1650.0,1550.0,1550.0,0.0,0.0
1565344106715821642,1650.0,1650.0,1550.0,1550.0,0.0,0.0
1565344106765196485,1650.0,1650.0,1550.0,1550.0,0.0,0.0
1565344106815186485,1650.0,1650.0,1550.0,1550.0,0.0,0.0
1565344106865841017,1650.0,1650.0,1550.0,1550.0,0.0,0.0
1565344106915405340,1650.0,1650.0,1550.0,1550.0,0.0,0.0
1565344106965548100,1650.0,1650.0,1550.0,1550.0,0.0,0.0
1565344107014778152,1650.0,1650.0,1550.0,1550.0,0.0,0.0
1565344107065795704,1650.0,1650.0,1550.0,1550.0,0.0,0.0
1565344107115404923,1650.0,1650.0,1550.0,1550.0,0.0,0.0
1565344107164685600,1650.0,1650.0,1550.0,1550.0,0.0,0.0
1565344107215493673,1650.0,1650.0,1550.0,1550.0,0.0,0.0
1565344107265234923,1650.0,1650.0,1550.0,1550.0,0.0,0.0
1565344107315070183,1650.0,1650.0,1550.0,1550.0,0.0,0.0
1565344107365627683,1650.0,1650.0,1550.0,1550.0,0.0,0.0
1565344107415361121,1650.0,1650.0,1550.0,1550.0,0.0,0.0
1565344107465227839,1650.0,1650.0,1550.0,1550.0,0.0,0.0
1565344107515065704,1650.0,1650.0,1550.0,1550.0,0.0,0.0
1565344107565050964,1650.0,1650.0,1550.0,1550.0,0.0,0.0
1565344107615083204,1650.0,1650.0,1550.0,1550.0,0.0,0.0
1565344107665261485,1650.0,1650.0,1550.0,1550.0,0.0,0.0
1565344107714917995,1650.0,1650.0,1550.0,1550.0,0.0,0.0
1565344107764973568,1650.0,1650.0,1550.0,1550.0,0.0,0.0
1565344107816477370,1650.0,1650.0,1550.0,1550.0,0.0,0.0
1565344107865282891,1650.0,1650.0,1550.0,1550.0,0.0,0.0
1565344107915097162,1650.0,1650.0,1550.0,1550.0,0.0,0.0
1565344107964949870,1650.0,1650.0,1550.0,1550.0,0.0,0.0
1565344108014859818,1650.0,1650.0,1550.0,1550.0,0.0,0.0
1565344108065500495,1650.0,1650.0,1550.0,1550.0,0.0,0.0
1565344108114923568,1650.0,1650.0,1550.0,1550.0,0.0,0.0
1565344108165310808,1650.0,1650.0,1550.0,1550.0,0.0,0.0
1565344108215182058,1650.0,1650.0,1550.0,1550.0,0.0,0.0
1565344108265462579,1650.0,1650.0,1550.0,1550.0,0.0,0.0
1565344108315107318,1650.0,1650.0,1550.0,1550.0,0.0,0.0
1565344108364844037,1650.0,1650.0,1550.0,1550.0,0.0,0.0
1565344108415118412,1650.0,1650.0,1550.0,1550.0,0.0,0.0
1565344108465861745,1650.0,1650.0,1550.0,1550.0,0.0,0.0
1565344108516395860,1650.0,1650.0,1550.0,1550.0,0.0,0.0
1565344108564917787,1650.0,1650.0,1550.0,1550.0,0.0,0.0
1565344108614984193,1650.0,1650.0,1550.0,1550.0,0.0,0.0
1565344108664989974,1650.0,1650.0,1550.0,1550.0,0.0,0.0
1565344108714915756,1650.0,1650.0,1550.0,1550.0,0.0,0.0
1565344108764960599,1650.0,1650.0,1550.0,1550.0,0.0,0.0
1565344108815185183,1650.0,1650.0,1550.0,1550.0,0.0,0.0
1565344108865083360,1650.0,1650.0,1550.0,1550.0,0.0,0.0
1565344108914535651,1650.0,1650.0,1550.0,1550.0,0.0,0.0
1565344108964677943,1650.0,1650.0,1550.0,1550.0,0.0,0.0
1565344109014951276,1650.0,1650.0,1550.0,1550.0,0.0,0.0
1565344109065673099,1650.0,1650.0,1550.0,1550.0,0.0,0.0
1565344109114664193,1650.0,1650.0,1550.0,1550.0,0.0,0.0
1565344109164597735,1650.0,1650.0,1550.0,1550.0,0.0,0.0
1565344109215008307,1650.0,1650.0,1550.0,1550.0,0.0,0.0
1565344109265243568,1650.0,1650.0,1550.0,1550.0,0.0,0.0
1565344109314798724,1650.0,1650.0,1550.0,1550.0,0.0,0.0
1565344109364901901,1650.0,1650.0,1550.0,1550.0,0.0,0.0
1565344109414951745,1650.0,1650.0,1550.0,1550.0,0.0,0.0
1565344109465218203,1650.0,1650.0,1550.0,1550.0,0.0,0.0
1565344109514907057,1650.0,1650.0,1550.0,1550.0,0.0,0.0
1565344109564882057,1550.0,1550.0,1550.0,1550.0,0.0,0.0
1565344109615051641,1550.0,1550.0,1550.0,1550.0,0.0,0.0
1565344109665316641,1550.0,1550.0,1550.0,1550.0,0.0,0.0
1565344109714894245,1550.0,1550.0,1550.0,1550.0,0.0,0.0
1565344109764842943,1550.0,1550.0,1550.0,1550.0,0.0,0.0
1565344109814899193,1550.0,1550.0,1550.0,1550.0,0.0,0.0
1565344109865627005,1550.0,1550.0,1550.0,1550.0,0.0,0.0
1565344109915398203,1550.0,1550.0,1550.0,1550.0,0.0,0.0
1565344109964867526,1550.0,1550.0,1550.0,1550.0,0.0,0.0
1565344110014898151,1550.0,1550.0,1550.0,1550.0,0.0,0.0
1565344110065082370,1550.0,1550.0,1550.0,1550.0,0.0,0.0
1565344110115023567,1550.0,1550.0,1550.0,1550.0,0.0,0.0
1565344110164899609,1550.0,1550.0,1550.0,1550.0,0.0,0.0
1565344110214553255,1550.0,1550.0,1550.0,1550.0,0.0,0.0
1565344110265977265,1550.0,1550.0,1550.0,1550.0,0.0,0.0
1565344110316160494,1550.0,1550.0,1550.0,1550.0,0.0,0.0
1565344110365492474,1550.0,1550.0,1550.0,1550.0,0.0,0.0
1565344110415162578,1550.0,1550.0,1550.0,1550.0,0.0,0.0
1565344110465681849,1550.0,1550.0,1550.0,1550.0,0.0,0.0
1565344110515222526,1550.0,1550.0,1550.0,1550.0,0.0,0.0
1565344110564929349,1550.0,1550.0,1550.0,1550.0,0.0,0.0
1565344110614954713,1550.0,1550.0,1550.0,1550.0,0.0,0.0
1565344110665222265,1550.0,1550.0,1550.0,1550.0,0.0,0.0
1565344110715406015,1550.0,1550.0,1550.0,1550.0,0.0,0.0
1565344110765838984,1550.0,1550.0,1550.0,1550.0,0.0,0.0
1565344110815151796,1550.0,1550.0,1550.0,1550.0,0.0,0.0
1565344110866401744,1550.0,1550.0,1550.0,1550.0,0.0,0.0
1565344110916048723,1550.0,1550.0,1550.0,1550.0,0.0,0.0
1565344110965241171,1550.0,1550.0,1550.0,1550.0,0.0,0.0
1565344111014904400,1550.0,1550.0,1550.0,1550.0,0.0,0.0
1565344111065950755,1550.0,1550.0,1550.0,1550.0,0.0,0.0
1565344111115497473,1550.0,1550.0,1550.0,1550.0,0.0,0.0
1565344111165415077,1550.0,1550.0,1550.0,1550.0,0.0,0.0
1565344111215395755,1550.0,1550.0,1550.0,1550.0,0.0,0.0
1565344111265489765,1550.0,1550.0,1550.0,1550.0,0.0,0.0
1565344111315459452,1550.0,1550.0,1550.0,1550.0,0.0,0.0
1565344111365448254,1550.0,1550.0,1550.0,1550.0,0.0,0.0
1565344111415372421,1550.0,1550.0,1550.0,1550.0,0.0,0.0
1565344111465635390,1550.0,1550.0,1550.0,1550.0,0.0,0.0
1565344111515133202,1550.0,1550.0,1550.0,1550.0,0.0,0.0
1565344111565381900,1550.0,1550.0,1550.0,1550.0,0.0,0.0
1565344111615150963,1550.0,1550.0,1550.0,1550.0,0.0,0.0
1565344111665846848,1550.0,1550.0,1550.0,1550.0,0.0,0.0
1565344111715040911,1550.0,1550.0,1550.0,1550.0,0.0,0.0
1565344111765247838,1550.0,1550.0,1588.1470114,1588.1470114,0.0,0.0
1565344111815350390,1550.0,1550.0,1588.1470114,1588.1470114,0.0,0.0
1565344111865770702,1550.0,1550.0,1617.44799614,1617.44799614,0.0,0.0
1565344111914936067,1550.0,1550.0,1617.44799614,1617.44799614,0.0,0.0
1565344111964994765,1550.0,1550.0,1617.44799614,1617.44799614,0.0,0.0
1565344112014940442,1550.0,1550.0,1630.47136664,1630.47136664,0.0,0.0
1565344112065691275,1550.0,1550.0,1630.47136664,1630.47136664,0.0,0.0
1565344112114938463,1550.0,1550.0,1630.47136664,1630.47136664,0.0,0.0
1565344112165036067,1550.0,1550.0,1630.47136664,1630.47136664,0.0,0.0
1565344112215279244,1550.0,1550.0,1630.47136664,1630.47136664,0.0,0.0
1565344112265909452,1550.0,1550.0,1630.47136664,1630.47136664,0.0,0.0
1565344112315362994,1550.0,1550.0,1550.0,1550.0,0.0,0.0
1565344112365217108,1550.0,1550.0,1550.0,1550.0,0.0,0.0
1565344112415422160,1550.0,1550.0,1550.0,1550.0,0.0,0.0
1565344112466000025,1550.0,1550.0,1550.0,1550.0,0.0,0.0
1565344112515372733,1550.0,1550.0,1550.0,1550.0,0.0,0.0
1565344112565516587,1550.0,1550.0,1550.0,1550.0,0.0,0.0
1565344112615467473,1550.0,1550.0,1550.0,1550.0,0.0,0.0
1565344112665080389,1550.0,1550.0,1590.31864405,1590.31864405,0.0,0.0
1565344112714961483,1550.0,1550.0,1590.31864405,1590.31864405,0.0,0.0
1565344112765062837,1550.0,1550.0,1601.17038488,1601.17038488,0.0,0.0
1565344112815634608,1550.0,1550.0,1601.17038488,1601.17038488,0.0,0.0
1565344112866183775,1550.0,1550.0,1601.17038488,1601.17038488,0.0,0.0
1565344112915781118,1550.0,1550.0,1609.85049009,1609.85049009,0.0,0.0
1565344112965924921,1550.0,1550.0,1609.85049009,1609.85049009,0.0,0.0
1565344113015106796,1550.0,1550.0,1609.85049009,1609.85049009,0.0,0.0
1565344113065974868,1550.0,1550.0,1609.85049009,1609.85049009,0.0,0.0
1565344113115135962,1550.0,1550.0,1609.85049009,1609.85049009,0.0,0.0
1565344113165368098,1550.0,1550.0,1609.85049009,1609.85049009,0.0,0.0
1565344113215661066,1550.0,1550.0,1615.27636051,1615.27636051,0.0,0.0
1565344113265856066,1550.0,1550.0,1615.27636051,1615.27636051,0.0,0.0
1565344113315404973,1550.0,1550.0,1630.47136664,1630.47136664,0.0,0.0
1565344113365072264,1550.0,1550.0,1630.47136664,1630.47136664,0.0,0.0
1565344113415197368,1550.0,1550.0,1630.47136664,1630.47136664,0.0,0.0
1565344113465870441,1550.0,1550.0,1630.47136664,1630.47136664,0.0,0.0
1565344113516012577,1550.0,1550.0,1630.47136664,1630.47136664,0.0,0.0
1565344113565108149,1550.0,1550.0,1630.47136664,1630.47136664,0.0,0.0
1565344113614883670,1550.0,1550.0,1630.47136664,1630.47136664,0.0,0.0
1565344113665543358,1550.0,1550.0,1630.47136664,1630.47136664,0.0,0.0
1565344113715082212,1550.0,1550.0,1631.55718446,1631.55718446,0.0,0.0
1565344113765638879,1550.0,1550.0,1631.55718446,1631.55718446,0.0,0.0
1565344113815266014,1550.0,1550.0,1631.55718446,1631.55718446,0.0,0.0
1565344113866113514,1550.0,1550.0,1631.55718446,1631.55718446,0.0,0.0
1565344113915706431,1550.0,1550.0,1631.55718446,1631.55718446,0.0,0.0
1565344113964644504,1550.0,1550.0,1631.55718446,1631.55718446,0.0,0.0
1565344114014738931,1550.0,1550.0,1631.55718446,1631.55718446,0.0,0.0
1565344114065087368,1550.0,1550.0,1631.55718446,1631.55718446,0.0,0.0
1565344114114674139,1550.0,1550.0,1646.7489779,1646.7489779,0.0,0.0
1565344114164668201,1550.0,1550.0,1646.7489779,1646.7489779,0.0,0.0
1565344114214708305,1561.01766378,1550.0,1661.01766378,1650.0,0.0,0.0
1565344114264702941,1561.01766378,1550.0,1661.01766378,1650.0,0.0,0.0
1565344114314638149,1561.01766378,1550.0,1661.01766378,1650.0,0.0,0.0
1565344114364696326,1561.01766378,1550.0,1661.01766378,1650.0,0.0,0.0
1565344114414681795,1561.01766378,1550.0,1661.01766378,1650.0,0.0,0.0
1565344114465146639,1561.01766378,1550.0,1661.01766378,1650.0,0.0,0.0
1565344114515054712,1561.01766378,1550.0,1661.01766378,1650.0,0.0,0.0
1565344114565290545,1561.01766378,1550.0,1661.01766378,1650.0,0.0,0.0
1565344114615339243,1562.1034801,1550.0,1662.1034801,1650.0,0.0,0.0
1565344114665727993,1562.1034801,1550.0,1662.1034801,1650.0,0.0,0.0
1565344114716009920,1562.1034801,1550.0,1662.1034801,1650.0,0.0,0.0
1565344114765307420,1562.1034801,1550.0,1662.1034801,1650.0,0.0,0.0
1565344114815278774,1562.1034801,1550.0,1662.1034801,1650.0,0.0,0.0
1565344114866415545,1562.1034801,1550.0,1662.1034801,1650.0,0.0,0.0
1565344114916439711,1562.1034801,1550.0,1662.1034801,1650.0,0.0,0.0
1565344114965495441,1561.01766378,1550.0,1661.01766378,1650.0,0.0,0.0
1565344115015335805,1561.01766378,1550.0,1661.01766378,1650.0,0.0,0.0
1565344115066182628,1562.1034801,1550.0,1662.1034801,1650.0,0.0,0.0
1565344115115909607,1562.1034801,1550.0,1662.1034801,1650.0,0.0,0.0
1565344115165345180,1562.1034801,1550.0,1662.1034801,1650.0,0.0,0.0
1565344115215293826,1562.1034801,1550.0,1662.1034801,1650.0,0.0,0.0
1565344115266010284,1562.1034801,1550.0,1662.1034801,1650.0,0.0,0.0
1565344115315455805,1559.93184745,1550.0,1659.93184745,1650.0,0.0,0.0
1565344115365632524,1559.93184745,1550.0,1659.93184745,1650.0,0.0,0.0
1565344115415426013,1559.93184745,1550.0,1659.93184745,1650.0,0.0,0.0
1565344115466209763,1559.93184745,1550.0,1659.93184745,1650.0,0.0,0.0
1565344115515974242,1559.93184745,1550.0,1659.93184745,1650.0,0.0,0.0
1565344115565432055,1561.01766378,1550.0,1661.01766378,1650.0,0.0,0.0
1565344115615089399,1561.01766378,1550.0,1661.01766378,1650.0,0.0,0.0
1565344115670074972,1561.01766378,1550.0,1661.01766378,1650.0,0.0,0.0
1565344115715949242,1561.01766378,1550.0,1661.01766378,1650.0,0.0,0.0
1565344115765106378,1561.01766378,1550.0,1661.01766378,1650.0,0.0,0.0
1565344115815104815,1561.01766378,1550.0,1661.01766378,1650.0,0.0,0.0
1565344115865220232,1561.01766378,1550.0,1661.01766378,1650.0,0.0,0.0
1565344115915187680,1561.01766378,1550.0,1661.01766378,1650.0,0.0,0.0
1565344115965186326,1561.01766378,1550.0,1661.01766378,1650.0,0.0,0.0
1565344116015156117,1561.01766378,1550.0,1661.01766378,1650.0,0.0,0.0
1565344116065311846,1561.01766378,1550.0,1661.01766378,1650.0,0.0,0.0
1565344116115209086,1561.01766378,1550.0,1661.01766378,1650.0,0.0,0.0
1565344116165203409,1561.01766378,1550.0,1661.01766378,1650.0,0.0,0.0
1565344116215212888,1561.01766378,1550.0,1661.01766378,1650.0,0.0,0.0
1565344116265243461,1550.0,1550.0,1550.0,1550.0,0.0,0.0
1565344116315141690,1550.0,1550.0,1550.0,1550.0,0.0,0.0
1565344116365163721,1550.0,1550.0,1550.0,1550.0,0.0,0.0
1565344116415148721,1550.0,1550.0,1550.0,1550.0,0.0,0.0
1565344116465276794,1550.0,1550.0,1550.0,1550.0,0.0,0.0
1565344116515167836,1550.0,1550.0,1550.0,1550.0,0.0,0.0
1565344116565246794,1550.0,1550.0,1550.0,1550.0,0.0,0.0
1565344116615236794,1550.0,1550.0,1550.0,1550.0,0.0,0.0
1565344116665193305,1550.0,1550.0,1550.0,1550.0,0.0,0.0
1565344116715347940,1550.0,1550.0,1550.0,1550.0,0.0,0.0
1565344116765168982,1550.0,1550.0,1550.0,1550.0,0.0,0.0
1565344116815313304,1550.0,1550.0,1550.0,1550.0,0.0,0.0
1565344116865236534,1550.0,1550.0,1550.0,1550.0,0.0,0.0
1565344116915230909,1576.126495,1550.0,1550.0,1576.126495,0.0,0.0
1565344116965224607,1576.126495,1550.0,1550.0,1576.126495,0.0,0.0
1565344117015174919,1590.23407698,1550.0,1550.0,1590.23407698,0.0,0.0
1565344117065288461,1590.23407698,1550.0,1550.0,1590.23407698,0.0,0.0
1565344117115224867,1594.57412958,1550.0,1550.0,1594.57412958,0.0,0.0
1565344117165208513,1594.57412958,1550.0,1550.0,1594.57412958,0.0,0.0
1565344117215259971,1594.03282702,1550.0,1550.0,1594.03282702,0.0,0.0
1565344117265208252,1594.03282702,1550.0,1550.0,1594.03282702,0.0,0.0
1565344117315212106,1597.28706479,1550.0,1550.0,1597.28706479,0.0,0.0
1565344117365213252,1597.28706479,1550.0,1550.0,1597.28706479,0.0,0.0
1565344117415191325,1600.0,1550.0,1550.0,1600.0,0.0,0.0
1565344117466450440,1600.0,1550.0,1550.0,1600.0,0.0,0.0
1565344117515204710,1600.0,1550.0,1550.0,1600.0,0.0,0.0
1565344117565210440,1550.0,1550.0,1550.0,1550.0,0.0,0.0
1565344117615240596,1550.0,1550.0,1550.0,1550.0,0.0,0.0
1565344117665574710,1550.0,1550.0,1550.0,1550.0,0.0,0.0
1565344117715916898,1550.0,1550.0,1550.0,1550.0,0.0,0.0
1565344117765538877,1550.0,1550.0,1550.0,1550.0,0.0,0.0
1565344117816336533,1550.0,1550.0,1550.0,1550.0,0.0,0.0
1565344117865263200,1550.0,1550.0,1550.0,1550.0,0.0,0.0
1565344117915766325,1550.0,1550.0,1550.0,1550.0,0.0,0.0
1565344117965721117,1550.0,1550.0,1550.0,1550.0,0.0,0.0
1565344118015389606,1550.0,1550.0,1550.0,1550.0,0.0,0.0
1565344118065342054,1550.0,1550.0,1550.0,1550.0,0.0,0.0
1565344118115328564,1550.0,1550.0,1550.0,1550.0,0.0,0.0
1565344118165224241,1550.0,1550.0,1550.0,1550.0,0.0,0.0
1565344118215242835,1550.0,1550.0,1550.0,1550.0,0.0,0.0
1565344118265842314,1550.0,1550.0,1562.1034801,1562.1034801,0.0,0.0
1565344118315309502,1550.0,1550.0,1562.1034801,1562.1034801,0.0,0.0
1565344118365318721,1550.0,1550.0,1590.31864405,1590.31864405,0.0,0.0
1565344118415404293,1550.0,1550.0,1590.31864405,1590.31864405,0.0,0.0
1565344118465196637,1550.0,1550.0,1600.08456707,1600.08456707,0.0,0.0
1565344118515321637,1550.0,1550.0,1600.08456707,1600.08456707,0.0,0.0
1565344118565582366,1550.0,1550.0,1550.0,1550.0,0.0,0.0
1565344118615238720,1550.0,1550.0,1550.0,1550.0,0.0,0.0
1565344118668501533,1550.0,1550.0,1550.0,1550.0,0.0,0.0
1565344118715216793,1550.0,1550.0,1550.0,1550.0,0.0,0.0
1565344118765196481,1550.0,1550.0,1550.0,1550.0,0.0,0.0
1565344118815176012,1550.0,1550.0,1550.0,1550.0,0.0,0.0
1565344118865930075,1550.0,1550.0,1550.0,1550.0,0.0,0.0
1565344118915562054,1550.0,1550.0,1550.0,1550.0,0.0,0.0
1565344118965253408,1550.0,1550.0,1550.0,1550.0,0.0,0.0
1565344119015294345,1550.0,1550.0,1550.0,1550.0,0.0,0.0
1565344119066059189,1550.0,1550.0,1550.0,1550.0,0.0,0.0
1565344119115504502,1550.0,1550.0,1550.0,1550.0,0.0,0.0
1565344119165540856,1550.0,1550.0,1550.0,1550.0,0.0,0.0
1565344119215301064,1550.0,1550.0,1550.0,1550.0,0.0,0.0
1565344119265933095,1563.10312152,1550.0,1550.0,1563.10312152,0.0,0.0
1565344119315717835,1563.10312152,1550.0,1550.0,1563.10312152,0.0,0.0
1565344119365348460,1590.77698588,1550.0,1550.0,1590.77698588,0.0,0.0
1565344119415140960,1590.77698588,1550.0,1550.0,1590.77698588,0.0,0.0
1565344119465688928,1592.94701219,1550.0,1550.0,1592.94701219,0.0,0.0
1565344119515249449,1592.94701219,1550.0,1550.0,1592.94701219,0.0,0.0
1565344119565321116,1591.31828845,1550.0,1550.0,1591.31828845,0.0,0.0
1565344119615175387,1591.31828845,1550.0,1550.0,1591.31828845,0.0,0.0
1565344119666927991,1591.31828845,1550.0,1550.0,1591.31828845,0.0,0.0
1565344119715648616,1590.77698588,1550.0,1550.0,1590.77698588,0.0,0.0
1565344119765294605,1590.77698588,1550.0,1550.0,1590.77698588,0.0,0.0
1565344119815627366,1590.77698588,1550.0,1550.0,1590.77698588,0.0,0.0
1565344119865851845,1590.77698588,1550.0,1550.0,1590.77698588,0.0,0.0
1565344119915401741,1590.77698588,1550.0,1550.0,1590.77698588,0.0,0.0
1565344119965276532,1550.0,1550.0,1550.0,1550.0,0.0,0.0
1565344120015323460,1550.0,1550.0,1550.0,1550.0,0.0,0.0
1565344120065293928,1550.0,1550.0,1550.0,1550.0,0.0,0.0
1565344120115028616,1550.0,1550.0,1550.0,1550.0,0.0,0.0
1565344120164925387,1550.0,1550.0,1596.83033228,1596.83033228,0.0,0.0
1565344120215292314,1550.0,1550.0,1596.83033228,1596.83033228,0.0,0.0
1565344120265702314,1550.0,1550.0,1601.17038488,1601.17038488,0.0,0.0
1565344120315192886,1550.0,1550.0,1601.17038488,1601.17038488,0.0,0.0
1565344120365381064,1550.0,1550.0,1601.17038488,1601.17038488,0.0,0.0
1565344120414798928,1550.0,1550.0,1601.17038488,1601.17038488,0.0,0.0
1565344120465648772,1550.0,1550.0,1604.42461967,1604.42461967,0.0,0.0
1565344120515538459,1550.0,1550.0,1604.42461967,1604.42461967,0.0,0.0
1565344120565642782,1550.0,1550.0,1604.42461967,1604.42461967,0.0,0.0
1565344120615488616,1550.0,1550.0,1604.42461967,1604.42461967,0.0,0.0
1565344120666103668,1550.0,1550.0,1605.51043749,1605.51043749,0.0,0.0
1565344120714917261,1550.0,1550.0,1605.51043749,1605.51043749,0.0,0.0
1565344120765132418,1550.0,1550.0,1605.51043749,1605.51043749,0.0,0.0
1565344120815186480,1550.0,1550.0,1605.51043749,1605.51043749,0.0,0.0
1565344120865165126,1550.0,1550.0,1605.51043749,1605.51043749,0.0,0.0
1565344120915227261,1550.0,1550.0,1605.51043749,1605.51043749,0.0,0.0
1565344120964849032,1550.0,1550.0,1604.42461967,1604.42461967,0.0,0.0
1565344121015389970,1550.0,1550.0,1604.42461967,1604.42461967,0.0,0.0
1565344121064866324,1550.0,1550.0,1604.42461967,1604.42461967,0.0,0.0
1565344121114871636,1550.0,1550.0,1605.51043749,1605.51043749,0.0,0.0
1565344121164810126,1550.0,1550.0,1605.51043749,1605.51043749,0.0,0.0
1565344121214854449,1550.0,1550.0,1605.51043749,1605.51043749,0.0,0.0
1565344121266658355,1550.0,1550.0,1614.19375539,1614.19375539,0.0,0.0
1565344121314860074,1550.0,1550.0,1614.19375539,1614.19375539,0.0,0.0
1565344121364926844,1550.0,1550.0,1615.27636051,1615.27636051,0.0,0.0
1565344121415411688,1550.0,1550.0,1615.27636051,1615.27636051,0.0,0.0
1565344121465625803,1550.0,1550.0,1615.27636051,1615.27636051,0.0,0.0
1565344121514827365,1550.0,1550.0,1615.27636051,1615.27636051,0.0,0.0
1565344121564863511,1550.0,1550.0,1615.27636051,1615.27636051,0.0,0.0
1565344121615252730,1550.0,1550.0,1615.27636051,1615.27636051,0.0,0.0
1565344121664830751,1550.0,1550.0,1615.27636051,1615.27636051,0.0,0.0
1565344121715177938,1550.0,1550.0,1615.27636051,1615.27636051,0.0,0.0
1565344121765729657,1550.0,1550.0,1616.36217833,1616.36217833,0.0,0.0
1565344121815257365,1550.0,1550.0,1616.36217833,1616.36217833,0.0,0.0
1565344121866162834,1550.0,1550.0,1616.36217833,1616.36217833,0.0,0.0
1565344121915014500,1550.0,1550.0,1616.36217833,1616.36217833,0.0,0.0
1565344121964961115,1550.0,1550.0,1616.36217833,1616.36217833,0.0,0.0
1565344122015404865,1550.0,1550.0,1616.36217833,1616.36217833,0.0,0.0
1565344122065579917,1550.0,1550.0,1620.70544362,1620.70544362,0.0,0.0
1565344122115472105,1550.0,1550.0,1620.70544362,1620.70544362,0.0,0.0
1565344122165344813,1550.0,1550.0,1620.70544362,1620.70544362,0.0,0.0
1565344122214996532,1550.0,1550.0,1620.70544362,1620.70544362,0.0,0.0
1565344122265494084,1550.0,1550.0,1620.70544362,1620.70544362,0.0,0.0
1565344122315092834,1550.0,1550.0,1621.78804874,1621.78804874,0.0,0.0
1565344122366488146,1550.0,1550.0,1621.78804874,1621.78804874,0.0,0.0
1565344122415464448,1550.0,1550.0,1621.78804874,1621.78804874,0.0,0.0
1565344122465195490,1550.0,1550.0,1621.78804874,1621.78804874,0.0,0.0
1565344122515182156,1550.0,1550.0,1621.78804874,1621.78804874,0.0,0.0
1565344122565065125,1550.0,1550.0,1621.78804874,1621.78804874,0.0,0.0
1565344122614941740,1550.0,1550.0,1617.44799614,1617.44799614,0.0,0.0
1565344122665230542,1550.0,1550.0,1617.44799614,1617.44799614,0.0,0.0
1565344122715140958,1550.0,1550.0,1615.27636051,1615.27636051,0.0,0.0
1565344122764963511,1550.0,1550.0,1615.27636051,1615.27636051,0.0,0.0
1565344122815642156,1550.0,1550.0,1615.27636051,1615.27636051,0.0,0.0
1565344122865850386,1550.0,1550.0,1615.27636051,1615.27636051,0.0,0.0
1565344122915421896,1550.0,1550.0,1615.27636051,1615.27636051,0.0,0.0
1565344122965172208,1550.0,1550.0,1620.70544362,1620.70544362,0.0,0.0
1565344123015336635,1550.0,1550.0,1620.70544362,1620.70544362,0.0,0.0
1565344123065735021,1550.0,1550.0,1630.47136664,1630.47136664,0.0,0.0
1565344123115629760,1550.0,1550.0,1630.47136664,1630.47136664,0.0,0.0
1565344123164963562,1550.0,1550.0,1630.47136664,1630.47136664,0.0,0.0
1565344123215198927,1550.0,1550.0,1646.7489779,1646.7489779,0.0,0.0
1565344123265572260,1550.0,1550.0,1646.7489779,1646.7489779,0.0,0.0
1565344123315483979,1550.0,1550.0,1650.0,1650.0,0.0,0.0
1565344123365216844,1550.0,1550.0,1650.0,1650.0,0.0,0.0
1565344123415060802,1550.0,1550.0,1650.0,1650.0,0.0,0.0
1565344123465354187,1550.0,1550.0,1650.0,1650.0,0.0,0.0
1565344123514936583,1550.0,1550.0,1650.0,1650.0,0.0,0.0
1565344123565241114,1550.0,1550.0,1650.0,1650.0,0.0,0.0
1565344123615305281,1550.0,1550.0,1650.0,1650.0,0.0,0.0
1565344123665620333,1550.0,1550.0,1650.0,1650.0,0.0,0.0
1565344123715083614,1550.0,1550.0,1650.0,1650.0,0.0,0.0
1565344123764943406,1550.0,1550.0,1650.0,1650.0,0.0,0.0
1565344123814993927,1550.0,1550.0,1650.0,1650.0,0.0,0.0
1565344123865537000,1550.0,1550.0,1650.0,1650.0,0.0,0.0
1565344123915772989,1550.0,1550.0,1650.0,1650.0,0.0,0.0
1565344123964930229,1550.0,1550.0,1650.0,1650.0,0.0,0.0
1565344124015254916,1550.0,1550.0,1650.0,1650.0,0.0,0.0
1565344124065495437,1550.0,1550.0,1650.0,1650.0,0.0,0.0
1565344124114946166,1550.0,1550.0,1650.0,1650.0,0.0,0.0
1565344124165121114,1550.0,1550.0,1650.0,1650.0,0.0,0.0
1565344124215154343,1550.0,1550.0,1650.0,1650.0,0.0,0.0
1565344124265470802,1550.0,1550.0,1650.0,1650.0,0.0,0.0
1565344124314702781,1550.0,1550.0,1650.0,1650.0,0.0,0.0
1565344124365396062,1550.0,1550.0,1650.0,1650.0,0.0,0.0
1565344124415093979,1550.0,1550.0,1650.0,1650.0,0.0,0.0
1565344124464991999,1550.0,1550.0,1650.0,1650.0,0.0,0.0
1565344124514624239,1550.0,1550.0,1650.0,1650.0,0.0,0.0
1565344124565102833,1550.0,1550.0,1650.0,1650.0,0.0,0.0
1565344124615048562,1550.0,1550.0,1650.0,1650.0,0.0,0.0
1565344124665314239,1550.0,1550.0,1650.0,1650.0,0.0,0.0
1565344124715060593,1550.0,1550.0,1650.0,1650.0,0.0,0.0
1565344124765930749,1550.0,1550.0,1650.0,1650.0,0.0,0.0
1565344124815890645,1550.0,1550.0,1650.0,1650.0,0.0,0.0
1565344124866185176,1550.0,1550.0,1650.0,1650.0,0.0,0.0
1565344124915378666,1550.0,1550.0,1650.0,1650.0,0.0,0.0
1565344124965267364,1550.0,1550.0,1650.0,1650.0,0.0,0.0
1565344125015063093,1550.0,1550.0,1650.0,1650.0,0.0,0.0
1565344125065962937,1550.0,1550.0,1650.0,1650.0,0.0,0.0
1565344125115247260,1550.0,1550.0,1650.0,1650.0,0.0,0.0
1565344125165169187,1550.0,1550.0,1650.0,1650.0,0.0,0.0
1565344125215044812,1550.0,1550.0,1650.0,1650.0,0.0,0.0
1565344125268328249,1550.0,1550.0,1650.0,1650.0,0.0,0.0
1565344125314950697,1550.0,1550.0,1650.0,1650.0,0.0,0.0
1565344125365111530,1550.0,1550.0,1650.0,1650.0,0.0,0.0
1565344125414954447,1550.0,1550.0,1650.0,1650.0,0.0,0.0
1565344125465321843,1550.0,1550.0,1650.0,1650.0,0.0,0.0
1565344125514963457,1550.0,1550.0,1650.0,1650.0,0.0,0.0
1565344125565550437,1550.0,1550.0,1550.0,1550.0,0.0,0.0
1565344125615303770,1550.0,1550.0,1550.0,1550.0,0.0,0.0
1565344125665846114,1550.0,1550.0,1550.0,1550.0,0.0,0.0
1565344125715877312,1550.0,1550.0,1550.0,1550.0,0.0,0.0
1565344125765464030,1550.0,1550.0,1550.0,1550.0,0.0,0.0
1565344125815460436,1550.0,1550.0,1550.0,1550.0,0.0,0.0
1565344125865182155,1550.0,1550.0,1550.0,1550.0,0.0,0.0
1565344125915119343,1550.0,1550.0,1550.0,1550.0,0.0,0.0
1565344125964771582,1550.0,1550.0,1550.0,1550.0,0.0,0.0
1565344126014942416,1550.0,1550.0,1550.0,1550.0,0.0,0.0
1565344126065130072,1550.0,1550.0,1550.0,1550.0,0.0,0.0
1565344126114856166,1550.0,1550.0,1550.0,1550.0,0.0,0.0
1565344126164765593,1550.0,1550.0,1550.0,1550.0,0.0,0.0
1565344126215747155,1550.0,1550.0,1550.0,1550.0,0.0,0.0
1565344126264969343,1550.0,1550.0,1550.0,1550.0,0.0,0.0
1565344126314945280,1550.0,1550.0,1550.0,1550.0,0.0,0.0
1565344126364854186,1550.0,1550.0,1550.0,1550.0,0.0,0.0
1565344126415141218,1550.0,1550.0,1550.0,1550.0,0.0,0.0
1565344126464942311,1550.0,1550.0,1550.0,1550.0,0.0,0.0
1565344126515672728,1550.0,1550.0,1550.0,1550.0,0.0,0.0
1565344126564902363,1550.0,1550.0,1550.0,1550.0,0.0,0.0
1565344126614854655,1550.0,1550.0,1550.0,1550.0,0.0,0.0
1565344126664845072,1550.0,1550.0,1550.0,1550.0,0.0,0.0
1565344126714888665,1550.0,1550.0,1550.0,1550.0,0.0,0.0
1565344126765222467,1550.0,1550.0,1550.0,1550.0,0.0,0.0
1565344126814855488,1550.0,1550.0,1550.0,1550.0,0.0,0.0
1565344126865445853,1550.0,1550.0,1550.0,1550.0,0.0,0.0
1565344126914868249,1550.0,1550.0,1550.0,1550.0,0.0,0.0
1565344126964841842,1550.0,1550.0,1550.0,1550.0,0.0,0.0
1565344127015173040,1550.0,1550.0,1550.0,1550.0,0.0,0.0
1565344127066383874,1550.0,1550.0,1550.0,1550.0,0.0,0.0
1565344127114898509,1550.0,1550.0,1550.0,1550.0,0.0,0.0
1565344127165583561,1550.0,1550.0,1550.0,1550.0,0.0,0.0
1565344127214940071,1550.0,1550.0,1550.0,1550.0,0.0,0.0
1565344127266099498,1550.0,1550.0,1550.0,1550.0,0.0,0.0
1565344127315241530,1550.0,1550.0,1550.0,1550.0,0.0,0.0
1565344127364893873,1550.0,1550.0,1550.0,1550.0,0.0,0.0
1565344127414849863,1550.0,1550.0,1550.0,1550.0,0.0,0.0
1565344127464851946,1550.0,1550.0,1550.0,1550.0,0.0,0.0
1565344127514854342,1550.0,1550.0,1650.0,1650.0,0.0,0.0
1565344127565331686,1550.0,1550.0,1650.0,1650.0,0.0,0.0
1565344127615255800,1550.0,1550.0,1650.0,1650.0,0.0,0.0
1565344127665124602,1550.0,1550.0,1650.0,1650.0,0.0,0.0
1565344127715088352,1550.0,1550.0,1650.0,1650.0,0.0,0.0
1565344127764919394,1550.0,1550.0,1650.0,1650.0,0.0,0.0
1565344127815379186,1550.0,1550.0,1650.0,1650.0,0.0,0.0
1565344127865703665,1550.0,1550.0,1650.0,1650.0,0.0,0.0
1565344127914930332,1550.0,1550.0,1550.0,1550.0,0.0,0.0
1565344127964942623,1550.0,1550.0,1550.0,1550.0,0.0,0.0
1565344128014909654,1550.0,1550.0,1550.0,1550.0,0.0,0.0
1565344128065650696,1550.0,1550.0,1550.0,1550.0,0.0,0.0
1565344128114901738,1550.0,1550.0,1550.0,1550.0,0.0,0.0
1565344128164925071,1550.0,1550.0,1550.0,1550.0,0.0,0.0
1565344128214950019,1550.0,1550.0,1550.0,1550.0,0.0,0.0
1565344128265272154,1550.0,1550.0,1550.0,1550.0,0.0,0.0
1565344128314910904,1600.0,1550.0,1550.0,1600.0,0.0,0.0
1565344128364792206,1600.0,1550.0,1550.0,1600.0,0.0,0.0
1565344128415069081,1600.0,1550.0,1550.0,1600.0,0.0,0.0
1565344128465301165,1600.0,1550.0,1550.0,1600.0,0.0,0.0
1565344128514883873,1600.0,1550.0,1550.0,1600.0,0.0,0.0
1565344128565772623,1600.0,1550.0,1550.0,1600.0,0.0,0.0
1565344128615336373,1600.0,1550.0,1550.0,1600.0,0.0,0.0
1565344128665789446,1600.0,1550.0,1550.0,1600.0,0.0,0.0
1565344128714831425,1600.0,1550.0,1550.0,1600.0,0.0,0.0
1565344128765250748,1600.0,1550.0,1550.0,1600.0,0.0,0.0
1565344128814828717,1600.0,1550.0,1550.0,1600.0,0.0,0.0
1565344128865012623,1600.0,1550.0,1550.0,1600.0,0.0,0.0
1565344128914835331,1600.0,1550.0,1550.0,1600.0,0.0,0.0
1565344128964844706,1600.0,1550.0,1550.0,1600.0,0.0,0.0
1565344129015624029,1600.0,1550.0,1550.0,1600.0,0.0,0.0
1565344129066178404,1600.0,1550.0,1550.0,1600.0,0.0,0.0
1565344129114841894,1550.0,1550.0,1550.0,1550.0,0.0,0.0
1565344129164826216,1550.0,1550.0,1550.0,1550.0,0.0,0.0
1565344129215249654,1550.0,1550.0,1550.0,1550.0,0.0,0.0
1565344129264814758,1550.0,1550.0,1550.0,1550.0,0.0,0.0
1565344129315186008,1550.0,1550.0,1550.0,1550.0,0.0,0.0
1565344129364862779,1550.0,1550.0,1550.0,1550.0,0.0,0.0
1565344129414850227,1550.0,1550.0,1550.0,1550.0,0.0,0.0
1565344129464782675,1550.0,1550.0,1550.0,1550.0,0.0,0.0
1565344129514820800,1550.0,1550.0,1550.0,1550.0,0.0,0.0
1565344129565315435,1550.0,1550.0,1550.0,1550.0,0.0,0.0
1565344129615105175,1550.0,1550.0,1550.0,1550.0,0.0,0.0
1565344129665892935,1550.0,1550.0,1550.0,1550.0,0.0,0.0
1565344129715540852,1550.0,1550.0,1550.0,1550.0,0.0,0.0
1565344129764826997,1550.0,1550.0,1550.0,1550.0,0.0,0.0
