%time,field.header.seq,field.header.stamp,field.header.frame_id,field.pose.position.x,field.pose.position.y,field.pose.position.z,field.pose.orientation.x,field.pose.orientation.y,field.pose.orientation.z,field.pose.orientation.w
1565343622266635472,80135,1565343622211104578,map,1.15803337097,0.0341930389404,0.0,0.0,0.0,-0.217203126685,0.976126427139
1565343622332491774,80136,1565343622277515828,map,1.16201210022,0.0348024368286,0.0,0.0,0.0,-0.218819812875,0.975765284017
1565343622399052868,80137,1565343622344123015,map,1.16391277313,0.0347270965576,0.0,0.0,0.0,-0.219701663785,0.975567106318
1565343622466533858,80138,1565343622410928692,map,1.16698741913,0.0356645584106,0.0,0.0,0.0,-0.221086535125,0.97525419455
1565343622532515056,80139,1565343622477465098,map,1.16888427734,0.0355319976807,0.0,0.0,0.0,-0.22232823802,0.974971873737
1565343622606045837,80140,1565343622546400880,map,1.17217540741,0.0362453460693,0.0,0.0,0.0,-0.223619542609,0.974676510522
1565343622673424639,80141,1565343622613235411,map,1.17466545105,0.0370302200317,0.0,0.0,0.0,-0.224816832778,0.974401042538
1565343622742682555,80142,1565343622683063484,map,1.17776298523,0.0374803543091,0.0,0.0,0.0,-0.226141054291,0.974094566027
1565343622806024795,80143,1565343622746340619,map,1.1793384552,0.036847114563,0.0,0.0,0.0,-0.226792907574,0.973943005044
1565343622874180108,80144,1565343622813144525,map,1.18242835999,0.0375261306763,0.0,0.0,0.0,-0.228584689337,0.973524031445
1565343622939285889,80145,1565343622879367754,map,1.18538188934,0.0380887985229,0.0,0.0,0.0,-0.229416474463,0.973328352225
1565343623005223649,80146,1565343622945885254,map,1.18876934052,0.0385303497314,0.0,0.0,0.0,-0.231081629271,0.972934366036
1565343623073336982,80147,1565343623012520463,map,1.19044971466,0.0388917922974,0.0,0.0,0.0,-0.23217636049,0.972673705633
1565343623140051462,80148,1565343623079169629,map,1.19440174103,0.0400409698486,0.0,0.0,0.0,-0.234420565883,0.972135277773
1565343623208448284,80149,1565343623146460775,map,1.19698810577,0.0400285720825,0.0,0.0,0.0,-0.237109646945,0.971482895025
1565343623274040159,80150,1565343623213170202,map,1.19945526123,0.0410175323486,0.0,0.0,0.0,-0.240790222803,0.970577183228
1565343623338714482,80151,1565343623279272858,map,1.20243263245,0.0413265228271,0.0,0.0,0.0,-0.244719090776,0.969594021542
1565343623405400420,80152,1565343623345888900,map,1.20394325256,0.0415086746216,0.0,0.0,0.0,-0.24984736498,0.968285233912
1565343623472208493,80153,1565343623412498588,map,1.20668506622,0.0415439605713,0.0,0.0,0.0,-0.25596304927,0.966686566271
1565343623538995680,80154,1565343623479109108,map,1.20908069611,0.0420665740967,0.0,0.0,0.0,-0.263174355451,0.964748287707
1565343623605372711,80155,1565343623545806140,map,1.2122926712,0.0428676605225,0.0,0.0,0.0,-0.27225842402,0.962224168554
1565343623672401566,80156,1565343623612821869,map,1.21528816223,0.0421571731567,0.0,0.0,0.0,-0.282085562531,0.959389251249
1565343623741607659,80157,1565343623682061088,map,1.21706676483,0.0419893264771,0.0,0.0,0.0,-0.292790645555,0.956176572541
1565343623809339013,80158,1565343623746483952,map,1.2184753418,0.0418758392334,0.0,0.0,0.0,-0.304515561089,0.952507361155
1565343623873285420,80159,1565343623812511296,map,1.22314167023,0.0425872802734,0.0,0.0,0.0,-0.317926799378,0.948115262105
1565343623940464222,80160,1565343623879627754,map,1.22524261475,0.0423145294189,0.0,0.0,0.0,-0.331471101472,0.943465372385
1565343624007465211,80161,1565343623946288014,map,1.22848796844,0.042932510376,0.0,0.0,0.0,-0.34652753202,0.938039801689
1565343624072611461,80162,1565343624012920254,map,1.23078727722,0.0423183441162,0.0,0.0,0.0,-0.362150887059,0.932119485368
1565343624140855003,80163,1565343624079782442,map,1.2338180542,0.0421924591064,0.0,0.0,0.0,-0.378881716845,0.925445106228
1565343624206141722,80164,1565343624146205879,map,1.23534202576,0.0419235229492,0.0,0.0,0.0,-0.396284143448,0.918127920092
1565343624272530784,80165,1565343624212505098,map,1.23840904236,0.0415744781494,0.0,0.0,0.0,-0.414827198569,0.909900211742
1565343624339960315,80166,1565343624279122337,map,1.24018287659,0.0410842895508,0.0,0.0,0.0,-0.433599396234,0.901105744952
1565343624407033597,80167,1565343624346020306,map,1.24188041687,0.0397968292236,0.0,0.0,0.0,-0.452817996018,0.891602973572
1565343624472673544,80168,1565343624412504681,map,1.24522686005,0.0399503707886,0.0,0.0,0.0,-0.47245497559,0.881354807124
1565343624541074326,80169,1565343624479119577,map,1.24733257294,0.0392074584961,0.0,0.0,0.0,-0.492382372846,0.870378997283
1565343624605803336,80170,1565343624545847077,map,1.24935626984,0.0387144088745,0.0,0.0,0.0,-0.512761664941,0.858530998256
1565343624672612190,80171,1565343624612790775,map,1.25169181824,0.0371379852295,0.0,0.0,0.0,-0.533226182655,0.845972717132
1565343624741701669,80172,1565343624681945723,map,1.25438117981,0.0369291305542,0.0,0.0,0.0,-0.55303194535,0.833160049104
1565343624806578753,80173,1565343624746224264,map,1.2564496994,0.03577709198,0.0,0.0,0.0,-0.571030316428,0.820928972397
1565343624873118128,80174,1565343624812652285,map,1.25782203674,0.0357971191406,0.0,0.0,0.0,-0.587901521609,0.808932507005
1565343624939919065,80175,1565343624879337285,map,1.25892925262,0.0359973907471,0.0,0.0,0.0,-0.603470748268,0.797385136546
1565343625006063440,80176,1565343624945958639,map,1.25966453552,0.0346145629883,0.0,0.0,0.0,-0.618268071526,0.785967296858
1565343625073178023,80177,1565343625012730097,map,1.26052856445,0.0338649749756,0.0,0.0,0.0,-0.632608480923,0.774471761825
1565343625139579013,80178,1565343625079603222,map,1.26110839844,0.0330381393433,0.0,0.0,0.0,-0.645814590751,0.763494279201
1565343625209222659,80179,1565343625146420202,map,1.26312446594,0.0340042114258,0.0,0.0,0.0,-0.65780674517,0.753186753739
1565343625273378284,80180,1565343625212880566,map,1.2634305954,0.0335416793823,0.0,0.0,0.0,-0.668913592365,0.743340168395
1565343625340790679,80181,1565343625280092441,map,1.26478862762,0.0333604812622,0.0,0.0,0.0,-0.679522960307,0.733654241735
1565343625408572502,80182,1565343625346772441,map,1.26590251923,0.0322971343994,0.0,0.0,0.0,-0.689638582649,0.724153730448
1565343625472933700,80183,1565343625413216035,map,1.26698589325,0.0309572219849,0.0,0.0,0.0,-0.699078102043,0.715045318315
1565343625540105679,80184,1565343625479926920,map,1.26926898956,0.031229019165,0.0,0.0,0.0,-0.708454376992,0.70575661224
1565343625605783023,80185,1565343625546070045,map,1.27035045624,0.0313167572021,0.0,0.0,0.0,-0.717166294408,0.696902077889
1565343625673878127,80186,1565343625613226660,map,1.27200508118,0.0304384231567,0.0,0.0,0.0,-0.725402839639,0.688324574778
1565343625741937919,80187,1565343625682204785,map,1.2739238739,0.0304822921753,0.0,0.0,0.0,-0.733002164248,0.680226305878
1565343625806615523,80188,1565343625746727233,map,1.27490711212,0.0314893722534,0.0,0.0,0.0,-0.739897265691,0.672719879462
1565343625873472086,80189,1565343625813019212,map,1.27695465088,0.0305786132812,0.0,0.0,0.0,-0.747154452467,0.664650452613
1565343625938951044,80190,1565343625879597128,map,1.27802753448,0.0315551757812,0.0,0.0,0.0,-0.753898677773,0.656990702866
1565343626005454950,80191,1565343625946051555,map,1.28049182892,0.0301637649536,0.0,0.0,0.0,-0.76039609069,0.649459610186
1565343626073248440,80192,1565343626012954680,map,1.28156757355,0.0308322906494,0.0,0.0,0.0,-0.766674864324,0.642035553855
1565343626139032085,80193,1565343626079585722,map,1.28319072723,0.0307416915894,0.0,0.0,0.0,-0.772229603445,0.635343560259
1565343626205991096,80194,1565343626146525409,map,1.28491973877,0.0303058624268,0.0,0.0,0.0,-0.776739126855,0.629822458168
1565343626272952085,80195,1565343626212776191,map,1.28640937805,0.0303163528442,0.0,0.0,0.0,-0.780883712982,0.624676417676
1565343626338774950,80196,1565343626279462962,map,1.28798675537,0.0307512283325,0.0,0.0,0.0,-0.784596433368,0.62000680379
1565343626406664377,80197,1565343626346306139,map,1.28993797302,0.0298948287964,0.0,0.0,0.0,-0.787038082741,0.616904414245
1565343626472991096,80198,1565343626412805305,map,1.291264534,0.0315961837769,0.0,0.0,0.0,-0.788050264966,0.615610899747
1565343626538915262,80199,1565343626479591139,map,1.29291725159,0.0325450897217,0.0,0.0,0.0,-0.788050411739,0.615610711861
1565343626606162450,80200,1565343626546161764,map,1.29432964325,0.0316791534424,0.0,0.0,0.0,-0.787716387187,0.616038061614
1565343626672434741,80201,1565343626612772076,map,1.29550743103,0.0318422317505,0.0,0.0,0.0,-0.787301286899,0.616568474419
1565343626742600835,80202,1565343626682978638,map,1.29734325409,0.0319271087646,0.0,0.0,0.0,-0.787387422023,0.616458471951
1565343626806910002,80203,1565343626747029784,map,1.29825782776,0.0314350128174,0.0,0.0,0.0,-0.786733969776,0.617292200502
1565343626873358804,80204,1565343626813775409,map,1.29942131042,0.0316333770752,0.0,0.0,0.0,-0.786123549765,0.618069384863
1565343626939550523,80205,1565343626880177336,map,1.30096912384,0.0312576293945,0.0,0.0,0.0,-0.785816651021,0.61845953059
1565343627005954585,80206,1565343626946072701,map,1.30317211151,0.0317230224609,0.0,0.0,0.0,-0.784967914757,0.619536417656
1565343627073521773,80207,1565343627012792753,map,1.30471324921,0.0327253341675,0.0,0.0,0.0,-0.783133785086,0.621853258139
1565343627139790731,80208,1565343627079594159,map,1.30603027344,0.0325298309326,0.0,0.0,0.0,-0.781023840659,0.624501209225
1565343627206592137,80209,1565343627146462284,map,1.30776405334,0.032320022583,0.0,0.0,0.0,-0.779092558579,0.626908912975
1565343627274384064,80210,1565343627213741347,map,1.30899047852,0.0327835083008,0.0,0.0,0.0,-0.777315570921,0.629110883076
1565343627338839377,80211,1565343627279310201,map,1.31132507324,0.0331773757935,0.0,0.0,0.0,-0.775571943851,0.631259186001
1565343627405444325,80212,1565343627345975982,map,1.31344604492,0.0337390899658,0.0,0.0,0.0,-0.773769823567,0.633466857963
1565343627473342189,80213,1565343627412686555,map,1.31445598602,0.0337429046631,0.0,0.0,0.0,-0.771799987772,0.63586537795
1565343627538777710,80214,1565343627479334471,map,1.31699371338,0.0340089797974,0.0,0.0,0.0,-0.770010616787,0.638031072938
1565343627605702293,80215,1565343627546145721,map,1.31837463379,0.0335893630981,0.0,0.0,0.0,-0.76801380711,0.64043328465
1565343627673201877,80216,1565343627612637232,map,1.32019233704,0.0343856811523,0.0,0.0,0.0,-0.766083217448,0.64274139741
1565343627741739168,80217,1565343627682242492,map,1.32227325439,0.0344066619873,0.0,0.0,0.0,-0.763760617825,0.645499588427
1565343627805919741,80218,1565343627746342492,map,1.32408618927,0.0339097976685,0.0,0.0,0.0,-0.761387902036,0.648296585394
1565343627873156772,80219,1565343627812843273,map,1.32651233673,0.0341310501099,0.0,0.0,0.0,-0.75891366019,0.651191259444
1565343627938768908,80220,1565343627879320721,map,1.32873535156,0.0338926315308,0.0,0.0,0.0,-0.756139843382,0.654410068115
1565343628007716095,80221,1565343627945952388,map,1.32969379425,0.0353059768677,0.0,0.0,0.0,-0.753239005622,0.657746912125
1565343628074071981,80222,1565343628013033482,map,1.33219623566,0.0354433059692,0.0,0.0,0.0,-0.750167228479,0.661248160161
1565343628139657241,80223,1565343628079727544,map,1.33404064178,0.03635597229,0.0,0.0,0.0,-0.7469073539,0.664928119943
1565343628207709428,80224,1565343628147111294,map,1.33518981934,0.0371198654175,0.0,0.0,0.0,-0.742978704271,0.669315056606
1565343628273634897,80225,1565343628213658898,map,1.33765983582,0.0373096466064,0.0,0.0,0.0,-0.738501898954,0.674251396174
1565343628339856303,80226,1565343628280247909,map,1.33913898468,0.0380916595459,0.0,0.0,0.0,-0.732977836991,0.680252519643
1565343628406098803,80227,1565343628346210929,map,1.34054851532,0.0385313034058,0.0,0.0,0.0,-0.726252536632,0.687427998437
1565343628473710835,80228,1565343628412756502,map,1.34260845184,0.0386219024658,0.0,0.0,0.0,-0.718341645293,0.695690506359
1565343628539832866,80229,1565343628479651034,map,1.34399604797,0.0380582809448,0.0,0.0,0.0,-0.709477862611,0.70472772222
1565343628606383074,80230,1565343628546419836,map,1.34569072723,0.0381412506104,0.0,0.0,0.0,-0.699659037698,0.714476893235
1565343628673481407,80231,1565343628612834054,map,1.34767341614,0.0394163131714,0.0,0.0,0.0,-0.688603004476,0.725138540023
1565343628742795314,80232,1565343628682313221,map,1.3496837616,0.0413789749146,0.0,0.0,0.0,-0.676902941139,0.736072284683
1565343628806776720,80233,1565343628746493638,map,1.35151863098,0.04212474823,0.0,0.0,0.0,-0.663944237724,0.747782086702
1565343628873974897,80234,1565343628812833794,map,1.35287952423,0.0428695678711,0.0,0.0,0.0,-0.649865102466,0.760049569829
1565343628939038907,80235,1565343628879574263,map,1.35417461395,0.0451068878174,0.0,0.0,0.0,-0.635122078889,0.772411771601
1565343629006138907,80236,1565343628946141606,map,1.35581207275,0.0462522506714,0.0,0.0,0.0,-0.619431641926,0.78505059772
1565343629073850157,80237,1565343629012972908,map,1.35676574707,0.0487308502197,0.0,0.0,0.0,-0.602858601906,0.797848047004
1565343629140782605,80238,1565343629079568533,map,1.35834503174,0.0502643585205,0.0,0.0,0.0,-0.585659921657,0.810556880277
1565343629206492136,80239,1565343629146536242,map,1.35948944092,0.0507459640503,0.0,0.0,0.0,-0.567818821664,0.823153561472
1565343629273292553,80240,1565343629212914471,map,1.36051940918,0.050895690918,0.0,0.0,0.0,-0.549264659974,0.835648450788
1565343629339319063,80241,1565343629279705408,map,1.36046886444,0.0518064498901,0.0,0.0,0.0,-0.530009939939,0.847991428946
1565343629407015782,80242,1565343629346135877,map,1.36142158508,0.0524120330811,0.0,0.0,0.0,-0.510571458571,0.859835324753
1565343629474751928,80243,1565343629412767179,map,1.3631105423,0.0523204803467,0.0,0.0,0.0,-0.490803831834,0.871270106601
1565343629539301563,80244,1565343629479380148,map,1.36347961426,0.052640914917,0.0,0.0,0.0,-0.470516003757,0.882391460866
1565343629607257084,80245,1565343629546545460,map,1.36477661133,0.0530185699463,0.0,0.0,0.0,-0.450077690062,0.892989402462
1565343629675533282,80246,1565343629614327439,map,1.36549377441,0.0536527633667,0.0,0.0,0.0,-0.429141770113,0.903237145574
1565343629743153751,80247,1565343629682659366,map,1.36641693115,0.0538606643677,0.0,0.0,0.0,-0.407937203707,0.913009987805
1565343629808680782,80248,1565343629747549731,map,1.36684131622,0.0534210205078,0.0,0.0,0.0,-0.387297977973,0.921954595551
1565343629873472761,80249,1565343629812887127,map,1.36925983429,0.0529069900513,0.0,0.0,0.0,-0.368240545993,0.929730552519
1565343629938779063,80250,1565343629879231554,map,1.37132072449,0.0530681610107,0.0,0.0,0.0,-0.350294949125,0.936639444299
1565343630005760938,80251,1565343629945893689,map,1.37259483337,0.0524845123291,0.0,0.0,0.0,-0.333265743841,0.942832935351
1565343630073037969,80252,1565343630013028898,map,1.37400054932,0.0524120330811,0.0,0.0,0.0,-0.317063163159,0.948404423528
1565343630138920261,80253,1565343630079198325,map,1.37607288361,0.0526103973389,0.0,0.0,0.0,-0.301854862719,0.953353891193
1565343630206994011,80254,1565343630146968481,map,1.37693977356,0.0518388748169,0.0,0.0,0.0,-0.287067494412,0.957910357837
1565343630272760990,80255,1565343630212539627,map,1.37819957733,0.0513429641724,0.0,0.0,0.0,-0.273484181066,0.961876500756
1565343630339152553,80256,1565343630279491658,map,1.3797044754,0.0516109466553,0.0,0.0,0.0,-0.260855517736,0.965377852898
1565343630405563386,80257,1565343630345911554,map,1.38027763367,0.051531791687,0.0,0.0,0.0,-0.249059828572,0.968488101007
1565343630473777292,80258,1565343630412546814,map,1.38171195984,0.0511341094971,0.0,0.0,0.0,-0.237878781136,0.971294849922
1565343630540843802,80259,1565343630480184366,map,1.38323974609,0.0514602661133,0.0,0.0,0.0,-0.227232682804,0.973840494057
1565343630605796407,80260,1565343630545971137,map,1.38437652588,0.0511674880981,0.0,0.0,0.0,-0.216881253891,0.976197993089
1565343630675526407,80261,1565343630612567283,map,1.38601398468,0.050931930542,0.0,0.0,0.0,-0.20720866483,0.978296769503
1565343630742351250,80262,1565343630682477022,map,1.38913917542,0.05140209198,0.0,0.0,0.0,-0.19821455434,0.980158655753
1565343630806065261,80263,1565343630746572335,map,1.3913602829,0.0505695343018,0.0,0.0,0.0,-0.189284724529,0.981922243897
1565343630872917292,80264,1565343630812791554,map,1.39442920685,0.0516510009766,0.0,0.0,0.0,-0.181562274296,0.983379448917
1565343630939135729,80265,1565343630879506397,map,1.39623069763,0.0518007278442,0.0,0.0,0.0,-0.173534412621,0.984827806084
1565343631006219167,80266,1565343630946504053,map,1.39862060547,0.0517625808716,0.0,0.0,0.0,-0.166365393372,0.986064174326
1565343631073379948,80267,1565343631013387231,map,1.40104103088,0.0527439117432,0.0,0.0,0.0,-0.159001147003,0.987278398048
1565343631139957084,80268,1565343631080027595,map,1.4030790329,0.0521621704102,0.0,0.0,0.0,-0.151927562543,0.988391630752
1565343631206212917,80269,1565343631146353272,map,1.4055891037,0.0528612136841,0.0,0.0,0.0,-0.145288965793,0.989389264354
1565343631273424323,80270,1565343631212700876,map,1.40761852264,0.0533113479614,0.0,0.0,0.0,-0.138916530143,0.990304093525
1565343631339561458,80271,1565343631279317439,map,1.40993309021,0.0536985397339,0.0,0.0,0.0,-0.133170925929,0.991093085682
1565343631405924844,80272,1565343631346020408,map,1.41154193878,0.0545244216919,0.0,0.0,0.0,-0.127641707226,0.991820343901
1565343631473128438,80273,1565343631412861189,map,1.41339683533,0.0550479888916,0.0,0.0,0.0,-0.122060245148,0.992522693219
1565343631539678021,80274,1565343631479672960,map,1.41575336456,0.0553178787231,0.0,0.0,0.0,-0.116657961536,0.993172150239
1565343631605790260,80275,1565343631546004835,map,1.41735267639,0.0554170608521,0.0,0.0,0.0,-0.111097028005,0.993809564438
1565343631672784792,80276,1565343631612515564,map,1.42081737518,0.0559492111206,0.0,0.0,0.0,-0.106208762053,0.994343853435
1565343631741872760,80277,1565343631682057647,map,1.42310333252,0.0569286346436,0.0,0.0,0.0,-0.101583816183,0.994826984098
1565343631810256615,80278,1565343631746586397,map,1.42566871643,0.0574541091919,0.0,0.0,0.0,-0.0972077290454,0.995264114401
1565343631874081667,80279,1565343631812530303,map,1.42795753479,0.0585603713989,0.0,0.0,0.0,-0.0931082155563,0.995655994908
1565343631940071927,80280,1565343631879332595,map,1.42902851105,0.0589694976807,0.0,0.0,0.0,-0.0886810687692,0.996060072507
1565343632005644844,80281,1565343631945803636,map,1.43184375763,0.0602340698242,0.0,0.0,0.0,-0.0846674359446,0.99640926596
1565343632073668698,80282,1565343632012553272,map,1.43311309814,0.0606031417847,0.0,0.0,0.0,-0.0806018110428,0.99674638101
1565343632138976823,80283,1565343632079277230,map,1.4343585968,0.0617704391479,0.0,0.0,0.0,-0.0769358709049,0.997036043365
1565343632206293125,80284,1565343632146397751,map,1.43577003479,0.0621767044067,0.0,0.0,0.0,-0.0725415087624,0.997365394179
1565343632273318541,80285,1565343632212864001,map,1.4370098114,0.063250541687,0.0,0.0,0.0,-0.0681925971453,0.997672175464
1565343632339053489,80286,1565343632279284574,map,1.44001579285,0.063756942749,0.0,0.0,0.0,-0.063445751366,0.997985288786
1565343632406462083,80287,1565343632346431605,map,1.44090080261,0.0647602081299,0.0,0.0,0.0,-0.0585430059204,0.998284887423
1565343632473521771,80288,1565343632413089574,map,1.44197845459,0.0650501251221,0.0,0.0,0.0,-0.0530600741493,0.998591322079
1565343632539788489,80289,1565343632480096449,map,1.44357013702,0.0666856765747,0.0,0.0,0.0,-0.0459582134519,0.998943363067
1565343632605768125,80290,1565343632546021240,map,1.44825553894,0.0676822662354,0.0,0.0,0.0,-0.0372432484829,0.999306229563
1565343632674708854,80291,1565343632613456501,map,1.45109272003,0.0694398880005,0.0,0.0,0.0,-0.0269339012489,0.999637216676
1565343632743308697,80292,1565343632682461813,map,1.45276832581,0.0705537796021,0.0,0.0,0.0,-0.0152187749185,0.999884187739
1565343632807446614,80293,1565343632746476709,map,1.45461559296,0.0723896026611,0.0,0.0,0.0,-0.00236192335559,0.999997210655
1565343632874017187,80294,1565343632812772438,map,1.45642662048,0.0738296508789,0.0,0.0,0.0,0.011749288742,0.999930974725
1565343632939958229,80295,1565343632879334990,map,1.45686531067,0.0757217407227,0.0,0.0,0.0,0.0274313062648,0.999623690914
1565343633006545104,80296,1565343632946330928,map,1.45905017853,0.0767192840576,0.0,0.0,0.0,0.0448525340344,0.998993618694
1565343633073448124,80297,1565343633012827490,map,1.46019172668,0.0779371261597,0.0,0.0,0.0,0.0637636410588,0.997965028485
1565343633141725052,80298,1565343633079553428,map,1.46152496338,0.0793972015381,0.0,0.0,0.0,0.0833604283441,0.996519462422
1565343633206511354,80299,1565343633146602698,map,1.46145439148,0.080174446106,0.0,0.0,0.0,0.104423965666,0.994532872958
1565343633272745364,80300,1565343633213028896,map,1.46201133728,0.0807466506958,0.0,0.0,0.0,0.125932443227,0.992038819675
1565343633340323645,80301,1565343633279344678,map,1.46074676514,0.0820083618164,0.0,0.0,0.0,0.146405187255,0.989224707104
1565343633405966406,80302,1565343633345998219,map,1.45856189728,0.082501411438,0.0,0.0,0.0,0.166348187257,0.986067077128
1565343633472303749,80303,1565343633412495928,map,1.45669364929,0.0828428268433,0.0,0.0,0.0,0.185577593982,0.982629613136
1565343633539272812,80304,1565343633479200198,map,1.45581054688,0.0841445922852,0.0,0.0,0.0,0.20367893886,0.979037736691
1565343633607667030,80305,1565343633546061917,map,1.45584392548,0.0844039916992,0.0,0.0,0.0,0.221120279271,0.975246544262
1565343633672989635,80306,1565343633612686240,map,1.45677661896,0.0858669281006,0.0,0.0,0.0,0.237563421705,0.971372030001
1565343633742174843,80307,1565343633682368427,map,1.45734119415,0.0867595672607,0.0,0.0,0.0,0.253151373706,0.967426680421
1565343633807256510,80308,1565343633746950511,map,1.45897960663,0.0885772705078,0.0,0.0,0.0,0.267031901294,0.963687689914
1565343633873772603,80309,1565343633813138532,map,1.45975208282,0.0894947052002,0.0,0.0,0.0,0.280714659095,0.959791269063
1565343633941667239,80310,1565343633879899677,map,1.46060371399,0.0913591384888,0.0,0.0,0.0,0.293222077945,0.956044357238
1565343634005911718,80311,1565343633946081448,map,1.46209716797,0.0921878814697,0.0,0.0,0.0,0.305527723662,0.952183180945
1565343634072777916,80312,1565343634012569365,map,1.46305370331,0.0933361053467,0.0,0.0,0.0,0.317146542664,0.948376544668
1565343634138888541,80313,1565343634079307125,map,1.46416473389,0.0945329666138,0.0,0.0,0.0,0.328098187698,0.944643625517
1565343634207185207,80314,1565343634146441292,map,1.46539020538,0.095685005188,0.0,0.0,0.0,0.338521347242,0.940958711879
1565343634273257395,80315,1565343634212661344,map,1.46559429169,0.0973892211914,0.0,0.0,0.0,0.348185018284,0.937425833356
1565343634339565416,80316,1565343634279264886,map,1.4666185379,0.0981616973877,0.0,0.0,0.0,0.357551193166,0.933893540113
1565343634407132291,80317,1565343634345965511,map,1.46684741974,0.0997257232666,0.0,0.0,0.0,0.366222057603,0.930527487249
1565343634473418957,80318,1565343634412820615,map,1.46736621857,0.101219177246,0.0,0.0,0.0,0.374279488078,0.927315946592
1565343634539350207,80319,1565343634479268010,map,1.4680891037,0.102663993835,0.0,0.0,0.0,0.382085907523,0.924126809087
1565343634606580572,80320,1565343634545891865,map,1.4684343338,0.104184150696,0.0,0.0,0.0,0.389384639237,0.921075242706
1565343634673210416,80321,1565343634612548583,map,1.46936511993,0.105026245117,0.0,0.0,0.0,0.396260037086,0.918138324551
1565343634742186040,80322,1565343634682650667,map,1.46995735168,0.106245040894,0.0,0.0,0.0,0.402915706017,0.915237091602
1565343634808043228,80323,1565343634746352958,map,1.47048473358,0.106798171997,0.0,0.0,0.0,0.40893591338,0.912563103981
1565343634873322082,80324,1565343634812675823,map,1.47052955627,0.109201431274,0.0,0.0,0.0,0.414890895713,0.909871169262
1565343634939476040,80325,1565343634879287854,map,1.47115325928,0.109359741211,0.0,0.0,0.0,0.420959462801,0.907079451139
1565343635006084842,80326,1565343634945931760,map,1.47190666199,0.110984802246,0.0,0.0,0.0,0.426096735739,0.90467760655
1565343635073633749,80327,1565343635012600406,map,1.47219657898,0.112516403198,0.0,0.0,0.0,0.4311864785,0.902262833524
1565343635141107707,80328,1565343635079981812,map,1.47288227081,0.113759040833,0.0,0.0,0.0,0.435999204927,0.899947050278
1565343635207666249,80329,1565343635147103948,map,1.47351074219,0.11528968811,0.0,0.0,0.0,0.440571911758,0.897717322195
1565343635274178749,80330,1565343635213234000,map,1.47342681885,0.115056037903,0.0,0.0,0.0,0.445154431975,0.895453813266
1565343635340352082,80331,1565343635280000041,map,1.47392082214,0.116563796997,0.0,0.0,0.0,0.449378744019,0.893341337017
1565343635406144582,80332,1565343635345955302,map,1.47396373749,0.117611885071,0.0,0.0,0.0,0.453531570464,0.891240211499
1565343635473400363,80333,1565343635412869416,map,1.47447013855,0.119018554688,0.0,0.0,0.0,0.457238628743,0.889344048378
1565343635540779738,80334,1565343635479361812,map,1.47463417053,0.119961738586,0.0,0.0,0.0,0.460990786061,0.887404921762
1565343635606284686,80335,1565343635545891604,map,1.47599220276,0.120819091797,0.0,0.0,0.0,0.464493010548,0.885576785577
1565343635674494738,80336,1565343635612564416,map,1.47577095032,0.121569633484,0.0,0.0,0.0,0.467706889519,0.88388362667
1565343635741983853,80337,1565343635682213062,map,1.47597694397,0.122967720032,0.0,0.0,0.0,0.470774118062,0.882253778549
1565343635807135519,80338,1565343635746381291,map,1.47661399841,0.123098373413,0.0,0.0,0.0,0.473812388168,0.880625812033
1565343635876435311,80339,1565343635812813791,map,1.47721290588,0.123964309692,0.0,0.0,0.0,0.477179148731,0.878806042319
1565343635939818436,80340,1565343635879671760,map,1.4776763916,0.124534606934,0.0,0.0,0.0,0.480280337437,0.877115042324
1565343636006313175,80341,1565343635945941604,map,1.47814369202,0.125143051147,0.0,0.0,0.0,0.483058960159,0.875587825983
1565343636074936092,80342,1565343636012829572,map,1.47932434082,0.126469612122,0.0,0.0,0.0,0.485642454873,0.874157540736
1565343636139416092,80343,1565343636079337697,map,1.47892475128,0.127047538757,0.0,0.0,0.0,0.488217917377,0.872721757006
1565343636207282030,80344,1565343636146626812,map,1.47924518585,0.12691783905,0.0,0.0,0.0,0.490610218172,0.871379144704
1565343636273444217,80345,1565343636212832333,map,1.47965049744,0.128184318542,0.0,0.0,0.0,0.492770583518,0.870159268191
1565343636339920623,80346,1565343636279587958,map,1.47990894318,0.128178596497,0.0,0.0,0.0,0.495059929105,0.868858830072
1565343636406314425,80347,1565343636345962541,map,1.47993183136,0.128375053406,0.0,0.0,0.0,0.497271274942,0.867595112433
1565343636474850623,80348,1565343636412889937,map,1.47974681854,0.129915237427,0.0,0.0,0.0,0.499091344168,0.866549381268
1565343636539599842,80349,1565343636479371916,map,1.48031044006,0.129526138306,0.0,0.0,0.0,0.501218605961,0.865320697221
1565343636606523123,80350,1565343636546545926,map,1.48084259033,0.131143569946,0.0,0.0,0.0,0.503217014349,0.864160075721
1565343636673328227,80351,1565343636613512489,map,1.48075580597,0.131185531616,0.0,0.0,0.0,0.5059410786,0.862568040786
1565343636742273019,80352,1565343636682582437,map,1.48000621796,0.131471633911,0.0,0.0,0.0,0.510008109601,0.860169592662
1565343636806623904,80353,1565343636746584468,map,1.4799118042,0.131706237793,0.0,0.0,0.0,0.514990384913,0.857195953938
1565343636873708696,80354,1565343636812788583,map,1.48014068604,0.131820678711,0.0,0.0,0.0,0.521948811311,0.852976809984
1565343636939783696,80355,1565343636879677749,map,1.47987937927,0.131113052368,0.0,0.0,0.0,0.53026319342,0.847833088351
1565343637005526925,80356,1565343636946076082,map,1.47938346863,0.132894515991,0.0,0.0,0.0,0.538799724683,0.842433888612
1565343637072808435,80357,1565343637012807385,map,1.47835731506,0.132448196411,0.0,0.0,0.0,0.54915303416,0.835721810815
1565343637139147862,80358,1565343637079536655,map,1.4778470993,0.132710456848,0.0,0.0,0.0,0.560238346043,0.828331452755
1565343637206886092,80359,1565343637146731134,map,1.47702217102,0.133204460144,0.0,0.0,0.0,0.572617308432,0.819822796758
1565343637272763540,80360,1565343637212995666,map,1.47643566132,0.134043693542,0.0,0.0,0.0,0.585845476367,0.81042277721
1565343637340223904,80361,1565343637279577697,map,1.47601318359,0.135068893433,0.0,0.0,0.0,0.59984649038,0.800115109205
1565343637406229894,80362,1565343637346288478,map,1.47545909882,0.13397026062,0.0,0.0,0.0,0.614798659017,0.788684099542
1565343637473824477,80363,1565343637413136186,map,1.47560119629,0.135358810425,0.0,0.0,0.0,0.630283779448,0.776364835219
1565343637539650727,80364,1565343637479578947,map,1.47530174255,0.135739326477,0.0,0.0,0.0,0.646232574113,0.763140524514
1565343637606044685,80365,1565343637546195561,map,1.47476482391,0.136316299438,0.0,0.0,0.0,0.662625502085,0.748950895578
1565343637673461144,80366,1565343637613246030,map,1.47524547577,0.137992858887,0.0,0.0,0.0,0.679186567638,0.733965671091
1565343637742453435,80367,1565343637682233686,map,1.47604846954,0.130017280579,0.0,0.0,0.0,0.699580206493,0.714554081007
1565343637810242237,80368,1565343637746914415,map,1.4764957428,0.130358695984,0.0,0.0,0.0,0.717322295419,0.696741504789
1565343637874988227,80369,1565343637812828009,map,1.47662353516,0.130887031555,0.0,0.0,0.0,0.734959451349,0.678111056445
1565343637941480466,80370,1565343637879652228,map,1.47413158417,0.132021903992,0.0,0.0,0.0,0.752411739127,0.658693080899
1565343638006729581,80371,1565343637946637488,map,1.47374534607,0.130151748657,0.0,0.0,0.0,0.768210589788,0.640197227218
1565343638073923852,80372,1565343638013731395,map,1.47359466553,0.129636764526,0.0,0.0,0.0,0.78393008369,0.620849115233
1565343638139719216,80373,1565343638080040509,map,1.4742937088,0.129159927368,0.0,0.0,0.0,0.799450234953,0.600732321282
1565343638206026352,80374,1565343638146441551,map,1.4750995636,0.128321647644,0.0,0.0,0.0,0.814108201562,0.580713213342
1565343638273113643,80375,1565343638213025144,map,1.47701072693,0.128344535828,0.0,0.0,0.0,0.828547166731,0.559919273201
1565343638338955414,80376,1565343638279344572,map,1.47915077209,0.127355575562,0.0,0.0,0.0,0.842282746004,0.539035968916
1565343638405764164,80377,1565343638346280769,map,1.47919750214,0.127195358276,0.0,0.0,0.0,0.855963058327,0.517036983957
1565343638472934737,80378,1565343638413078426,map,1.47901725769,0.12712097168,0.0,0.0,0.0,0.868935266739,0.494925754247
1565343638539925518,80379,1565343638479373530,map,1.48016929626,0.125551223755,0.0,0.0,0.0,0.881245104757,0.472659566012
1565343638607053904,80380,1565343638546686863,map,1.48082256317,0.125183105469,0.0,0.0,0.0,0.893118596224,0.449821267927
1565343638672968747,80381,1565343638613120457,map,1.48069286346,0.12440776825,0.0,0.0,0.0,0.904050235037,0.427426218814
1565343638743098279,80382,1565343638682866134,map,1.47919654846,0.124685287476,0.0,0.0,0.0,0.913529566317,0.4067723337
1565343638805821872,80383,1565343638746302280,map,1.47916984558,0.123830795288,0.0,0.0,0.0,0.921880320324,0.387474741111
1565343638872822445,80384,1565343638812541915,map,1.47802734375,0.123225212097,0.0,0.0,0.0,0.929603484362,0.368561205043
1565343638939082914,80385,1565343638879211030,map,1.47846508026,0.122400283813,0.0,0.0,0.0,0.936545605316,0.350545759014
1565343639005601924,80386,1565343638946003582,map,1.47838878632,0.121612548828,0.0,0.0,0.0,0.942702379884,0.333634864727
1565343639072718747,80387,1565343639012672019,map,1.47909355164,0.121322631836,0.0,0.0,0.0,0.948356320506,0.31720701341
1565343639141126612,80388,1565343639079491707,map,1.47897052765,0.121171951294,0.0,0.0,0.0,0.953207959386,0.302315375333
1565343639205803851,80389,1565343639146333217,map,1.47976112366,0.120799064636,0.0,0.0,0.0,0.957631848859,0.287995211855
1565343639274062497,80390,1565343639212544988,map,1.47993469238,0.120402336121,0.0,0.0,0.0,0.961462358481,0.274936598553
1565343639343250674,80391,1565343639279256498,map,1.47977733612,0.120506286621,0.0,0.0,0.0,0.965165787552,0.261639069214
1565343639406596351,80392,1565343639346628686,map,1.48101329803,0.120051383972,0.0,0.0,0.0,0.96839791633,0.249410255698
1565343639474073903,80393,1565343639413143790,map,1.48099327087,0.120106697083,0.0,0.0,0.0,0.971308278893,0.237823941928
1565343639541173747,80394,1565343639479894779,map,1.48129463196,0.120083808899,0.0,0.0,0.0,0.973989664913,0.226592437302
1565343639605430830,80395,1565343639545926394,map,1.47977638245,0.12038230896,0.0,0.0,0.0,0.976455034954,0.21572103447
1565343639673434476,80396,1565343639612617540,map,1.47641277313,0.120515823364,0.0,0.0,0.0,0.97864224354,0.205570813002
1565343639742855414,80397,1565343639682022800,map,1.47318553925,0.120269775391,0.0,0.0,0.0,0.980636309187,0.1958377622
1565343639807284320,80398,1565343639746585769,map,1.46332073212,0.120829582214,0.0,0.0,0.0,0.982771745921,0.184823416857
1565343639872643486,80399,1565343639812992592,map,1.46481895447,0.118955612183,0.0,0.0,0.0,0.984203848835,0.177038933399
1565343639941969684,80400,1565343639880802175,map,1.4643535614,0.118680000305,0.0,0.0,0.0,0.985705156432,0.168479507903
1565343640006650309,80401,1565343639945939102,map,1.46255207062,0.117988586426,0.0,0.0,0.0,0.98703514158,0.160504296781
1565343640072189268,80402,1565343640012563373,map,1.46474170685,0.116909980774,0.0,0.0,0.0,0.988071591352,0.153995228375
1565343640139099111,80403,1565343640079534779,map,1.46304893494,0.116907119751,0.0,0.0,0.0,0.989137466275,0.146993444791
1565343640206358070,80404,1565343640146471029,map,1.46433544159,0.115907669067,0.0,0.0,0.0,0.990041519527,0.140775671235
1565343640273445986,80405,1565343640212717540,map,1.46341896057,0.115144729614,0.0,0.0,0.0,0.990949536247,0.134234930668
1565343640341389268,80406,1565343640279392331,map,1.46479034424,0.114395141602,0.0,0.0,0.0,0.991724350097,0.1283854097
1565343640406642913,80407,1565343640346028685,map,1.46447753906,0.114377975464,0.0,0.0,0.0,0.992483670235,0.122377139679
1565343640473055882,80408,1565343640412803737,map,1.46467876434,0.114011764526,0.0,0.0,0.0,0.99317591311,0.11662592172
1565343640539913017,80409,1565343640479673008,map,1.46525287628,0.114268302917,0.0,0.0,0.0,0.993769352522,0.111456152764
1565343640606536872,80410,1565343640546288373,map,1.46588420868,0.113595962524,0.0,0.0,0.0,0.994292964057,0.106684120782
1565343640673064840,80411,1565343640612741758,map,1.46629905701,0.112367630005,0.0,0.0,0.0,0.994781711782,0.102026202048
1565343640741932497,80412,1565343640682161862,map,1.46832847595,0.112386703491,0.0,0.0,0.0,0.995155131576,0.0983171607454
1565343640807077028,80413,1565343640747593841,map,1.46557331085,0.111790657043,0.0,0.0,0.0,0.995582247567,0.0938934946027
1565343640874188851,80414,1565343640814393060,map,1.4684343338,0.111190795898,0.0,0.0,0.0,0.995798650172,0.0915699094414
1565343640939437809,80415,1565343640879914518,map,1.46654987335,0.111079216003,0.0,0.0,0.0,0.995968105164,0.0897080458806
1565343641005886767,80416,1565343640945897904,map,1.46723461151,0.110246658325,0.0,0.0,0.0,0.996066387748,0.0886101077708
1565343641073137288,80417,1565343641012543529,map,1.46581268311,0.110177993774,0.0,0.0,0.0,0.995984471812,0.0895261520934
1565343641139168903,80418,1565343641079595768,map,1.46745586395,0.110773086548,0.0,0.0,0.0,0.995823153547,0.0913030495618
1565343641205900934,80419,1565343641146439102,map,1.46627807617,0.109529495239,0.0,0.0,0.0,0.995550189025,0.0942328028461
1565343641272903746,80420,1565343641212518685,map,1.46639728546,0.110055923462,0.0,0.0,0.0,0.995136267021,0.0985079187698
1565343641338848069,80421,1565343641279272018,map,1.46652412415,0.109802246094,0.0,0.0,0.0,0.994633659057,0.103459577953
1565343641405649163,80422,1565343641345945091,map,1.46668815613,0.110272407532,0.0,0.0,0.0,0.994012360165,0.109267688906
1565343641472412913,80423,1565343641412711914,map,1.46501636505,0.110174179077,0.0,0.0,0.0,0.993123315168,0.117072972412
1565343641541179788,80424,1565343641480153789,map,1.46723747253,0.109392166138,0.0,0.0,0.0,0.992125289923,0.125249387601
1565343641608190309,80425,1565343641546389206,map,1.4656162262,0.110372543335,0.0,0.0,0.0,0.990832152811,0.135098648976
1565343641674262757,80426,1565343641612744258,map,1.46674633026,0.111552238464,0.0,0.0,0.0,0.989250249416,0.146232499915
1565343641741867340,80427,1565343641682150143,map,1.46627616882,0.111520767212,0.0,0.0,0.0,0.987520270952,0.157491950454
1565343641807423850,80428,1565343641747114674,map,1.4660358429,0.111325263977,0.0,0.0,0.0,0.985296208679,0.17085485408
1565343641873301819,80429,1565343641812920872,map,1.46570014954,0.111500740051,0.0,0.0,0.0,0.982731910089,0.185035112594
1565343641939108850,80430,1565343641879244049,map,1.47292613983,0.112962722778,0.0,0.0,0.0,0.979458199524,0.201647304436
1565343642006529684,80431,1565343641945765820,map,1.47419166565,0.112892150879,0.0,0.0,0.0,0.975832189449,0.218521253051
1565343642072618538,80432,1565343642012532070,map,1.47409534454,0.112531661987,0.0,0.0,0.0,0.971773457021,0.235915977054
1565343642141569058,80433,1565343642079253060,map,1.47364521027,0.112365722656,0.0,0.0,0.0,0.96710044514,0.254394828978
1565343642207108798,80434,1565343642146893216,map,1.4722032547,0.112855911255,0.0,0.0,0.0,0.961942544148,0.273251791868
1565343642273271350,80435,1565343642213155768,map,1.47170448303,0.112225532532,0.0,0.0,0.0,0.956109030632,0.293011128702
1565343642339638381,80436,1565343642280088528,map,1.47115802765,0.11208820343,0.0,0.0,0.0,0.949651610285,0.313307866295
1565343642405537183,80437,1565343642346037955,map,1.47054862976,0.111897468567,0.0,0.0,0.0,0.942543302694,0.334084005224
1565343642472655517,80438,1565343642412564101,map,1.47045898438,0.111300468445,0.0,0.0,0.0,0.934745264529,0.355318575985
1565343642538911246,80439,1565343642479223268,map,1.46913433075,0.112245559692,0.0,0.0,0.0,0.926382149461,0.376584802082
1565343642605777079,80440,1565343642546091445,map,1.46863079071,0.112292289734,0.0,0.0,0.0,0.917147746604,0.398547375978
1565343642672959944,80441,1565343642612590091,map,1.46792888641,0.110830307007,0.0,0.0,0.0,0.907373804855,0.420324610585
1565343642742387548,80442,1565343642682792955,map,1.46902275085,0.109914779663,0.0,0.0,0.0,0.897511889727,0.440990258168
1565343642806985152,80443,1565343642746453528,map,1.4702091217,0.109647750854,0.0,0.0,0.0,0.887990669351,0.459861469516
1565343642873082339,80444,1565343642812844361,map,1.47154712677,0.108508110046,0.0,0.0,0.0,0.878933239203,0.476944819685
1565343642938983694,80445,1565343642879619361,map,1.47138214111,0.108442306519,0.0,0.0,0.0,0.869833458894,0.493345471033
1565343643006832808,80446,1565343642946096861,map,1.47212505341,0.107345581055,0.0,0.0,0.0,0.86102719296,0.508558917908
1565343643074597131,80447,1565343643013092851,map,1.47314167023,0.107404708862,0.0,0.0,0.0,0.852058158424,0.523447126904
1565343643140543850,80448,1565343643079668632,map,1.47533416748,0.106971740723,0.0,0.0,0.0,0.843999027022,0.536344704817
1565343643207036141,80449,1565343643146663059,map,1.4758348465,0.105979919434,0.0,0.0,0.0,0.836157627932,0.548489217078
1565343643275703641,80450,1565343643213584153,map,1.47657299042,0.105519294739,0.0,0.0,0.0,0.828653247133,0.55976226741
1565343643341376714,80451,1565343643280216809,map,1.47822761536,0.104725837708,0.0,0.0,0.0,0.821421771604,0.570321201723
1565343643405818746,80452,1565343643346123788,map,1.47877025604,0.103965759277,0.0,0.0,0.0,0.814268637296,0.580488230989
1565343643474828537,80453,1565343643412891861,map,1.4790058136,0.103642463684,0.0,0.0,0.0,0.807537744291,0.589815896315
1565343643539239943,80454,1565343643479591757,map,1.47904682159,0.103344917297,0.0,0.0,0.0,0.801031708873,0.59862191856
1565343643606412287,80455,1565343643546560455,map,1.48041248322,0.102458000183,0.0,0.0,0.0,0.794623069332,0.607103103011
1565343643674408745,80456,1565343643613335299,map,1.48074817657,0.101756095886,0.0,0.0,0.0,0.788747994139,0.614716684125
1565343643742606975,80457,1565343643682616601,map,1.48126220703,0.101938247681,0.0,0.0,0.0,0.783145571724,0.621838414292
1565343643811928016,80458,1565343643749134986,map,1.48166656494,0.101203918457,0.0,0.0,0.0,0.777559923765,0.628808846117
1565343643874173537,80459,1565343643812719830,map,1.48195075989,0.100770950317,0.0,0.0,0.0,0.772319914226,0.635233775936
1565343643939800464,80460,1565343643880111028,map,1.48176383972,0.100675582886,0.0,0.0,0.0,0.767217273161,0.641387289992
1565343644006799631,80461,1565343643946360507,map,1.48192596436,0.0993881225586,0.0,0.0,0.0,0.76200076312,0.647576124487
1565343644073101714,80462,1565343644012986340,map,1.4825258255,0.0992431640625,0.0,0.0,0.0,0.757246760062,0.653128888028
1565343644139591454,80463,1565343644080196340,map,1.48175239563,0.0987243652344,0.0,0.0,0.0,0.75313075105,0.657870862574
1565343644207103120,80464,1565343644146532955,map,1.48240184784,0.0978317260742,0.0,0.0,0.0,0.748926713266,0.66265283381
1565343644272960360,80465,1565343644213022903,map,1.48283958435,0.0963010787964,0.0,0.0,0.0,0.744534403018,0.667584094121
1565343644339725151,80466,1565343644279605298,map,1.48276996613,0.0967922210693,0.0,0.0,0.0,0.740281917656,0.672296573241
1565343644406632183,80467,1565343644346128111,map,1.48300647736,0.0963840484619,0.0,0.0,0.0,0.73613170157,0.676838324819
1565343644472884058,80468,1565343644412907330,map,1.48342609406,0.0958604812622,0.0,0.0,0.0,0.732158110075,0.681134716375
1565343644540100308,80469,1565343644480039830,map,1.48404979706,0.0953140258789,0.0,0.0,0.0,0.728212591527,0.685351312497
1565343644606344162,80470,1565343644546174465,map,1.48391532898,0.0948534011841,0.0,0.0,0.0,0.724616816896,0.689151992431
1565343644675041037,80471,1565343644612738267,map,1.4848279953,0.0953140258789,0.0,0.0,0.0,0.720816890703,0.693125537026
1565343644743641141,80472,1565343644682288423,map,1.48543739319,0.0950565338135,0.0,0.0,0.0,0.717473776362,0.696585515377
1565343644807732807,80473,1565343644746794621,map,1.48585319519,0.0942077636719,0.0,0.0,0.0,0.714366652408,0.699771595542
1565343644873785464,80474,1565343644812818788,map,1.4851436615,0.0932741165161,0.0,0.0,0.0,0.711196985488,0.702992779361
1565343644939666141,80475,1565343644880043892,map,1.4852809906,0.0932788848877,0.0,0.0,0.0,0.707485216148,0.706728143583
1565343645006202859,80476,1565343644946570611,map,1.48532295227,0.0931949615479,0.0,0.0,0.0,0.70316345493,0.711028238294
1565343645073251609,80477,1565343645013243267,map,1.48606586456,0.0937213897705,0.0,0.0,0.0,0.697485068438,0.716599315731
1565343645140564734,80478,1565343645080359309,map,1.48603534698,0.0930376052856,0.0,0.0,0.0,0.690826747815,0.723020334778
1565343645206381349,80479,1565343645146419569,map,1.48665618896,0.0938663482666,0.0,0.0,0.0,0.682786835205,0.730617641226
1565343645272536818,80480,1565343645212959152,map,1.48788261414,0.0938396453857,0.0,0.0,0.0,0.673757217985,0.738952780097
1565343645340244057,80481,1565343645279616131,map,1.48841667175,0.094518661499,0.0,0.0,0.0,0.663630620369,0.748060425172
1565343645405943901,80482,1565343645345847590,map,1.48850250244,0.0935306549072,0.0,0.0,0.0,0.652867999631,0.757471699179
1565343645473612078,80483,1565343645412512694,map,1.489153862,0.0935134887695,0.0,0.0,0.0,0.641144375157,0.767420282638
1565343645539480776,80484,1565343645479834829,map,1.49028968811,0.0922651290894,0.0,0.0,0.0,0.628483892132,0.777822600167
1565343645606658328,80485,1565343645545897538,map,1.49255180359,0.0908679962158,0.0,0.0,0.0,0.614930746346,0.788581116436
1565343645672414890,80486,1565343645612565715,map,1.49548912048,0.0892353057861,0.0,0.0,0.0,0.600644913149,0.799515908727
1565343645742422859,80487,1565343645682527381,map,1.50053405762,0.0880947113037,0.0,0.0,0.0,0.585644702973,0.81056787617
1565343645808947078,80488,1565343645746561600,map,1.5021572113,0.0863389968872,0.0,0.0,0.0,0.569391944596,0.822066185552
1565343645872909370,80489,1565343645812690194,map,1.49917125702,0.0831422805786,0.0,0.0,0.0,0.553096501961,0.833117194348
1565343645939535463,80490,1565343645879344933,map,1.4989490509,0.0829620361328,0.0,0.0,0.0,0.534925247447,0.84489939025
1565343646006005255,80491,1565343645946251027,map,1.49948120117,0.0831174850464,0.0,0.0,0.0,0.51495472165,0.857217378878
1565343646073308119,80492,1565343646012698319,map,1.49940299988,0.0827102661133,0.0,0.0,0.0,0.495332879331,0.868703251205
1565343646140820203,80493,1565343646079641444,map,1.49876594543,0.082667350769,0.0,0.0,0.0,0.474657117874,0.880170790501
1565343646207109526,80494,1565343646146499464,map,1.50041389465,0.0826721191406,0.0,0.0,0.0,0.453199977774,0.89140887372
1565343646273694682,80495,1565343646212968475,map,1.50438976288,0.0843858718872,0.0,0.0,0.0,0.430025166512,0.902816900687
1565343646340865307,80496,1565343646279340871,map,1.50448608398,0.0830783843994,0.0,0.0,0.0,0.408084702806,0.912944070212
1565343646407301609,80497,1565343646346687693,map,1.50419044495,0.0827159881592,0.0,0.0,0.0,0.385372551909,0.922761072128
1565343646473676401,80498,1565343646413305506,map,1.50485706329,0.0825824737549,0.0,0.0,0.0,0.361570423447,0.932344801502
1565343646541517859,80499,1565343646480206756,map,1.50551891327,0.0824489593506,0.0,0.0,0.0,0.337273932888,0.941406550962
1565343646606947911,80500,1565343646546218943,map,1.50595378876,0.0829544067383,0.0,0.0,0.0,0.312666290636,0.949863037864
1565343646675932807,80501,1565343646612747381,map,1.50573444366,0.0818195343018,0.0,0.0,0.0,0.288553953981,0.95746363672
1565343646744281609,80502,1565343646682678579,map,1.50641059875,0.0818252563477,0.0,0.0,0.0,0.263370379376,0.964694792806
1565343646807393223,80503,1565343646746695922,map,1.50727844238,0.0821027755737,0.0,0.0,0.0,0.237970411307,0.971272404294
1565343646874510984,80504,1565343646812865662,map,1.50647258759,0.0810375213623,0.0,0.0,0.0,0.21567506882,0.976465188673
1565343646940219473,80505,1565343646879674881,map,1.50677204132,0.0803251266479,0.0,0.0,0.0,0.19374660255,0.981051606186
1565343647007585411,80506,1565343646946489256,map,1.50603961945,0.0804262161255,0.0,0.0,0.0,0.173348050701,0.984860626342
1565343647072635880,80507,1565343647012935402,map,1.50516223907,0.0791902542114,0.0,0.0,0.0,0.154211127861,0.988037918323
1565343647139566817,80508,1565343647079654829,map,1.50565814972,0.0790452957153,0.0,0.0,0.0,0.135266563275,0.990809243427
1565343647206462494,80509,1565343647146888266,map,1.50534534454,0.078013420105,0.0,0.0,0.0,0.118011703517,0.993012204272
1565343647273162650,80510,1565343647213189881,map,1.50581073761,0.0782489776611,0.0,0.0,0.0,0.101237008142,0.994862336297
1565343647339592338,80511,1565343647279654724,map,1.50621986389,0.0777130126953,0.0,0.0,0.0,0.0852601244739,0.99635872615
1565343647406274577,80512,1565343647346355245,map,1.50639057159,0.0775270462036,0.0,0.0,0.0,0.0703584130839,0.997521776057
1565343647473830150,80513,1565343647412803006,map,1.50596618652,0.0768356323242,0.0,0.0,0.0,0.0564907345926,0.998403123445
1565343647539693640,80514,1565343647479618943,map,1.50580120087,0.0755920410156,0.0,0.0,0.0,0.0431369461585,0.999069168715
1565343647606708952,80515,1565343647546261860,map,1.50617027283,0.07497215271,0.0,0.0,0.0,0.0303878991059,0.999538181156
1565343647674102390,80516,1565343647613138526,map,1.50504589081,0.0740995407104,0.0,0.0,0.0,0.0186516592598,0.999826042673
1565343647743647390,80517,1565343647682573370,map,1.50533771515,0.0731782913208,0.0,0.0,0.0,0.00707789374917,0.999974951396
1565343647809035827,80518,1565343647747369255,map,1.50548267365,0.0726318359375,0.0,0.0,0.0,-0.00374402930752,0.999992991098
1565343647874440619,80519,1565343647813867432,map,1.50577259064,0.0718364715576,0.0,0.0,0.0,-0.0138923545747,0.999903496586
1565343647940098796,80520,1565343647880273578,map,1.505859375,0.0713682174683,0.0,0.0,0.0,-0.023760855856,0.99971767101
1565343648006401660,80521,1565343647946429880,map,1.50469493866,0.0710802078247,0.0,0.0,0.0,-0.0325947812512,0.999468648951
1565343648073378796,80522,1565343648012968422,map,1.504945755,0.0703401565552,0.0,0.0,0.0,-0.0414361641071,0.999141153343
1565343648139201817,80523,1565343648079611391,map,1.50455188751,0.0699338912964,0.0,0.0,0.0,-0.049919267707,0.998753256171
1565343648208105931,80524,1565343648147265766,map,1.5038318634,0.069429397583,0.0,0.0,0.0,-0.0576923382291,0.99833440996
1565343648273386192,80525,1565343648212906547,map,1.50413799286,0.0687913894653,0.0,0.0,0.0,-0.065765951448,0.997835076368
1565343648339350567,80526,1565343648279738370,map,1.50317668915,0.0683317184448,0.0,0.0,0.0,-0.0727386356191,0.997351036941
1565343648407356608,80527,1565343648346332693,map,1.5045747757,0.0690822601318,0.0,0.0,0.0,-0.0797441282438,0.996815366059
1565343648472743587,80528,1565343648413044151,map,1.50417900085,0.0687227249146,0.0,0.0,0.0,-0.0864402297804,0.996257038457
1565343648539719004,80529,1565343648479637536,map,1.50325202942,0.0681505203247,0.0,0.0,0.0,-0.0924646511439,0.995715967678
1565343648608823171,80530,1565343648547238578,map,1.50390338898,0.0669507980347,0.0,0.0,0.0,-0.0985412081273,0.995132971166
1565343648675016608,80531,1565343648612842641,map,1.50247764587,0.0659198760986,0.0,0.0,0.0,-0.103689317571,0.994609735234
1565343648743167441,80532,1565343648682655922,map,1.50315284729,0.0656080245972,0.0,0.0,0.0,-0.109364335301,0.994001731469
1565343648807366243,80533,1565343648746875661,map,1.5024766922,0.0652647018433,0.0,0.0,0.0,-0.114666318637,0.993404064503
1565343648872511504,80534,1565343648812790401,map,1.5017824173,0.0647869110107,0.0,0.0,0.0,-0.119771890809,0.992801437435
1565343648938999889,80535,1565343648879541495,map,1.50081157684,0.0649566650391,0.0,0.0,0.0,-0.124922553943,0.992166495865
1565343649005678691,80536,1565343648946042745,map,1.5003452301,0.0644207000732,0.0,0.0,0.0,-0.129629912119,0.99156244679
1565343649073939316,80537,1565343649012717797,map,1.50052928925,0.06409740448,0.0,0.0,0.0,-0.134309307153,0.990939458298
1565343649139453379,80538,1565343649079493213,map,1.50051593781,0.0633869171143,0.0,0.0,0.0,-0.138695530632,0.99033506945
1565343649207200410,80539,1565343649147313890,map,1.50093364716,0.0628108978271,0.0,0.0,0.0,-0.142606379789,0.989779480714
1565343649273955827,80540,1565343649213490088,map,1.5001707077,0.0630950927734,0.0,0.0,0.0,-0.146514767953,0.989208482966
1565343649340332077,80541,1565343649280042901,map,1.50045490265,0.0621032714844,0.0,0.0,0.0,-0.150476496608,0.988613586781
1565343649406778795,80542,1565343649346124515,map,1.50018501282,0.0619888305664,0.0,0.0,0.0,-0.154322741274,0.98802049145
1565343649473746920,80543,1565343649412941859,map,1.49906158447,0.0613117218018,0.0,0.0,0.0,-0.15770968644,0.987485521313
1565343649539065097,80544,1565343649479552744,map,1.4996919632,0.0611953735352,0.0,0.0,0.0,-0.161646541354,0.986848719748
1565343649606034056,80545,1565343649546101130,map,1.49854278564,0.0602674484253,0.0,0.0,0.0,-0.164963113,0.986299737073
1565343649673754681,80546,1565343649612876755,map,1.4985370636,0.0597858428955,0.0,0.0,0.0,-0.168219770497,0.985749516264
1565343649742240670,80547,1565343649682158942,map,1.4979724884,0.059476852417,0.0,0.0,0.0,-0.171154667487,0.985244172679
1565343649806576972,80548,1565343649746576182,map,1.49761486053,0.0584964752197,0.0,0.0,0.0,-0.173835889285,0.984774635943
1565343649874229681,80549,1565343649813157900,map,1.49761390686,0.0587768554688,0.0,0.0,0.0,-0.177320464158,0.984153165412
1565343649940282128,80550,1565343649879628838,map,1.49765968323,0.0582885742188,0.0,0.0,0.0,-0.180371808814,0.983598500703
1565343650006398535,80551,1565343649946039932,map,1.49784088135,0.0580644607544,0.0,0.0,0.0,-0.18329579281,0.983057807221
1565343650074076191,80552,1565343650012919671,map,1.49726390839,0.0575542449951,0.0,0.0,0.0,-0.185978983109,0.982553722624
1565343650139692545,80553,1565343650079376025,map,1.49689292908,0.0574674606323,0.0,0.0,0.0,-0.188575092285,0.98205877348
1565343650206827285,80554,1565343650146653004,map,1.49687957764,0.0578365325928,0.0,0.0,0.0,-0.191200307001,0.981551039225
1565343650273688847,80555,1565343650212971338,map,1.49684619904,0.0575542449951,0.0,0.0,0.0,-0.19355235865,0.981089947182
1565343650339810201,80556,1565343650279983421,map,1.49715423584,0.0570659637451,0.0,0.0,0.0,-0.195867760844,0.980630317838
1565343650407645410,80557,1565343650346184515,map,1.49612998962,0.0563020706177,0.0,0.0,0.0,-0.198037181877,0.980194508551
1565343650472810045,80558,1565343650413076754,map,1.49624347687,0.05579662323,0.0,0.0,0.0,-0.200210071495,0.979752992989
1565343650539192180,80559,1565343650479581859,map,1.4964017868,0.055552482605,0.0,0.0,0.0,-0.202251690437,0.979333576324
1565343650606130878,80560,1565343650546455192,map,1.49608135223,0.0550413131714,0.0,0.0,0.0,-0.204382518568,0.978891100227
1565343650675437389,80561,1565343650613400921,map,1.49531555176,0.0548524856567,0.0,0.0,0.0,-0.206276060823,0.978493835817
1565343650743779784,80562,1565343650683108421,map,1.49525737762,0.0546846389771,0.0,0.0,0.0,-0.208143179342,0.978098367698
1565343650808333118,80563,1565343650746588994,map,1.49489593506,0.0536241531372,0.0,0.0,0.0,-0.209681786929,0.977769680564
1565343650873454628,80564,1565343650812723108,map,1.49596881866,0.0534915924072,0.0,0.0,0.0,-0.21212677421,0.977242156102
1565343650939282909,80565,1565343650879883056,map,1.49532604218,0.0533771514893,0.0,0.0,0.0,-0.21390974604,0.976853428386
1565343651006157232,80566,1565343650946020400,map,1.49462127686,0.0525007247925,0.0,0.0,0.0,-0.215596553813,0.976482527229
1565343651072674368,80567,1565343651012749515,map,1.49461174011,0.0515308380127,0.0,0.0,0.0,-0.219015924457,0.975721284402
1565343651138815878,80568,1565343651079242848,map,1.49507427216,0.0510578155518,0.0,0.0,0.0,-0.224524570008,0.974468428151
1565343651206965618,80569,1565343651146964202,map,1.49520111084,0.0499439239502,0.0,0.0,0.0,-0.231848435778,0.972751922551
1565343651273852493,80570,1565343651212957275,map,1.49535083771,0.0497102737427,0.0,0.0,0.0,-0.240190378646,0.970725801659
1565343651339989263,80571,1565343651279215556,map,1.49599170685,0.0490827560425,0.0,0.0,0.0,-0.24989492126,0.968272961684
1565343651405584784,80572,1565343651346088421,map,1.4963760376,0.0482559204102,0.0,0.0,0.0,-0.260995454717,0.965340029532
1565343651472588690,80573,1565343651412589202,map,1.49693107605,0.0469589233398,0.0,0.0,0.0,-0.273570407757,0.961851980296
1565343651539599784,80574,1565343651479286337,map,1.49703407288,0.0463027954102,0.0,0.0,0.0,-0.287393152866,0.957812703865
1565343651605802076,80575,1565343651546060921,map,1.49734306335,0.0451030731201,0.0,0.0,0.0,-0.302436232989,0.953169620254
1565343651672708690,80576,1565343651612744306,map,1.49736785889,0.0437879562378,0.0,0.0,0.0,-0.318464065089,0.947934934079
1565343651743103430,80577,1565343651682032796,map,1.49788093567,0.0431900024414,0.0,0.0,0.0,-0.335347598126,0.942094468953
1565343651806571294,80578,1565343651746584462,map,1.49788951874,0.0414276123047,0.0,0.0,0.0,-0.353796259163,0.935322514966
1565343651872336763,80579,1565343651812601181,map,1.49869823456,0.0393600463867,0.0,0.0,0.0,-0.372023299848,0.928223391415
1565343651939662336,80580,1565343651879601129,map,1.49820518494,0.0379667282104,0.0,0.0,0.0,-0.391140631778,0.920330922099
1565343652006680930,80581,1565343651946469098,map,1.49905109406,0.0370893478394,0.0,0.0,0.0,-0.411242579622,0.911525940775
1565343652073865669,80582,1565343652013242952,map,1.49969768524,0.0349559783936,0.0,0.0,0.0,-0.4317007513,0.902016885278
1565343652140624003,80583,1565343652080317639,map,1.49924182892,0.0335597991943,0.0,0.0,0.0,-0.452758048925,0.89163341634
1565343652206006086,80584,1565343652146445608,map,1.49942970276,0.031587600708,0.0,0.0,0.0,-0.473785408399,0.880640327709
1565343652274596867,80585,1565343652212731389,map,1.49967193604,0.0300216674805,0.0,0.0,0.0,-0.494025838253,0.869447221595
1565343652340351398,80586,1565343652279780243,map,1.49969482422,0.0299253463745,0.0,0.0,0.0,-0.512969819332,0.85840664283
1565343652405982232,80587,1565343652346483941,map,1.49926757812,0.0290584564209,0.0,0.0,0.0,-0.530305288247,0.847806759384
1565343652473367388,80588,1565343652413304827,map,1.49875926971,0.0285320281982,0.0,0.0,0.0,-0.54665860646,0.837355580374
1565343652539485461,80589,1565343652479784983,map,1.49917602539,0.0263166427612,0.0,0.0,0.0,-0.562259411597,0.826960914476
1565343652606091763,80590,1565343652545996545,map,1.49975585938,0.0254421234131,0.0,0.0,0.0,-0.577249766707,0.816567637637
1565343652673582232,80591,1565343652613215868,map,1.49989509583,0.0240249633789,0.0,0.0,0.0,-0.59046481451,0.807063382162
1565343652743023690,80592,1565343652682324566,map,1.49877166748,0.0240726470947,0.0,0.0,0.0,-0.602491790602,0.798125079331
1565343652806267544,80593,1565343652746649826,map,1.49845409393,0.0240020751953,0.0,0.0,0.0,-0.61392776767,0.789362208421
1565343652872626242,80594,1565343652812861545,map,1.49785614014,0.0233716964722,0.0,0.0,0.0,-0.624119623366,0.781328801293
1565343652939547856,80595,1565343652879570035,map,1.49804496765,0.0236663818359,0.0,0.0,0.0,-0.634275679375,0.773106954149
1565343653005687596,80596,1565343652946144462,map,1.49729156494,0.0218486785889,0.0,0.0,0.0,-0.643992262351,0.765032003273
1565343653074865877,80597,1565343653012838733,map,1.49754905701,0.020902633667,0.0,0.0,0.0,-0.652987094178,0.757369034776
1565343653140948481,80598,1565343653080361858,map,1.49677276611,0.020131111145,0.0,0.0,0.0,-0.661514822179,0.749932090284
1565343653206294002,80599,1565343653146572118,map,1.49660491943,0.0196352005005,0.0,0.0,0.0,-0.668961442027,0.743297106869
1565343653274175148,80600,1565343653213426180,map,1.4962053299,0.0194339752197,0.0,0.0,0.0,-0.67596666411,0.736932201096
1565343653340075356,80601,1565343653279489618,map,1.49590873718,0.0192308425903,0.0,0.0,0.0,-0.682846014976,0.730562331244
1565343653406856971,80602,1565343653346791701,map,1.49569892883,0.0193405151367,0.0,0.0,0.0,-0.689409266623,0.724372047428
1565343653473346502,80603,1565343653413473993,map,1.49561595917,0.0181150436401,0.0,0.0,0.0,-0.695610723515,0.718418903796
1565343653541362960,80604,1565343653480029722,map,1.4951581955,0.0187969207764,0.0,0.0,0.0,-0.701511559761,0.712658074761
1565343653605978794,80605,1565343653546041597,map,1.49520397186,0.0184020996094,0.0,0.0,0.0,-0.706764818771,0.707448578306
1565343653673004210,80606,1565343653612892014,map,1.49588775635,0.0186281204224,0.0,0.0,0.0,-0.711988935335,0.702190683476
1565343653741791554,80607,1565343653682225191,map,1.49496459961,0.0168170928955,0.0,0.0,0.0,-0.716482057675,0.697605519638
1565343653807278169,80608,1565343653746634253,map,1.49444580078,0.0167713165283,0.0,0.0,0.0,-0.720817262524,0.69312515035
1565343653874024314,80609,1565343653813207170,map,1.49473762512,0.0154094696045,0.0,0.0,0.0,-0.725272031378,0.688462403113
1565343653939440721,80610,1565343653879403316,map,1.49447345734,0.0153093338013,0.0,0.0,0.0,-0.729302489485,0.684191405113
1565343654006880200,80611,1565343653946064201,map,1.49454975128,0.0147037506104,0.0,0.0,0.0,-0.733315739705,0.679888245156
1565343654073278950,80612,1565343654012722222,map,1.49453544617,0.0140409469604,0.0,0.0,0.0,-0.737096111754,0.675787926821
1565343654141036346,80613,1565343654080284409,map,1.49462890625,0.0138883590698,0.0,0.0,0.0,-0.740840265714,0.671681249327
1565343654207489471,80614,1565343654146608368,map,1.49409484863,0.0140533447266,0.0,0.0,0.0,-0.744098053944,0.668070420028
1565343654274209783,80615,1565343654212643315,map,1.49416637421,0.014181137085,0.0,0.0,0.0,-0.747524510847,0.664234225016
1565343654339463793,80616,1565343654279340451,map,1.4950504303,0.0137577056885,0.0,0.0,0.0,-0.750812778304,0.660515080778
1565343654407613637,80617,1565343654345999722,map,1.49429321289,0.0127773284912,0.0,0.0,0.0,-0.753630606083,0.657298189238
1565343654475222127,80618,1565343654414385086,map,1.49447917938,0.0127639770508,0.0,0.0,0.0,-0.756706704838,0.653754512682
1565343654540773533,80619,1565343654479351649,map,1.49478149414,0.0131502151489,0.0,0.0,0.0,-0.75949649771,0.650511391112
1565343654606115668,80620,1565343654546235503,map,1.49367237091,0.0129528045654,0.0,0.0,0.0,-0.762018325177,0.647555458701
1565343654673921658,80621,1565343654613755711,map,1.4940366745,0.0116424560547,0.0,0.0,0.0,-0.764521271545,0.644598499343
1565343654743259575,80622,1565343654682735607,map,1.49414539337,0.0119142532349,0.0,0.0,0.0,-0.766957975166,0.641697330779
1565343654806557908,80623,1565343654746885451,map,1.49280548096,0.0112428665161,0.0,0.0,0.0,-0.769148773089,0.639069765249
1565343654873002231,80624,1565343654813471909,map,1.49326038361,0.0112590789795,0.0,0.0,0.0,-0.771610754164,0.636094996097
