%time,field.linear.x,field.linear.y,field.linear.z,field.angular.x,field.angular.y,field.angular.z
1565342400243038491,-0.0,-0.0,0.0,0.0,0.0,0.0
1565342400360724741,-0.0,-0.0,0.0,0.0,0.0,0.0
1565342400410839949,-0.0,-0.0,0.0,0.0,0.0,0.0
1565342400535592918,-0.0,-0.0,0.0,0.0,0.0,0.337223917246
1565342400637176511,-0.0,-0.0,0.0,0.0,0.0,0.429470121861
1565342400745505053,-0.0,-0.0,0.0,0.0,0.0,0.0
1565342400795659584,-0.0,-0.0,0.0,0.0,0.0,0.0
1565342400845648074,-0.0,-0.0,0.0,0.0,0.0,0.0
1565342400895685938,-0.0,-0.0,0.0,0.0,0.0,0.0
1565342400946284480,-0.0,-0.0,0.0,0.0,0.0,0.0
1565342401085116980,-0.0,-0.0,0.0,0.0,0.0,0.429470121861
1565342401189476615,-0.0,-0.0,0.0,0.0,0.0,0.0930437073112
1565342401293537188,-0.0,-0.0,0.0,0.0,0.0,0.0
1565342401343227657,-0.0,-0.0,0.0,0.0,0.0,0.0
1565342401393538021,-0.0,-0.0,0.0,0.0,0.0,0.0
1565342401443582240,-0.0,-0.0,0.0,0.0,0.0,0.0
1565342401493891980,-0.0,-0.0,0.0,0.0,0.0,0.0
1565342401543796198,-0.0,-0.0,0.0,0.0,0.0,0.0
1565342401593987396,-0.0,-0.0,0.0,0.0,0.0,0.0
1565342401644794636,-0.0,-0.0,0.0,0.0,0.0,0.0
1565342401694679480,-0.0,-0.0,0.0,0.0,0.0,0.0
1565342401745194011,-0.0,-0.0,0.0,0.0,0.0,0.0
1565342401800726927,-0.0,-0.0,0.0,0.0,0.0,0.0
1565342401907752240,0.28381088376,-0.0,0.0,0.0,0.0,0.0
1565342402037306823,0.28381088376,-0.0,0.0,0.0,0.0,0.0
1565342402087148594,0.28381088376,-0.0,0.0,0.0,0.0,0.0
1565342402190340000,0.272952735424,-0.0,0.0,0.0,0.0,0.0
1565342402239215938,0.272952735424,-0.0,0.0,0.0,0.0,0.0
1565342402289099740,0.272952735424,-0.0,0.0,0.0,0.0,0.0
1565342402413305156,0.598504900932,-0.0,0.0,0.0,0.0,0.0
1565342402516723750,0.761313140392,-0.0,0.0,0.0,0.0,0.0
1565342402567077500,0.761313140392,-0.0,0.0,0.0,0.0,0.0
1565342402617509844,0.761313140392,-0.0,0.0,0.0,0.0,0.0
1565342402668570469,0.761313140392,-0.0,0.0,0.0,0.0,0.0
1565342402718247656,0.761313140392,-0.0,0.0,0.0,0.0,0.0
1565342402825299583,0.772139191628,-0.0,0.0,0.0,0.0,0.0
1565342402937596354,0.782997310162,-0.0,0.0,0.0,0.0,0.0
1565342402989892865,0.782997310162,-0.0,0.0,0.0,0.0,0.0
1565342403105075208,0.782997310162,-0.0,0.0,0.0,0.0,0.0
1565342403158082448,0.782997310162,-0.0,0.0,0.0,0.0,0.0
1565342403193724375,0.782997310162,-0.0,0.0,0.0,0.0,0.0
1565342403244653542,0.782997310162,-0.0,0.0,0.0,0.0,0.0
1565342403295583802,0.782997310162,-0.0,0.0,0.0,0.0,0.0
1565342403343794323,0.782997310162,-0.0,0.0,0.0,0.0,0.0
1565342403469557135,0.804713666439,-0.0,0.0,0.0,0.0,0.0
1565342403518850156,0.804713666439,-0.0,0.0,0.0,0.0,0.0
1565342403569298593,0.804713666439,-0.0,0.0,0.0,0.0,0.0
1565342403619403593,0.804713666439,-0.0,0.0,0.0,0.0,0.0
1565342403669591093,0.804713666439,-0.0,0.0,0.0,0.0,0.0
1565342403720385677,0.804713666439,-0.0,0.0,0.0,0.0,0.0
1565342403770327552,0.804713666439,-0.0,0.0,0.0,0.0,0.0
1565342403823841302,0.804713666439,-0.0,0.0,0.0,0.0,0.0
1565342403873050625,0.804713666439,-0.0,0.0,0.0,0.0,0.0
1565342403920910677,0.804713666439,-0.0,0.0,0.0,0.0,0.0
1565342403970787447,0.804713666439,-0.0,0.0,0.0,0.0,0.0
1565342404020744218,0.804713666439,-0.0,0.0,0.0,0.0,0.0
1565342404157106458,0.815571844578,-0.0,0.0,0.0,0.0,0.0
1565342404293569947,0.772139191628,-0.0,0.0,0.0,0.0,0.207006245852
1565342404398757760,0.761313140392,-0.0,0.0,0.0,0.0,0.239548608661
1565342404501294531,0.761313140392,-0.0,0.0,0.0,0.0,0.0
1565342404608919010,0.782997310162,-0.0,0.0,0.0,0.0,0.0
1565342404732872551,0.7938554883,-0.0,0.0,0.0,0.0,0.0
1565342404844905520,0.804713666439,-0.0,0.0,0.0,0.0,0.0
1565342404952872708,0.804713666439,-0.0,0.0,0.0,0.0,0.0
1565342405097029062,0.815571844578,-0.0,0.0,0.0,0.0,0.0
1565342405217440364,0.815571844578,-0.0,0.0,0.0,0.0,0.348082065582
1565342405322293541,0.826397895813,-0.0,0.0,0.0,0.0,0.0
1565342405428784687,0.858972370625,-0.0,0.0,0.0,0.0,0.0
1565342405479331770,0.858972370625,-0.0,0.0,0.0,0.0,0.0
1565342405589165884,0.858972370625,-0.0,0.0,0.0,0.0,0.0
1565342405639091561,0.858972370625,-0.0,0.0,0.0,0.0,0.0
1565342405689208488,0.858972370625,-0.0,0.0,0.0,0.0,0.0
1565342405739200676,0.858972370625,-0.0,0.0,0.0,0.0,0.0
1565342405790531249,0.858972370625,-0.0,0.0,0.0,0.0,0.0
1565342405855545155,0.858972370625,-0.0,0.0,0.0,0.0,0.0
1565342405894759582,0.858972370625,-0.0,0.0,0.0,0.0,0.0
1565342405940320780,0.858972370625,-0.0,0.0,0.0,0.0,0.0
1565342405995611561,0.858972370625,-0.0,0.0,0.0,0.0,0.0
1565342406041076718,0.858972370625,-0.0,0.0,0.0,0.0,0.0
1565342406090565572,0.858972370625,-0.0,0.0,0.0,0.0,0.0
1565342406141277915,0.858972370625,-0.0,0.0,0.0,0.0,0.0
1565342406191228228,0.858972370625,-0.0,0.0,0.0,0.0,0.0
1565342406241285311,0.858972370625,-0.0,0.0,0.0,0.0,0.0
1565342406291738853,0.858972370625,-0.0,0.0,0.0,0.0,0.0
1565342406341614790,0.858972370625,-0.0,0.0,0.0,0.0,0.0
1565342406392228644,0.858972370625,-0.0,0.0,0.0,0.0,0.0
1565342406441629947,0.858972370625,-0.0,0.0,0.0,0.0,0.0
1565342406508817342,0.858972370625,-0.0,0.0,0.0,0.0,0.0
1565342406541868071,0.858972370625,-0.0,0.0,0.0,0.0,0.0
1565342406606268749,0.858972370625,-0.0,0.0,0.0,0.0,0.0
1565342406642153071,0.858972370625,-0.0,0.0,0.0,0.0,0.0
1565342406692710259,0.858972370625,-0.0,0.0,0.0,0.0,0.0
1565342406742627655,0.858972370625,-0.0,0.0,0.0,0.0,0.0
1565342406793720780,0.858972370625,-0.0,0.0,0.0,0.0,0.0
1565342406929645415,0.858972370625,-0.0,0.0,0.0,0.0,0.418611943722
1565342407033455519,0.858972370625,-0.0,0.0,0.0,0.0,0.5
1565342407083006978,0.858972370625,-0.0,0.0,0.0,0.0,0.5
1565342407188920415,0.858972370625,-0.0,0.0,0.0,0.0,0.5
1565342407239124790,0.858972370625,-0.0,0.0,0.0,0.0,0.5
1565342407365452550,0.858972370625,-0.0,0.0,0.0,0.0,0.0
1565342407415764477,0.858972370625,-0.0,0.0,0.0,0.0,0.0
1565342407466420207,0.858972370625,-0.0,0.0,0.0,0.0,0.0
1565342407609056561,0.858972370625,-0.0,0.0,0.0,0.0,0.43489921093
1565342407713020467,0.858972370625,-0.0,0.0,0.0,0.0,0.5
1565342407821674790,0.858972370625,-0.0,0.0,0.0,0.0,0.5
1565342407940788644,0.858972370625,-0.0,0.0,0.0,0.0,0.5
1565342408044979529,0.858972370625,-0.0,0.0,0.0,0.0,0.5
1565342408148766925,0.858972370625,-0.0,0.0,0.0,0.0,0.0
1565342408199758331,0.858972370625,-0.0,0.0,0.0,0.0,0.0
1565342408249212394,0.858972370625,-0.0,0.0,0.0,0.0,0.0
1565342408299578383,0.858972370625,-0.0,0.0,0.0,0.0,0.0
1565342408349680831,0.858972370625,-0.0,0.0,0.0,0.0,0.0
1565342408400007915,0.858972370625,-0.0,0.0,0.0,0.0,0.0
1565342408449613279,0.858972370625,-0.0,0.0,0.0,0.0,0.0
1565342408499766144,0.858972370625,-0.0,0.0,0.0,0.0,0.0
1565342408550058019,0.858972370625,-0.0,0.0,0.0,0.0,0.0
1565342408599917810,0.858972370625,-0.0,0.0,0.0,0.0,0.0
1565342408649996196,0.858972370625,-0.0,0.0,0.0,0.0,0.0
1565342408700614164,0.858972370625,-0.0,0.0,0.0,0.0,0.0
1565342408758561300,0.858972370625,-0.0,0.0,0.0,0.0,0.0
1565342408801441039,0.858972370625,-0.0,0.0,0.0,0.0,0.0
1565342408850986612,0.858972370625,-0.0,0.0,0.0,0.0,0.0
1565342408900835206,0.858972370625,-0.0,0.0,0.0,0.0,0.0
1565342408951863018,0.858972370625,-0.0,0.0,0.0,0.0,0.0
1565342409001245154,0.858972370625,-0.0,0.0,0.0,0.0,0.0
1565342409053923748,0.858972370625,-0.0,0.0,0.0,0.0,0.0
1565342409101856768,0.858972370625,-0.0,0.0,0.0,0.0,0.0
1565342409237195727,0.858972370625,-0.0,0.0,0.0,0.0,0.0
1565342409286742341,0.858972370625,-0.0,0.0,0.0,0.0,0.0
1565342409337434633,0.858972370625,-0.0,0.0,0.0,0.0,0.0
1565342409387691768,0.858972370625,-0.0,0.0,0.0,0.0,0.0
1565342409450200154,0.858972370625,-0.0,0.0,0.0,0.0,0.0
1565342409487756195,0.858972370625,-0.0,0.0,0.0,0.0,0.0
1565342409538728070,0.858972370625,-0.0,0.0,0.0,0.0,0.0
1565342409589505675,0.858972370625,-0.0,0.0,0.0,0.0,0.0
1565342409696993331,0.858972370625,-0.0,0.0,0.0,0.0,0.190718993545
1565342409802266247,0.869830548763,-0.0,0.0,0.0,0.0,0.342652976513
1565342409905569685,0.858972370625,-0.0,0.0,0.0,0.0,0.179860830307
1565342410009001299,0.858972370625,-0.0,0.0,0.0,0.0,0.0
1565342410059448487,0.858972370625,-0.0,0.0,0.0,0.0,0.0
1565342410169220778,0.858972370625,-0.0,0.0,0.0,0.0,0.185289919376
1565342410285155726,0.858972370625,-0.0,0.0,0.0,0.0,0.0
1565342410425786560,0.858972370625,-0.0,0.0,0.0,0.0,0.0
1565342410475117862,0.858972370625,-0.0,0.0,0.0,0.0,0.0
1565342410577268435,0.902372896671,-0.0,0.0,0.0,0.0,0.0
1565342410717734737,1.0,-0.0,0.0,0.0,0.0,0.0
1565342410772452653,1.0,-0.0,0.0,0.0,0.0,0.0
1565342410835115362,1.0,-0.0,0.0,0.0,0.0,0.0
1565342410869302132,1.0,-0.0,0.0,0.0,0.0,0.0
1565342410920057705,1.0,-0.0,0.0,0.0,0.0,0.0
1565342410971156091,1.0,-0.0,0.0,0.0,0.0,0.0
1565342411018634789,1.0,-0.0,0.0,0.0,0.0,0.0
1565342411068660049,1.0,-0.0,0.0,0.0,0.0,0.0
1565342411118827705,1.0,-0.0,0.0,0.0,0.0,0.0
1565342411168979424,1.0,-0.0,0.0,0.0,0.0,0.0
1565342411289448070,0.97834789753,-0.0,0.0,0.0,0.0,0.0930437073112
1565342411398567913,0.97834789753,-0.0,0.0,0.0,0.0,0.342652976513
1565342411501283018,0.97834789753,-0.0,0.0,0.0,0.0,0.348082065582
1565342411615397028,0.967489778996,-0.0,0.0,0.0,0.0,0.386053532362
1565342411722548122,0.967489778996,-0.0,0.0,0.0,0.0,0.342652976513
1565342411828830257,0.967489778996,-0.0,0.0,0.0,0.0,0.0
1565342411879079632,0.967489778996,-0.0,0.0,0.0,0.0,0.0
1565342411925378642,0.967489778996,-0.0,0.0,0.0,0.0,0.0
1565342411990812497,0.967489778996,-0.0,0.0,0.0,0.0,0.0
1565342412025910726,0.967489778996,-0.0,0.0,0.0,0.0,0.0
1565342412169333069,0.967489778996,-0.0,0.0,0.0,0.0,0.0
1565342412312237288,1.0,-0.0,0.0,0.0,0.0,0.0
1565342412359126351,1.0,-0.0,0.0,0.0,0.0,0.0
1565342412409018851,1.0,-0.0,0.0,0.0,0.0,0.0
1565342412459813173,1.0,-0.0,0.0,0.0,0.0,0.0
1565342412570030934,1.0,-0.0,0.0,0.0,0.0,-0.5
1565342412719566715,1.0,-0.0,0.0,0.0,0.0,0.0
1565342412767366402,1.0,-0.0,0.0,0.0,0.0,0.0
1565342412817354684,1.0,-0.0,0.0,0.0,0.0,0.0
1565342412867630986,1.0,-0.0,0.0,0.0,0.0,0.0
1565342412918036194,1.0,-0.0,0.0,0.0,0.0,0.0
1565342412968212132,1.0,-0.0,0.0,0.0,0.0,0.0
1565342413018437288,1.0,-0.0,0.0,0.0,0.0,0.0
1565342413068683329,1.0,-0.0,0.0,0.0,0.0,0.0
1565342413119645621,1.0,-0.0,0.0,0.0,0.0,0.0
1565342413170985048,1.0,-0.0,0.0,0.0,0.0,0.0
1565342413219047496,1.0,-0.0,0.0,0.0,0.0,0.0
1565342413269721975,1.0,-0.0,0.0,0.0,0.0,0.0
1565342413319258017,1.0,-0.0,0.0,0.0,0.0,0.0
1565342413437389683,1.0,-0.0,0.0,0.0,0.0,0.5
1565342413541580308,0.97834789753,-0.0,0.0,0.0,0.0,0.5
1565342413646374683,0.97834789753,-0.0,0.0,0.0,0.0,0.0
1565342413696243225,0.97834789753,-0.0,0.0,0.0,0.0,0.0
1565342413746020152,0.97834789753,-0.0,0.0,0.0,0.0,0.0
1565342413893918329,0.967489778996,-0.0,0.0,0.0,0.0,0.0
1565342414025797652,0.967489778996,-0.0,0.0,0.0,0.0,0.0
1565342414153192912,0.97834789753,-0.0,0.0,0.0,0.0,0.0
1565342414203321089,0.97834789753,-0.0,0.0,0.0,0.0,0.0
1565342414253309214,0.97834789753,-0.0,0.0,0.0,0.0,0.0
1565342414406160308,0.967489778996,-0.0,0.0,0.0,0.0,0.0
1565342414537109787,0.97834789753,-0.0,0.0,0.0,0.0,0.0
1565342414587484579,0.97834789753,-0.0,0.0,0.0,0.0,0.0
1565342414637502756,0.97834789753,-0.0,0.0,0.0,0.0,0.0
1565342414753718641,0.97834789753,-0.0,0.0,0.0,0.0,0.0170847438276
1565342414870043172,0.164435341954,-0.0,0.0,0.0,0.0,0.5
1565342414973703850,-0.0,-0.0,0.0,0.0,0.0,0.5
1565342415023680672,-0.0,-0.0,0.0,0.0,0.0,0.5
1565342415154677287,-0.0,-0.0,0.0,0.0,0.0,0.5
1565342415191161974,-0.0,-0.0,0.0,0.0,0.0,0.5
1565342415325297547,-0.0,-0.0,0.0,0.0,0.0,0.5
1565342415437821245,-0.0,-0.0,0.0,0.0,0.0,0.5
1565342415541357495,-0.0,-0.0,0.0,0.0,0.0,0.0
1565342415650267651,0.511703848839,-0.0,0.0,0.0,0.0,0.0
1565342415761485203,0.826397895813,-0.0,0.0,0.0,0.0,0.0
1565342415807852287,0.826397895813,-0.0,0.0,0.0,0.0,0.0
1565342415872447391,0.826397895813,-0.0,0.0,0.0,0.0,0.0
1565342415918216141,0.826397895813,-0.0,0.0,0.0,0.0,0.0
1565342415988401557,0.826397895813,-0.0,0.0,0.0,0.0,0.0
1565342416026306505,0.826397895813,-0.0,0.0,0.0,0.0,0.0
1565342416129707495,0.804713666439,-0.0,0.0,0.0,0.0,0.0
1565342416179622026,0.804713666439,-0.0,0.0,0.0,0.0,0.0
1565342416229688641,0.804713666439,-0.0,0.0,0.0,0.0,0.0
1565342416280047287,0.804713666439,-0.0,0.0,0.0,0.0,0.0
1565342416330565203,0.804713666439,-0.0,0.0,0.0,0.0,0.0
1565342416477625984,0.804713666439,-0.0,0.0,0.0,0.0,0.158160567284
1565342416581992026,0.804713666439,-0.0,0.0,0.0,0.0,0.255835860968
1565342416693623172,0.804713666439,-0.0,0.0,0.0,0.0,0.0
1565342416744018120,0.804713666439,-0.0,0.0,0.0,0.0,0.0
1565342416794234474,0.804713666439,-0.0,0.0,0.0,0.0,0.0
1565342416844087963,0.804713666439,-0.0,0.0,0.0,0.0,0.0
1565342416908056818,0.804713666439,-0.0,0.0,0.0,0.0,0.0
1565342416944661140,0.804713666439,-0.0,0.0,0.0,0.0,0.0
1565342417061829942,0.804713666439,-0.0,0.0,0.0,0.0,0.0
1565342417189578432,0.815571844578,-0.0,0.0,0.0,0.0,0.0
1565342417293714317,0.804713666439,-0.0,0.0,0.0,0.0,0.0
1565342417401505151,0.804713666439,-0.0,0.0,0.0,0.0,0.0
1565342417525475567,0.804713666439,-0.0,0.0,0.0,0.0,0.0
1565342417665751557,0.804713666439,-0.0,0.0,0.0,0.0,0.0
1565342417768891713,0.815571844578,-0.0,0.0,0.0,0.0,0.0
1565342417828793328,0.815571844578,-0.0,0.0,0.0,0.0,0.0
1565342417921891765,0.804713666439,-0.0,0.0,0.0,0.0,0.0
1565342418066661713,0.804713666439,-0.0,0.0,0.0,0.0,-0.5
1565342418189616452,0.815571844578,-0.0,0.0,0.0,0.0,0.0
1565342418239350515,0.815571844578,-0.0,0.0,0.0,0.0,0.0
1565342418390361869,0.804713666439,-0.0,0.0,0.0,0.0,0.0
1565342418441794890,0.804713666439,-0.0,0.0,0.0,0.0,0.0
1565342418573866817,0.804713666439,-0.0,0.0,0.0,0.0,-0.5
1565342418680220931,0.804713666439,-0.0,0.0,0.0,0.0,-0.25042283535
1565342418782669421,0.815571844578,-0.0,0.0,0.0,0.0,0.0
1565342418901552181,0.815571844578,-0.0,0.0,0.0,0.0,0.0
1565342419009334473,0.924089252949,-0.0,0.0,0.0,0.0,0.0
1565342419122035723,0.956631600857,-0.0,0.0,0.0,0.0,0.0
1565342419241742910,1.0,-0.0,0.0,0.0,0.0,0.0
1565342419345480879,1.0,-0.0775700211525,0.0,0.0,0.0,0.0
1565342419397877129,1.0,-0.0775700211525,0.0,0.0,0.0,0.0
1565342419446179525,1.0,-0.0775700211525,0.0,0.0,0.0,0.0
1565342419589796244,1.0,-0.0667118579149,0.0,0.0,0.0,0.0
1565342419703933066,1.0,-0.0775700211525,0.0,0.0,0.0,0.0
1565342419808766921,1.0,-0.0775700211525,0.0,0.0,0.0,0.0
1565342419915226660,1.0,-0.0775700211525,0.0,0.0,0.0,-0.5
1565342420018072493,1.0,-0.0667118579149,0.0,0.0,0.0,0.0
1565342420068603066,1.0,-0.0667118579149,0.0,0.0,0.0,0.0
1565342420173915983,1.0,-0.0667118579149,0.0,0.0,0.0,-0.5
1565342420313832493,1.0,-0.0,0.0,0.0,0.0,-0.201593220234
1565342420417525150,1.0,-0.0,0.0,0.0,0.0,0.0
1565342420468449889,1.0,-0.0,0.0,0.0,0.0,0.0
1565342420590706191,1.0,-0.0,0.0,0.0,0.0,-0.5
1565342420693332910,1.0,-0.0,0.0,0.0,0.0,0.0
1565342420802983795,1.0,-0.0,0.0,0.0,0.0,-0.5
1565342420852184212,1.0,-0.0,0.0,0.0,0.0,-0.5
1565342420973450462,1.0,-0.0,0.0,0.0,0.0,0.0
1565342421077991295,1.0,-0.0,0.0,0.0,0.0,0.0
1565342421204737180,1.0,-0.0,0.0,0.0,0.0,0.0
1565342421252330149,1.0,-0.0,0.0,0.0,0.0,0.0
1565342421393734368,0.598504900932,-0.0,0.0,0.0,0.0,0.0
1565342421501702285,0.392328292131,-0.0,0.0,0.0,0.0,0.0
1565342421552021191,0.392328292131,-0.0,0.0,0.0,0.0,0.0
1565342421601963847,0.392328292131,-0.0,0.0,0.0,0.0,0.0
1565342421716334003,0.652763605118,-0.0,0.0,0.0,0.0,0.0
1565342421823459472,0.924089252949,-0.0,0.0,0.0,0.0,0.0
1565342421876153430,0.924089252949,-0.0,0.0,0.0,0.0,0.0
1565342421999101347,0.804713666439,-0.0,0.0,0.0,0.0,0.0
1565342422137398118,0.685338079929,-0.0,0.0,0.0,0.0,0.0
1565342422243695930,0.837256014347,-0.0,0.0,0.0,0.0,0.0
1565342422372105930,0.902372896671,-0.0,0.0,0.0,0.0,0.0
1565342422395945253,0.902372896671,-0.0,0.0,0.0,0.0,0.0
1565342422509283117,0.891514718533,-0.0,0.0,0.0,0.0,0.0
1565342422559421295,0.891514718533,-0.0,0.0,0.0,0.0,0.0
1565342422694029888,0.902372896671,-0.0,0.0,0.0,0.0,0.0
1565342422743511294,0.902372896671,-0.0,0.0,0.0,0.0,0.0
1565342422793974836,0.902372896671,-0.0,0.0,0.0,0.0,0.0
1565342422843743742,0.902372896671,-0.0,0.0,0.0,0.0,0.0
1565342422893991034,0.902372896671,-0.0,0.0,0.0,0.0,0.0
1565342422944558117,0.902372896671,-0.0,0.0,0.0,0.0,0.0
1565342422995499784,0.902372896671,-0.0,0.0,0.0,0.0,0.0
1565342423125827440,0.934947371483,-0.0,0.0,0.0,0.0,0.0
1565342423273483065,0.956631600857,-0.0,0.0,0.0,0.0,0.0
1565342423324198065,0.956631600857,-0.0,0.0,0.0,0.0,0.0
1565342423449971607,0.967489778996,-0.0,0.0,0.0,0.0,0.0
1565342423500016086,0.967489778996,-0.0,0.0,0.0,0.0,0.0
1565342423650180773,0.97834789753,-0.0,0.0,0.0,0.0,0.402340769768
1565342423753638169,1.0,-0.0,0.0,0.0,0.0,0.5
1565342423893419471,1.0,-0.0,0.0,0.0,0.0,0.5
1565342423999035044,1.0,-0.0,0.0,0.0,0.0,0.5
1565342424137240200,1.0,-0.0,0.0,0.0,0.0,0.5
1565342424245846502,1.0,-0.0,0.0,0.0,0.0,0.5
1565342424385949419,1.0,-0.0,0.0,0.0,0.0,0.5
1565342424501404367,1.0,-0.0,0.0,0.0,0.0,0.0
1565342424551560617,1.0,-0.0,0.0,0.0,0.0,0.0
1565342424602570513,1.0,-0.0,0.0,0.0,0.0,0.0
1565342424652116658,1.0,-0.0,0.0,0.0,0.0,0.0
1565342424702305356,1.0,-0.0,0.0,0.0,0.0,0.0
1565342424752005356,1.0,-0.0,0.0,0.0,0.0,0.0
1565342424802561137,1.0,-0.0,0.0,0.0,0.0,0.0
1565342424852100669,1.0,-0.0,0.0,0.0,0.0,0.0
1565342424902242075,1.0,-0.0,0.0,0.0,0.0,0.0
1565342424952505356,1.0,-0.0,0.0,0.0,0.0,0.0
1565342425002453377,1.0,-0.0,0.0,0.0,0.0,0.0
1565342425135628273,1.0,-0.0,0.0,0.0,0.0,0.5
1565342425183743481,1.0,-0.0,0.0,0.0,0.0,0.5
1565342425233860721,1.0,-0.0,0.0,0.0,0.0,0.5
1565342425284179419,1.0,-0.0,0.0,0.0,0.0,0.5
1565342425336686450,1.0,-0.0,0.0,0.0,0.0,0.5
1565342425445563846,1.0,-0.0,0.0,0.0,0.0,0.5
1565342425589604054,1.0,-0.0,0.0,0.0,0.0,0.5
1565342425697750200,1.0,-0.0,0.0,0.0,0.0,0.5
1565342425747923481,1.0,-0.0,0.0,0.0,0.0,0.5
1565342425881578377,-0.0,-0.0,0.0,0.0,0.0,0.5
1565342426010841502,-0.0,-0.0,0.0,0.0,0.0,0.5
1565342426026505616,-0.0,-0.0,0.0,0.0,0.0,0.5
1565342426161778116,-0.0,-0.0,0.0,0.0,0.0,0.5
1565342426249674626,-0.0,-0.0,0.0,0.0,0.0,0.0
1565342426299880199,-0.0,-0.0,0.0,0.0,0.0,0.0
1565342426349801554,-0.0,-0.0,0.0,0.0,0.0,0.0
1565342426485716762,0.28381088376,-0.0,0.0,0.0,0.0,0.0
1565342426590057543,0.479129344225,-0.0,0.0,0.0,0.0,0.0
1565342426694808793,0.598504900932,-0.0,0.0,0.0,0.0,0.0
1565342426802983116,0.804713666439,-0.0,0.0,0.0,0.0,0.0
1565342426910763064,0.989206075668,-0.0,0.0,0.0,0.0,0.0
1565342427009508116,1.0,-0.0,0.0,0.0,0.0,0.0
1565342427059672074,1.0,-0.0,0.0,0.0,0.0,0.0
1565342427110453637,1.0,-0.0,0.0,0.0,0.0,0.0
1565342427160045876,1.0,-0.0,0.0,0.0,0.0,0.0
1565342427211741189,1.0,-0.0,0.0,0.0,0.0,0.0
1565342427262757439,1.0,-0.0,0.0,0.0,0.0,0.0
1565342427310360772,1.0,-0.0,0.0,0.0,0.0,0.0
1565342427360717126,1.0,-0.0,0.0,0.0,0.0,0.0
1565342427411359418,1.0,-0.0,0.0,0.0,0.0,0.0
1565342427461314001,1.0,-0.0,0.0,0.0,0.0,0.0
1565342427511571553,1.0,-0.0,0.0,0.0,0.0,0.0
1565342427561473793,1.0,-0.0,0.0,0.0,0.0,0.0
1565342427612165720,1.0,-0.0,0.0,0.0,0.0,0.0
1565342427662530407,1.0,-0.0,0.0,0.0,0.0,0.0
1565342427712226293,1.0,-0.0,0.0,0.0,0.0,0.0
1565342427762685303,1.0,-0.0,0.0,0.0,0.0,0.0
1565342427819361188,1.0,-0.0,0.0,0.0,0.0,0.0
1565342427876539209,1.0,-0.0,0.0,0.0,0.0,0.0
1565342427914268740,1.0,-0.0,0.0,0.0,0.0,0.0
1565342427976300876,1.0,-0.0,0.0,0.0,0.0,0.0
1565342428015328063,1.0,-0.0,0.0,0.0,0.0,0.0
1565342428068166032,1.0,-0.0,0.0,0.0,0.0,0.0
1565342428114418636,1.0,-0.0,0.0,0.0,0.0,0.0
1565342428164670667,1.0,-0.0,0.0,0.0,0.0,0.0
1565342428214224209,1.0,-0.0,0.0,0.0,0.0,0.0
1565342428267267490,1.0,-0.0,0.0,0.0,0.0,0.0
1565342428316662907,1.0,-0.0,0.0,0.0,0.0,0.0
1565342428364075667,1.0,-0.0,0.0,0.0,0.0,0.0
1565342428414853844,1.0,-0.0,0.0,0.0,0.0,0.0
1565342428466153896,1.0,-0.0,0.0,0.0,0.0,0.0
1565342428515958219,1.0,-0.0,0.0,0.0,0.0,0.0
1565342428566105303,1.0,-0.0,0.0,0.0,0.0,0.0
1565342428617446292,1.0,-0.0,0.0,0.0,0.0,0.0
1565342428670052646,1.0,-0.0,0.0,0.0,0.0,0.0
1565342428715819990,1.0,-0.0,0.0,0.0,0.0,0.0
1565342428850095250,-0.0,-0.0,0.0,0.0,0.0,0.0
1565342428900576448,-0.0,-0.0,0.0,0.0,0.0,0.0
1565342428950417750,-0.0,-0.0,0.0,0.0,0.0,0.0
1565342429084528844,0.218694031239,-0.0,0.0,0.0,0.0,0.0
1565342429135457855,0.218694031239,-0.0,0.0,0.0,0.0,0.0
1565342429237815459,0.338069587946,-0.0,0.0,0.0,0.0,0.0
1565342429341902334,0.598504900932,-0.0,0.0,0.0,0.0,0.0
1565342429449830302,0.707054436207,-0.0,0.0,0.0,0.0,0.0
1565342429554484834,0.858972370625,0.0450597777963,0.0,0.0,0.0,0.0
1565342429661868375,0.945773422718,0.0993184745312,0.0,0.0,0.0,0.0
1565342429766410615,1.0,0.164435341954,0.0,0.0,0.0,0.0
1565342429823148896,1.0,0.164435341954,0.0,0.0,0.0,0.0
1565342429957086292,1.0,0.175293505192,0.0,0.0,0.0,0.0
1565342430007505458,1.0,0.175293505192,0.0,0.0,0.0,0.0
1565342430057815146,1.0,0.175293505192,0.0,0.0,0.0,0.0
1565342430108221500,1.0,0.175293505192,0.0,0.0,0.0,0.0
1565342430234072490,1.0,0.175293505192,0.0,0.0,0.0,-0.478315800428
1565342430337828687,1.0,0.186119541526,0.0,0.0,0.0,0.0
1565342430445811760,1.0,0.196977704763,0.0,0.0,0.0,0.0
1565342430549462542,1.0,0.196977704763,0.0,0.0,0.0,0.0
1565342430662878479,1.0,0.207835868001,0.0,0.0,0.0,0.0
1565342430712216864,1.0,0.207835868001,0.0,0.0,0.0,0.0
1565342430764145510,1.0,0.207835868001,0.0,0.0,0.0,0.0
1565342430905964729,1.0,0.207835868001,0.0,0.0,0.0,0.5
1565342431029923010,1.0,0.207835868001,0.0,0.0,0.0,0.0
1565342431080000250,1.0,0.207835868001,0.0,0.0,0.0,0.0
1565342431199609781,1.0,0.207835868001,0.0,0.0,0.0,0.5
1565342431336431291,1.0,0.207835868001,0.0,0.0,0.0,0.0
1565342431445697489,1.0,0.207835868001,0.0,0.0,0.0,0.5
1565342431495662124,1.0,0.207835868001,0.0,0.0,0.0,0.5
1565342431605634624,1.0,0.207835868001,0.0,0.0,0.0,0.0
1565342431745974729,1.0,0.207835868001,0.0,0.0,0.0,0.5
1565342431891253895,1.0,0.207835868001,0.0,0.0,0.0,0.0
1565342431939748739,1.0,0.207835868001,0.0,0.0,0.0,0.0
1565342432089867072,-0.0,-0.0,0.0,0.0,0.0,0.0
1565342432139859520,-0.0,-0.0,0.0,0.0,0.0,0.0
1565342432190400458,-0.0,-0.0,0.0,0.0,0.0,0.0
1565342432240438895,-0.0,-0.0,0.0,0.0,0.0,0.0
1565342432291064155,-0.0,-0.0,0.0,0.0,0.0,0.0
1565342432340738843,-0.0,-0.0,0.0,0.0,0.0,0.0
1565342432394663582,-0.0,-0.0,0.0,0.0,0.0,0.0
1565342432441508478,-0.0,-0.0,0.0,0.0,0.0,0.0
1565342432500268895,-0.0,-0.0,0.0,0.0,0.0,0.0
1565342432540958634,-0.0,-0.0,0.0,0.0,0.0,0.0
1565342432593910718,-0.0,-0.0,0.0,0.0,0.0,0.0
1565342432641326343,-0.0,-0.0,0.0,0.0,0.0,0.0
1565342432691533009,-0.0,-0.0,0.0,0.0,0.0,0.0
1565342432741784259,-0.0,-0.0,0.0,0.0,0.0,0.0
1565342432792153843,-0.0,-0.0,0.0,0.0,0.0,0.0
1565342432841959155,-0.0,-0.0,0.0,0.0,0.0,0.0
1565342432985619103,-0.0,-0.175261378288,0.0,0.0,0.0,0.0
1565342433093435822,-0.0,-0.0884281843901,0.0,0.0,0.0,0.0
1565342433198383374,-0.0,-0.858940243721,0.0,0.0,0.0,0.0
1565342433301897228,-0.0,-1.0,0.0,0.0,0.0,0.0
1565342433351986499,-0.0,-1.0,0.0,0.0,0.0,0.0
1565342433402465874,-0.0,-1.0,0.0,0.0,0.0,0.0
1565342433452196342,-0.0,-1.0,0.0,0.0,0.0,0.0
1565342433502081030,-0.0,-1.0,0.0,0.0,0.0,0.0
1565342433646084415,-0.0,-0.0,0.0,0.0,0.0,0.0
1565342433696216915,-0.0,-0.0,0.0,0.0,0.0,0.0
1565342433746566447,-0.0,-0.0,0.0,0.0,0.0,0.0
1565342433797028686,-0.0,-0.0,0.0,0.0,0.0,0.0
1565342433863788894,-0.0,-0.0,0.0,0.0,0.0,0.0
1565342433903289155,-0.0,-0.0,0.0,0.0,0.0,0.0
1565342434009434780,0.598504900932,-0.0,0.0,0.0,0.0,0.0
1565342434113669571,0.609363079071,-0.0,0.0,0.0,0.0,0.0
1565342434234344103,0.674479961395,-0.0,0.0,0.0,0.0,0.0
1565342434341992280,0.934947371483,-0.0,0.0,0.0,0.0,0.0
1565342434445847540,1.0,0.077602148056,0.0,0.0,0.0,0.0
1565342434552145196,1.0,0.077602148056,0.0,0.0,0.0,0.0
1565342434677319259,1.0,0.0884603112936,0.0,0.0,0.0,0.0
1565342434728348113,1.0,0.0884603112936,0.0,0.0,0.0,0.0
1565342434777890040,1.0,0.0884603112936,0.0,0.0,0.0,0.0
1565342434912528529,1.0,0.077602148056,0.0,0.0,0.0,0.0
1565342435014004311,1.0,0.0884603112936,0.0,0.0,0.0,0.0
1565342435117914154,1.0,0.0884603112936,0.0,0.0,0.0,0.0
1565342435167710456,1.0,0.0884603112936,0.0,0.0,0.0,0.0
1565342435218103842,1.0,0.0884603112936,0.0,0.0,0.0,0.0
1565342435349804623,1.0,0.0884603112936,0.0,0.0,0.0,0.0
1565342435454158217,-0.0,-0.0,0.0,0.0,0.0,0.0
1565342435504446602,-0.0,-0.0,0.0,0.0,0.0,0.0
1565342435554336810,-0.0,-0.0,0.0,0.0,0.0,0.0
1565342435604450092,-0.0,-0.0,0.0,0.0,0.0,0.0
1565342435654983633,-0.0,-0.0,0.0,0.0,0.0,0.0
1565342435704752540,-0.0,-0.0,0.0,0.0,0.0,0.0
1565342435754843581,-0.0,-0.0,0.0,0.0,0.0,0.0
1565342435809825612,-0.0,-0.0,0.0,0.0,0.0,0.0
1565342435858493269,-0.0,-0.0,0.0,0.0,0.0,0.0
1565342435917378008,-0.0,-0.0,0.0,0.0,0.0,0.0
1565342435984157435,-0.0,-0.0,0.0,0.0,0.0,0.0
1565342436015958529,-0.0,-0.0,0.0,0.0,0.0,0.0
1565342436056471498,-0.0,-0.0,0.0,0.0,0.0,0.0
1565342436202013008,-0.0,-0.0,0.0,0.0,0.0,-0.5
1565342436252521289,-0.0,-0.0,0.0,0.0,0.0,-0.5
1565342436302361029,-0.0,-0.0,0.0,0.0,0.0,-0.5
1565342436434042435,-0.0,-0.0,0.0,0.0,0.0,0.0
1565342436484771602,-0.0,-0.0,0.0,0.0,0.0,0.0
1565342436534768633,-0.0,-0.0,0.0,0.0,0.0,0.0
1565342436638308425,-0.0,-0.0,0.0,0.0,0.0,-0.5
1565342436742041706,-0.0,-0.0,0.0,0.0,0.0,0.0
1565342436792087175,-0.0,-0.0,0.0,0.0,0.0,0.0
1565342436841944258,-0.0,-0.0,0.0,0.0,0.0,0.0
1565342436915904831,-0.0,-0.0,0.0,0.0,0.0,0.0
1565342436942395143,-0.0,-0.0,0.0,0.0,0.0,0.0
1565342436992651081,-0.0,-0.0,0.0,0.0,0.0,0.0
1565342437043382591,-0.0,-0.0,0.0,0.0,0.0,0.0
1565342437093868945,-0.0,-0.0,0.0,0.0,0.0,0.0
1565342437222936914,-0.0,-1.0,0.0,0.0,0.0,0.0
1565342437272532904,-0.0,-1.0,0.0,0.0,0.0,0.0
1565342437323569987,-0.0,-1.0,0.0,0.0,0.0,0.0
1565342437373441445,-0.0,-1.0,0.0,0.0,0.0,0.0
1565342437424256549,-0.0,-1.0,0.0,0.0,0.0,0.0
1565342437475702956,-0.0,-1.0,0.0,0.0,0.0,0.0
1565342437526266758,-0.0,-1.0,0.0,0.0,0.0,0.0
1565342437574015612,-0.0,-1.0,0.0,0.0,0.0,0.0
1565342437625096653,-0.0,-1.0,0.0,0.0,0.0,0.0
1565342437673597591,-0.0,-1.0,0.0,0.0,0.0,0.0
1565342437790195716,-0.0,-0.0,0.0,0.0,0.0,0.0
1565342437852644987,-0.0,-0.0,0.0,0.0,0.0,0.0
1565342437890022278,-0.0,-0.0,0.0,0.0,0.0,0.0
1565342437940324935,-0.0,-0.0,0.0,0.0,0.0,0.0
1565342438042091184,1.0,-0.0,0.0,0.0,0.0,0.0
1565342438145858945,1.0,-0.0,0.0,0.0,0.0,0.0
1565342438199793997,1.0,-0.0,0.0,0.0,0.0,0.0
1565342438246768684,1.0,-0.0,0.0,0.0,0.0,0.0
1565342438296228111,1.0,-0.0,0.0,0.0,0.0,0.0
1565342438346125247,1.0,-0.0,0.0,0.0,0.0,0.0
1565342438397045664,1.0,-0.0,0.0,0.0,0.0,0.0
1565342438542212695,1.0,-0.0,0.0,0.0,0.0,0.0
1565342438658567955,-0.0,-0.0,0.0,0.0,0.0,0.0
1565342438708472903,-0.0,-0.0,0.0,0.0,0.0,0.0
1565342438759466184,-0.0,-0.0,0.0,0.0,0.0,0.0
1565342438808854101,-0.0,-0.0,0.0,0.0,0.0,0.0
1565342438859167070,-0.0,-0.0,0.0,0.0,0.0,0.0
1565342438909471809,-0.0,-0.0,0.0,0.0,0.0,0.0
1565342438959606132,-0.0,-0.0,0.0,0.0,0.0,0.0
1565342439010568215,-0.0,-0.0,0.0,0.0,0.0,0.0
1565342439062860455,-0.0,-0.0,0.0,0.0,0.0,0.0
1565342439112530819,-0.0,-0.0,0.0,0.0,0.0,0.0
1565342439160281080,-0.0,-0.0,0.0,0.0,0.0,0.0
1565342439210172486,-0.0,-0.0,0.0,0.0,0.0,0.0
1565342439263576861,-0.0,-0.0,0.0,0.0,0.0,0.0
1565342439311366653,-0.0,-0.0,0.0,0.0,0.0,0.0
1565342439360644517,-0.0,-0.0,0.0,0.0,0.0,0.0
1565342439410773684,-0.0,-0.0,0.0,0.0,0.0,0.0
1565342439463400924,-0.0,-0.0,0.0,0.0,0.0,0.0
1565342439513630767,-0.0,-0.0,0.0,0.0,0.0,0.0
1565342439563426496,-0.0,-0.0,0.0,0.0,0.0,0.0
1565342439613830663,-0.0,-0.0,0.0,0.0,0.0,0.0
1565342439666202382,-0.0,-0.0,0.0,0.0,0.0,0.0
1565342439715619361,-0.0,-0.0,0.0,0.0,0.0,0.0
1565342439764358944,-0.0,-0.0,0.0,0.0,0.0,0.0
1565342439819114830,-0.0,-0.0,0.0,0.0,0.0,0.0
1565342439865607225,-0.0,-0.0,0.0,0.0,0.0,0.0
1565342439915285038,-0.0,-0.0,0.0,0.0,0.0,0.0
1565342439965140298,-0.0,-0.0,0.0,0.0,0.0,0.0
1565342440028550090,-0.0,-0.0,0.0,0.0,0.0,0.0
1565342440067740402,-0.0,-0.0,0.0,0.0,0.0,0.0
1565342440115720246,-0.0,-0.0,0.0,0.0,0.0,0.0
1565342440166596288,-0.0,-0.0,0.0,0.0,0.0,0.0
1565342440216011809,-0.0,-0.0,0.0,0.0,0.0,0.0
1565342440290652069,-0.0,-0.0,0.0,0.0,0.0,0.0
1565342440316981027,-0.0,-0.0,0.0,0.0,0.0,0.0
1565342440366628215,-0.0,-0.0,0.0,0.0,0.0,0.0
1565342440416741444,-0.0,-0.0,0.0,0.0,0.0,0.0
1565342440467134152,-0.0,-0.0,0.0,0.0,0.0,0.0
1565342440516983996,-0.0,-0.0,0.0,0.0,0.0,0.0
1565342440567160767,-0.0,-0.0,0.0,0.0,0.0,0.0
1565342440617192798,-0.0,-0.0,0.0,0.0,0.0,0.0
1565342440667961131,-0.0,-0.0,0.0,0.0,0.0,0.0
1565342440717878892,-0.0,-0.0,0.0,0.0,0.0,0.0
1565342440767691288,-0.0,-0.0,0.0,0.0,0.0,0.0
1565342440818443475,-0.0,-0.0,0.0,0.0,0.0,0.0
1565342440950802902,-0.0,-0.0,0.0,0.0,0.0,-0.39692774415
1565342441059035819,-0.0,-0.0,0.0,0.0,0.0,-0.239564672112
1565342441162054308,-0.0,-0.0,0.0,0.0,0.0,0.0
1565342441212351287,-0.0,-0.0,0.0,0.0,0.0,0.0
1565342441263175767,-0.0,-0.0,0.0,0.0,0.0,0.0
1565342441313466652,-0.0,-0.0,0.0,0.0,0.0,0.0
1565342441364634360,-0.0,-0.0,0.0,0.0,0.0,0.0
1565342441415836131,-0.0,-0.0,0.0,0.0,0.0,0.0
1565342441464249204,-0.0,-0.0,0.0,0.0,0.0,0.0
1565342441517679725,-0.0,-0.0,0.0,0.0,0.0,0.0
1565342441563475454,-0.0,-0.0,0.0,0.0,0.0,0.0
1565342441614535506,-0.0,-0.0,0.0,0.0,0.0,0.0
1565342441664081339,-0.0,-0.0,0.0,0.0,0.0,0.0
1565342441714058423,-0.0,-0.0,0.0,0.0,0.0,0.0
1565342441765182902,-0.0,-0.0,0.0,0.0,0.0,0.0
1565342441829083735,-0.0,-0.0,0.0,0.0,0.0,0.0
1565342441877265610,-0.0,-0.0,0.0,0.0,0.0,0.0
1565342441915279881,-0.0,-0.0,0.0,0.0,0.0,0.0
1565342441967000193,-0.0,-0.0,0.0,0.0,0.0,0.0
1565342442016074725,-0.0,-0.0,0.0,0.0,0.0,0.0
1565342442158827381,-0.0,-0.0,0.0,0.0,0.0,-0.266694039106
1565342442263167589,-0.0,-0.0,0.0,0.0,0.0,-0.407785922289
1565342442366457902,-0.0,-0.0,0.0,0.0,0.0,-0.234151661396
1565342442469560349,-0.0,-0.0,0.0,0.0,0.0,0.0
1565342442520261912,-0.0,-0.0,0.0,0.0,0.0,0.0
1565342442570856391,-0.0,-0.0,0.0,0.0,0.0,0.0
1565342442620637589,-0.0,-0.0,0.0,0.0,0.0,0.0
1565342442670939047,-0.0,-0.0,0.0,0.0,0.0,0.0
1565342442720759464,-0.0,-0.0,0.0,0.0,0.0,0.0
1565342442770897224,-0.0,-0.0,0.0,0.0,0.0,0.0
1565342442894188995,-0.0,-0.0,0.0,0.0,0.0,0.5
1565342442945154203,-0.0,-0.0,0.0,0.0,0.0,0.5
1565342442995079099,-0.0,-0.0,0.0,0.0,0.0,0.5
1565342443045291964,-0.0,-0.0,0.0,0.0,0.0,0.5
1565342443103859724,-0.0,-0.0,0.0,0.0,0.0,0.5
1565342443144967745,-0.0,-0.0,0.0,0.0,0.0,0.5
1565342443195007485,-0.0,-0.0,0.0,0.0,0.0,0.5
1565342443245332797,-0.0,-0.0,0.0,0.0,0.0,0.5
1565342443295974932,-0.0,-0.0,0.0,0.0,0.0,0.5
1565342443345440922,-0.0,-0.0,0.0,0.0,0.0,0.5
1565342443396537693,-0.0,-0.0,0.0,0.0,0.0,0.5
1565342443446072380,-0.0,-0.0,0.0,0.0,0.0,0.5
1565342443496516599,-0.0,-0.0,0.0,0.0,0.0,0.5
1565342443546459984,-0.0,-0.0,0.0,0.0,0.0,0.5
1565342443597344516,-0.0,-0.0,0.0,0.0,0.0,0.5
1565342443647038266,-0.0,-0.0,0.0,0.0,0.0,0.5
1565342443696502016,-0.0,-0.0,0.0,0.0,0.0,0.5
1565342443747197224,-0.0,-0.0,0.0,0.0,0.0,0.5
1565342443801976547,-0.0,-0.0,0.0,0.0,0.0,0.5
1565342443855470089,-0.0,-0.0,0.0,0.0,0.0,0.5
1565342443897813526,-0.0,-0.0,0.0,0.0,0.0,0.5
1565342443947839828,-0.0,-0.0,0.0,0.0,0.0,0.5
1565342444000727849,-0.0,-0.0,0.0,0.0,0.0,0.5
1565342444048907276,-0.0,-0.0,0.0,0.0,0.0,0.5
1565342444098276495,-0.0,-0.0,0.0,0.0,0.0,0.5
1565342444148427640,-0.0,-0.0,0.0,0.0,0.0,0.5
1565342444199730140,-0.0,-0.0,0.0,0.0,0.0,0.5
1565342444248744359,-0.0,-0.0,0.0,0.0,0.0,0.5
1565342444298528318,-0.0,-0.0,0.0,0.0,0.0,0.5
1565342444349276130,-0.0,-0.0,0.0,0.0,0.0,0.5
1565342444400573578,-0.0,-0.0,0.0,0.0,0.0,0.5
1565342444449754880,-0.0,-0.0,0.0,0.0,0.0,0.5
1565342444499718265,-0.0,-0.0,0.0,0.0,0.0,0.5
1565342444550630505,-0.0,-0.0,0.0,0.0,0.0,0.5
1565342444600854932,-0.0,-0.0,0.0,0.0,0.0,0.5
1565342444650179099,-0.0,-0.0,0.0,0.0,0.0,0.5
1565342444700403422,-0.0,-0.0,0.0,0.0,0.0,0.5
1565342444750739307,-0.0,-0.0,0.0,0.0,0.0,0.5
1565342444801625192,-0.0,-0.0,0.0,0.0,0.0,0.5
1565342444851486130,-0.0,-0.0,0.0,0.0,0.0,0.5
1565342444902705244,-0.0,-0.0,0.0,0.0,0.0,0.5
1565342444951943994,-0.0,-0.0,0.0,0.0,0.0,0.5
1565342445054159828,-0.0,-0.0,0.0,0.0,0.0,0.0
1565342445104086026,-0.0,-0.0,0.0,0.0,0.0,0.0
1565342445154613213,-0.0,-0.0,0.0,0.0,0.0,0.0
1565342445205244776,-0.0,-0.0,0.0,0.0,0.0,0.0
1565342445350723057,0.576820731163,-0.0,0.0,0.0,0.0,0.0
1565342445454378734,0.804713666439,-0.0,0.0,0.0,0.0,0.0
1565342445578130765,0.902372896671,-0.0,0.0,0.0,0.0,0.0
1565342445715868734,0.902372896671,-0.0,0.0,0.0,0.0,0.0
1565342445841227692,0.902372896671,-0.0,0.0,0.0,0.0,0.0
1565342445937855088,0.902372896671,-0.0,0.0,0.0,0.0,0.0
1565342445992702119,0.902372896671,-0.0,0.0,0.0,0.0,0.0
1565342446090064879,0.91323107481,-0.0,0.0,0.0,0.0,0.0
1565342446230328942,0.945773422718,-0.0,0.0,0.0,0.0,0.0
1565342446295702327,0.945773422718,-0.0,0.0,0.0,0.0,0.0
1565342446419230869,0.945773422718,-0.0,0.0,0.0,0.0,-0.244993761182
1565342446538248890,0.934947371483,-0.0,0.0,0.0,0.0,-0.0116717237979
1565342446646236494,0.934947371483,-0.0,0.0,0.0,0.0,0.0
1565342446750018889,0.956631600857,-0.0,0.0,0.0,0.0,0.0
1565342446857869254,1.0,-0.0,0.0,0.0,0.0,0.0
1565342446912189983,1.0,-0.0,0.0,0.0,0.0,0.0
1565342446981650087,1.0,-0.0,0.0,0.0,0.0,0.0
1565342447010414306,1.0,-0.0,0.0,0.0,0.0,0.0
1565342447058644098,1.0,-0.0,0.0,0.0,0.0,0.0
1565342447182228473,1.0,-0.0,0.0,0.0,0.0,-0.5
1565342447232701441,1.0,-0.0,0.0,0.0,0.0,-0.5
1565342447282564931,1.0,-0.0,0.0,0.0,0.0,-0.5
1565342447410437066,1.0,-0.0,0.0,0.0,0.0,0.0
1565342447461103889,1.0,-0.0,0.0,0.0,0.0,0.0
1565342447511044514,1.0,-0.0,0.0,0.0,0.0,0.0
1565342447561108785,1.0,-0.0,0.0,0.0,0.0,0.0
1565342447610779983,1.0,-0.0,0.0,0.0,0.0,0.0
1565342447669057222,1.0,-0.0,0.0,0.0,0.0,0.0
1565342447711281597,1.0,-0.0,0.0,0.0,0.0,0.0
1565342447762080868,1.0,-0.0,0.0,0.0,0.0,0.0
1565342447822390660,1.0,-0.0,0.0,0.0,0.0,0.0
1565342448028586806,-0.0,-0.0,0.0,0.0,0.0,0.0
1565342448050000295,-0.0,-0.0,0.0,0.0,0.0,0.0
1565342448238177847,-0.0,-0.0,0.0,0.0,0.0,0.0
1565342448242671285,-0.0,-0.0,0.0,0.0,0.0,0.0
1565342448243044983,-0.0,-0.0,0.0,0.0,0.0,0.0
1565342448250782639,-0.0,-0.0,0.0,0.0,0.0,0.0
1565342448300764358,-0.0,-0.0,0.0,0.0,0.0,0.0
1565342448460792222,-0.0,-0.0,0.0,0.0,0.0,0.0
1565342448472056753,-0.0,-0.0,0.0,0.0,0.0,0.0
1565342448472137639,-0.0,-0.0,0.0,0.0,0.0,0.0
1565342448501730972,-0.0,-0.0,0.0,0.0,0.0,0.0
1565342448552990451,-0.0,-0.0,0.0,0.0,0.0,0.0
1565342448633959253,-0.0,-0.0,0.0,0.0,0.0,0.0
1565342448652201962,-0.0,-0.0,0.0,0.0,0.0,0.0
1565342448886632691,-0.0,-0.0,0.0,0.0,0.0,0.0
1565342448896716076,-0.0,-0.0,0.0,0.0,0.0,0.0
1565342448896865139,-0.0,-0.0,0.0,0.0,0.0,0.0
1565342448938572951,-0.0,-0.0,0.0,0.0,0.0,0.190718993545
1565342449046764409,-0.0,-0.0,0.0,0.0,0.0,0.261264950037
1565342449204519045,-0.0,-0.0,0.0,0.0,0.0,0.413182884455
1565342449207598680,-0.0,-0.0,0.0,0.0,0.0,0.413182884455
1565342449491396753,-0.0,-0.0,0.0,0.0,0.0,0.418611943722
1565342449499802274,-0.0,-0.0,0.0,0.0,0.0,0.0
1565342449499865972,-0.0,-0.0,0.0,0.0,0.0,0.0
1565342449519549670,-0.0,-0.0,0.0,0.0,0.0,0.0
1565342449686341076,0.370611965656,-0.0,0.0,0.0,0.0,0.0
1565342449762707065,0.5008456707,-0.0,0.0,0.0,0.0,0.0
1565342449916116232,0.576820731163,-0.0,0.0,0.0,0.0,0.0
1565342450076078107,0.663621783257,-0.0,0.0,0.0,0.0,0.0
1565342450117161492,0.7938554883,-0.0,0.0,0.0,0.0,0.0
1565342450270862638,0.804713666439,-0.0,0.0,0.0,0.0,0.0
1565342450273576128,0.804713666439,-0.0,0.0,0.0,0.0,0.0
1565342450466316961,0.804713666439,-0.0,0.0,0.0,0.0,-0.201593220234
1565342450486384461,0.804713666439,-0.0,0.0,0.0,0.0,-0.201593220234
1565342450661469721,0.804713666439,-0.0,0.0,0.0,0.0,-0.5
1565342450669182169,0.804713666439,-0.0,0.0,0.0,0.0,-0.5
1565342450719308680,0.804713666439,-0.0,0.0,0.0,0.0,-0.5
1565342450857779148,0.804713666439,-0.0,0.0,0.0,0.0,-0.5
1565342450860114878,0.804713666439,-0.0,0.0,0.0,0.0,-0.5
1565342450870666023,0.804713666439,-0.0,0.0,0.0,0.0,-0.5
1565342450920047013,0.804713666439,-0.0,0.0,0.0,0.0,-0.5
1565342451050777117,0.804713666439,-0.0,0.0,0.0,0.0,-0.5
1565342451111084148,0.804713666439,-0.0,0.0,0.0,0.0,-0.5
1565342451337767169,0.804713666439,-0.0,0.0,0.0,0.0,0.0
1565342451349339356,0.804713666439,-0.0,0.0,0.0,0.0,0.0
1565342451394209252,0.826397895813,-0.0,0.0,0.0,0.0,-0.5
1565342451531877690,0.837256014347,-0.0,0.0,0.0,0.0,-0.5
1565342451729966127,0.924089252949,-0.0,0.0,0.0,0.0,-0.0116717237979
1565342451734317429,1.0,-0.0,0.0,0.0,0.0,0.0
1565342451781272221,1.0,-0.0,0.0,0.0,0.0,0.0
1565342451927893367,1.0,-0.0,0.0,0.0,0.0,0.0
1565342451992814200,1.0,-0.0,0.0,0.0,0.0,0.0
1565342451992995085,1.0,-0.0,0.0,0.0,0.0,0.0
1565342452123442221,1.0,-0.0,0.0,0.0,0.0,0.0
1565342452142160971,1.0,-0.0,0.0,0.0,0.0,0.0
1565342452142222481,1.0,-0.0,0.0,0.0,0.0,0.0
1565342452147221700,1.0,-0.0,0.0,0.0,0.0,0.0
1565342452181687637,1.0,-0.0,0.0,0.0,0.0,0.0
1565342452317784721,1.0,-0.0,0.0,0.0,0.0,0.0
1565342452320783419,1.0,-0.0,0.0,0.0,0.0,0.0
1565342452512471700,1.0,0.077602148056,0.0,0.0,0.0,0.0
1565342452532648262,1.0,0.164435341954,0.0,0.0,0.0,0.0
1565342452707710293,1.0,0.32721143961,0.0,0.0,0.0,0.0
1565342452757962221,1.0,0.370611965656,0.0,0.0,0.0,0.0
1565342452902631595,1.0,0.381470113993,0.0,0.0,0.0,0.0
1565342452984596023,0.544246196747,0.153577163815,0.0,0.0,0.0,0.0
1565342453090220970,0.511703848839,0.153577163815,0.0,0.0,0.0,0.0
1565342453194397116,0.576820731163,0.175293505192,0.0,0.0,0.0,0.0
1565342453297958522,0.565962553024,0.175293505192,0.0,0.0,0.0,0.0
1565342453406483470,0.631079435349,0.272952735424,0.0,0.0,0.0,0.0
1565342453514746335,0.837256014347,0.28381088376,0.0,0.0,0.0,0.0
1565342453619005606,0.945773422718,0.164435341954,0.0,0.0,0.0,0.0
1565342453669046179,0.945773422718,0.164435341954,0.0,0.0,0.0,0.0
1565342453815449824,1.0,0.142719000578,0.0,0.0,0.0,0.0
1565342453865485189,1.0,0.142719000578,0.0,0.0,0.0,0.0
1565342453994701908,0.652763605118,-0.0,0.0,0.0,0.0,0.0
1565342454098122533,-0.0,-0.0,0.0,0.0,0.0,0.0
1565342454226424720,-0.0,-0.0,0.0,0.0,0.0,-0.5
1565342454276459355,-0.0,-0.0,0.0,0.0,0.0,-0.5
1565342454326829876,-0.0,-0.0,0.0,0.0,0.0,-0.5
1565342454376781074,-0.0,-0.0,0.0,0.0,0.0,-0.5
1565342454494327741,-0.0,-0.0,0.0,0.0,0.0,0.0
1565342454544142116,-0.0,-0.0,0.0,0.0,0.0,0.0
1565342454595250814,-0.0,-0.0,0.0,0.0,0.0,0.0
1565342454644855657,-0.0,-0.0,0.0,0.0,0.0,0.0
1565342454695083001,-0.0,-0.0,0.0,0.0,0.0,0.0
1565342454745550709,-0.0,-0.0,0.0,0.0,0.0,0.0
1565342454872197480,0.370611965656,-0.0,0.0,0.0,0.0,0.0
1565342454986939720,0.62022125721,-0.00162711844314,0.0,0.0,0.0,0.0
1565342455091060657,0.641937553883,-0.240346118808,0.0,0.0,0.0,0.0
1565342455194325553,0.663621783257,-0.240346118808,0.0,0.0,0.0,0.0
1565342455299033886,0.674479961395,-0.229520067573,0.0,0.0,0.0,0.375211417675
1565342455402544615,0.717880487442,-0.240346118808,0.0,0.0,0.0,0.5
1565342455518164147,0.804713666439,-0.240346118808,0.0,0.0,0.0,0.0
1565342455568944407,0.804713666439,-0.240346118808,0.0,0.0,0.0,0.0
1565342455618878938,0.804713666439,-0.240346118808,0.0,0.0,0.0,0.0
1565342455668591386,0.804713666439,-0.240346118808,0.0,0.0,0.0,0.0
1565342455718975449,0.804713666439,-0.240346118808,0.0,0.0,0.0,0.0
1565342455857190240,0.511703848839,-0.164403215051,0.0,0.0,0.0,-0.39692774415
1565342456005267532,-0.0,-0.0,0.0,0.0,0.0,-0.5
1565342456011809511,-0.0,-0.0,0.0,0.0,0.0,-0.5
1565342456039439667,-0.0,-0.0,0.0,0.0,0.0,-0.5
1565342456089334771,-0.0,-0.0,0.0,0.0,0.0,-0.5
1565342456139248886,-0.0,-0.0,0.0,0.0,0.0,-0.5
1565342456189556282,-0.0,-0.0,0.0,0.0,0.0,-0.5
1565342456239483209,-0.0,-0.0,0.0,0.0,0.0,-0.5
1565342456289713053,-0.0,-0.0,0.0,0.0,0.0,-0.5
1565342456339815709,-0.0,-0.0,0.0,0.0,0.0,-0.5
1565342456390456490,-0.0,-0.0,0.0,0.0,0.0,-0.5
1565342456440338157,-0.0,-0.0,0.0,0.0,0.0,-0.5
1565342456490271334,-0.0,-0.0,0.0,0.0,0.0,-0.5
1565342456540537636,-0.0,-0.0,0.0,0.0,0.0,-0.5
1565342456591049875,-0.0,-0.0,0.0,0.0,0.0,-0.5
1565342456641202219,-0.0,-0.0,0.0,0.0,0.0,-0.5
1565342456691029875,-0.0,-0.0,0.0,0.0,0.0,-0.5
1565342456741465396,-0.0,-0.0,0.0,0.0,0.0,-0.5
1565342456791730084,-0.0,-0.0,0.0,0.0,0.0,-0.5
1565342456841738521,-0.0,-0.0,0.0,0.0,0.0,-0.5
1565342456891597011,-0.0,-0.0,0.0,0.0,0.0,-0.5
1565342456999319615,0.0233434475958,-0.0,0.0,0.0,0.0,0.0
1565342457102381438,0.685338079929,-0.0,0.0,0.0,0.0,0.0
1565342457206401021,0.848114192486,-0.0,0.0,0.0,0.0,0.0
1565342457314437844,0.924089252949,-0.0,0.0,0.0,0.0,0.0
1565342457364635917,0.924089252949,-0.0,0.0,0.0,0.0,0.0
1565342457414221646,0.924089252949,-0.0,0.0,0.0,0.0,0.0
1565342457467037583,0.924089252949,-0.0,0.0,0.0,0.0,0.0
1565342457514927375,0.924089252949,-0.0,0.0,0.0,0.0,0.0
1565342457565460083,0.924089252949,-0.0,0.0,0.0,0.0,0.0
1565342457614894927,0.924089252949,-0.0,0.0,0.0,0.0,0.0
1565342457668796229,0.924089252949,-0.0,0.0,0.0,0.0,0.0
1565342457716699042,0.924089252949,-0.0,0.0,0.0,0.0,0.0
1565342457767787739,0.924089252949,-0.0,0.0,0.0,0.0,0.0
1565342457906546073,1.0,-0.0,0.0,0.0,0.0,0.0
1565342457982963364,1.0,-0.0,0.0,0.0,0.0,0.0
1565342458004786541,1.0,-0.0,0.0,0.0,0.0,0.0
1565342458053480760,1.0,-0.0,0.0,0.0,0.0,0.0
1565342458104446593,1.0,-0.0,0.0,0.0,0.0,0.0
1565342458153440187,1.0,-0.0,0.0,0.0,0.0,0.0
1565342458209643781,1.0,-0.0,0.0,0.0,0.0,0.0
1565342458253594354,1.0,-0.0,0.0,0.0,0.0,0.0
1565342458303332583,1.0,-0.0,0.0,0.0,0.0,0.0
1565342458353790395,1.0,-0.0,0.0,0.0,0.0,0.0
1565342458404189770,1.0,-0.0,0.0,0.0,0.0,0.0
1565342458454347531,1.0,-0.0,0.0,0.0,0.0,0.0
1565342458504797583,1.0,-0.0,0.0,0.0,0.0,0.0
1565342458556174458,1.0,-0.0,0.0,0.0,0.0,0.0
1565342458606923677,1.0,-0.0,0.0,0.0,0.0,0.0
1565342458723674614,1.0,-0.0,0.0,0.0,0.0,0.391482591629
1565342458838410708,1.0,-0.0,0.0,0.0,0.0,0.0
1565342458888343104,1.0,-0.0,0.0,0.0,0.0,0.0
1565342458967383677,1.0,-0.0,0.0,0.0,0.0,0.0
1565342458989120343,1.0,-0.0,0.0,0.0,0.0,0.0
1565342459038956437,1.0,-0.0,0.0,0.0,0.0,0.0
1565342459089192010,1.0,-0.0,0.0,0.0,0.0,0.0
1565342459140230916,1.0,-0.0,0.0,0.0,0.0,0.0
1565342459189602739,1.0,-0.0,0.0,0.0,0.0,0.0
1565342459239653676,1.0,-0.0,0.0,0.0,0.0,0.0
1565342459290068781,1.0,-0.0,0.0,0.0,0.0,0.0
1565342459339808208,1.0,-0.0,0.0,0.0,0.0,0.0
1565342459390511593,1.0,-0.0,0.0,0.0,0.0,0.0
1565342459440221645,1.0,-0.0,0.0,0.0,0.0,0.0
1565342459490345864,1.0,-0.0,0.0,0.0,0.0,0.0
1565342459540334093,1.0,-0.0,0.0,0.0,0.0,0.0
1565342459591357374,1.0,-0.0,0.0,0.0,0.0,0.0
1565342459641437582,1.0,-0.0,0.0,0.0,0.0,0.0
1565342459693368832,1.0,-0.0,0.0,0.0,0.0,0.0
1565342459754921957,1.0,-0.0,0.0,0.0,0.0,0.0
1565342459806059145,1.0,-0.0,0.0,0.0,0.0,0.0
1565342459851209562,1.0,-0.0,0.0,0.0,0.0,0.0
1565342459892316489,1.0,-0.0,0.0,0.0,0.0,0.0
1565342459942482322,1.0,-0.0,0.0,0.0,0.0,0.0
1565342460008666124,1.0,-0.0,0.0,0.0,0.0,0.0
1565342460042919874,1.0,-0.0,0.0,0.0,0.0,0.0
1565342460093305239,1.0,-0.0,0.0,0.0,0.0,0.0
1565342460143403468,1.0,-0.0,0.0,0.0,0.0,0.0
1565342460194039405,1.0,-0.0,0.0,0.0,0.0,0.0
1565342460244684353,1.0,-0.0,0.0,0.0,0.0,0.0
1565342460296066228,1.0,-0.0,0.0,0.0,0.0,0.0
1565342460344222426,1.0,-0.0,0.0,0.0,0.0,0.0
1565342460394177009,1.0,-0.0,0.0,0.0,0.0,0.0
1565342460444206593,1.0,-0.0,0.0,0.0,0.0,0.0
1565342460494092947,1.0,-0.0,0.0,0.0,0.0,0.0
1565342460544793520,1.0,-0.0,0.0,0.0,0.0,0.0
1565342460683250655,1.0,-0.0,0.0,0.0,0.0,-0.391498655081
1565342460786203780,1.0,-0.0,0.0,0.0,0.0,-0.5
1565342460899407686,1.0,-0.0,0.0,0.0,0.0,0.0
1565342460948392061,1.0,-0.0,0.0,0.0,0.0,0.0
1565342460999095447,1.0,-0.0,0.0,0.0,0.0,0.0
1565342461048784874,1.0,-0.0,0.0,0.0,0.0,0.0
1565342461098619561,1.0,-0.0,0.0,0.0,0.0,0.0
1565342461149094717,1.0,-0.0,0.0,0.0,0.0,0.0
1565342461199930915,1.0,-0.0,0.0,0.0,0.0,0.0
1565342461249274509,1.0,-0.0,0.0,0.0,0.0,0.0
1565342461299593832,1.0,-0.0,0.0,0.0,0.0,0.0
1565342461350013780,1.0,-0.0,0.0,0.0,0.0,0.0
1565342461400314040,1.0,-0.0,0.0,0.0,0.0,0.0
1565342461450434248,1.0,-0.0,0.0,0.0,0.0,0.0
1565342461501268728,1.0,-0.0,0.0,0.0,0.0,0.0
1565342461551229926,1.0,-0.0,0.0,0.0,0.0,0.0
1565342461601263363,1.0,-0.0,0.0,0.0,0.0,0.0
1565342461651032582,1.0,-0.0,0.0,0.0,0.0,0.0
1565342461794894717,1.0,-0.0,0.0,0.0,0.0,-0.5
1565342461855593727,1.0,-0.0,0.0,0.0,0.0,-0.5
1565342461895109873,1.0,-0.0,0.0,0.0,0.0,-0.5
1565342462006922686,1.0,-0.0,0.0,0.0,0.0,0.0
1565342462057237790,1.0,-0.0,0.0,0.0,0.0,0.0
1565342462191321019,1.0,-0.0,0.0,0.0,0.0,-0.5
1565342462240681175,1.0,-0.0,0.0,0.0,0.0,-0.5
1565342462374489873,1.0,-0.0,0.0,0.0,0.0,0.0
1565342462424771904,1.0,-0.0,0.0,0.0,0.0,0.0
1565342462474910081,1.0,-0.0,0.0,0.0,0.0,0.0
1565342462524921644,1.0,-0.0,0.0,0.0,0.0,0.0
1565342462575455654,1.0,-0.0,0.0,0.0,0.0,0.0
1565342462625214144,1.0,-0.0,0.0,0.0,0.0,0.0
1565342462675535811,1.0,-0.0,0.0,0.0,0.0,0.0
1565342462791156956,1.0,-0.0,0.0,0.0,0.0,-0.451186448336
1565342462894248571,1.0,-0.0,0.0,0.0,0.0,-0.5
1565342462944913050,1.0,-0.0,0.0,0.0,0.0,-0.5
1565342463082725081,-0.0,-0.0,0.0,0.0,0.0,0.0
1565342463132803050,-0.0,-0.0,0.0,0.0,0.0,0.0
1565342463183014092,-0.0,-0.0,0.0,0.0,0.0,0.0
1565342463233567998,-0.0,-0.0,0.0,0.0,0.0,0.0
1565342463283554039,-0.0,-0.0,0.0,0.0,0.0,0.0
1565342463334188623,-0.0,-0.0,0.0,0.0,0.0,0.0
1565342463459820966,-0.0,-0.0,0.0,0.0,0.0,-0.5
1565342463599731487,-0.0,-0.0,0.0,0.0,0.0,0.0
1565342463649391904,-0.0,-0.0,0.0,0.0,0.0,0.0
1565342463699031643,-0.0,-0.0,0.0,0.0,0.0,0.0
1565342463749797841,-0.0,-0.0,0.0,0.0,0.0,0.0
1565342463800154925,-0.0,-0.0,0.0,0.0,0.0,0.0
1565342463860961227,-0.0,-0.0,0.0,0.0,0.0,0.0
1565342463986922789,-0.0,-0.0,0.0,0.0,0.0,-0.5
1565342464036794925,-0.0,-0.0,0.0,0.0,0.0,-0.5
1565342464167305602,-0.0,-0.0,0.0,0.0,0.0,0.0
1565342464217180966,-0.0,-0.0,0.0,0.0,0.0,0.0
1565342464335567008,0.609363079071,-0.0,0.0,0.0,0.0,0.0
1565342464443289716,0.62022125721,-0.0,0.0,0.0,0.0,0.0
1565342464551939404,0.62022125721,-0.0,0.0,0.0,0.0,0.0
1565342464654501695,0.609363079071,-0.0,0.0,0.0,0.0,0.0
1565342464762636174,0.62022125721,-0.0,0.0,0.0,0.0,0.0
1565342464870774351,0.62022125721,-0.0,0.0,0.0,0.0,0.0
1565342464920565289,0.62022125721,-0.0,0.0,0.0,0.0,0.0
1565342465050903883,0.641937553883,-0.0,0.0,0.0,0.0,0.0
1565342465183214612,0.641937553883,-0.0,0.0,0.0,0.0,0.0
1565342465290923518,0.641937553883,-0.0,0.0,0.0,0.0,0.0
1565342465402443674,0.652763605118,-0.0,0.0,0.0,0.0,0.0
1565342465452628726,0.652763605118,-0.0,0.0,0.0,0.0,0.0
1565342465586150549,0.641937553883,-0.0,0.0,0.0,0.0,0.0225138254464
1565342465690596434,0.641937553883,-0.0,0.0,0.0,0.0,0.5
1565342465802743309,0.652763605118,-0.0,0.0,0.0,0.0,0.5
1565342465938299559,0.652763605118,-0.0,0.0,0.0,0.0,0.5
1565342466010738257,0.641937553883,-0.0,0.0,0.0,0.0,0.0
1565342466114925705,0.641937553883,-0.0,0.0,0.0,0.0,0.0
1565342466165553674,0.641937553883,-0.0,0.0,0.0,0.0,0.0
1565342466307475757,0.641937553883,-0.0,0.0,0.0,0.0,0.125602141023
1565342466410640236,0.652763605118,-0.0,0.0,0.0,0.0,0.0
1565342466518549403,0.641937553883,-0.0,0.0,0.0,0.0,0.0
1565342466569373986,0.641937553883,-0.0,0.0,0.0,0.0,0.0
1565342466619017788,0.641937553883,-0.0,0.0,0.0,0.0,0.0
1565342466669311642,0.641937553883,-0.0,0.0,0.0,0.0,0.0
1565342466719269142,0.641937553883,-0.0,0.0,0.0,0.0,0.0
1565342466827018986,0.641937553883,-0.0,0.0,0.0,0.0,0.0
1565342466935278830,0.641937553883,-0.0,0.0,0.0,0.0,0.299236387014
1565342467039714403,0.641937553883,-0.0,0.0,0.0,0.0,0.0
1565342467167132475,0.641937553883,-0.0,0.0,0.0,0.0,0.0
1565342467218600705,0.641937553883,-0.0,0.0,0.0,0.0,0.0
1565342467267677111,0.641937553883,-0.0,0.0,0.0,0.0,0.0
1565342467394940757,0.641937553883,-0.0,0.0,0.0,0.0,0.5
1565342467498349402,0.652763605118,-0.0,0.0,0.0,0.0,0.0
1565342467612321642,0.641937553883,-0.0,0.0,0.0,0.0,0.0
1565342467714795965,0.641937553883,-0.0,0.0,0.0,0.0,0.5
1565342467841178621,0.641937553883,-0.0,0.0,0.0,0.0,0.0
1565342467931592683,0.641937553883,-0.0,0.0,0.0,0.0,0.0225138254464
1565342468047490131,0.641937553883,-0.0,0.0,0.0,0.0,0.169018730521
1565342468139635652,0.641937553883,-0.0,0.0,0.0,0.0,0.0
1565342468188979663,0.641937553883,-0.0,0.0,0.0,0.0,0.0
1565342468238784715,0.641937553883,-0.0,0.0,0.0,0.0,0.0
1565342468383167475,0.804713666439,-0.0,0.0,0.0,0.0,0.0
1565342468486420912,0.934947371483,-0.0,0.0,0.0,0.0,0.0
1565342468599539558,0.967489778996,-0.0,0.0,0.0,0.0,0.0
1565342468648740183,0.967489778996,-0.0,0.0,0.0,0.0,0.0
1565342468794726121,0.956631600857,-0.0,0.0,0.0,0.0,0.0
1565342468923506694,0.956631600857,-0.0,0.0,0.0,0.0,0.0
1565342469035169766,0.956631600857,-0.0,0.0,0.0,0.0,0.0
1565342469150792996,0.956631600857,-0.0,0.0,0.0,0.0,0.0
1565342469201395548,0.956631600857,-0.0,0.0,0.0,0.0,0.0
1565342469251355287,0.956631600857,-0.0,0.0,0.0,0.0,0.0
1565342469301064818,0.956631600857,-0.0,0.0,0.0,0.0,0.0
1565342469352123620,0.956631600857,-0.0,0.0,0.0,0.0,0.0
1565342469403761016,0.956631600857,-0.0,0.0,0.0,0.0,0.0
1565342469451736433,0.956631600857,-0.0,0.0,0.0,0.0,0.0
1565342469501786537,0.956631600857,-0.0,0.0,0.0,0.0,0.0
1565342469552017631,0.956631600857,-0.0,0.0,0.0,0.0,0.0
1565342469678393360,1.0,-0.0,0.0,0.0,0.0,0.0
1565342469728488204,1.0,-0.0,0.0,0.0,0.0,0.0
1565342469778792891,1.0,-0.0,0.0,0.0,0.0,0.0
1565342469836027058,1.0,-0.0,0.0,0.0,0.0,0.0
1565342469885010235,1.0,-0.0,0.0,0.0,0.0,0.0
1565342469929934454,1.0,-0.0,0.0,0.0,0.0,0.0
1565342469979925391,1.0,-0.0,0.0,0.0,0.0,0.0
1565342470029810651,1.0,-0.0,0.0,0.0,0.0,0.0
1565342470079756589,1.0,-0.0,0.0,0.0,0.0,0.0
1565342470131483412,1.0,-0.0,0.0,0.0,0.0,0.0
1565342470180764922,1.0,-0.0,0.0,0.0,0.0,0.0
1565342470231488099,1.0,-0.0,0.0,0.0,0.0,0.0
1565342470339386849,-0.0,-0.0,0.0,0.0,0.0,0.337223917246
1565342470442630755,-0.0,-0.0,0.0,0.0,0.0,0.5
1565342470587221328,-0.0,-0.0,0.0,0.0,0.0,0.0
1565342470637239557,-0.0,-0.0,0.0,0.0,0.0,0.0
1565342470687438151,-0.0,-0.0,0.0,0.0,0.0,0.0
1565342470737707474,-0.0,-0.0,0.0,0.0,0.0,0.0
1565342470787986537,-0.0,-0.0,0.0,0.0,0.0,0.0
1565342470837716797,-0.0,-0.0,0.0,0.0,0.0,0.0
1565342470888807630,-0.0,-0.0,0.0,0.0,0.0,0.0
1565342471040907474,-0.0,-0.0,0.0,0.0,0.0,0.5
1565342471143674922,-0.0,-0.0,0.0,0.0,0.0,0.0
1565342471194072109,-0.0,-0.0,0.0,0.0,0.0,0.0
1565342471242677838,-0.0,-0.0,0.0,0.0,0.0,0.0
1565342471366672422,1.0,-0.0,0.0,0.0,0.0,0.0
1565342471416541953,1.0,-0.0,0.0,0.0,0.0,0.0
1565342471466855963,1.0,-0.0,0.0,0.0,0.0,0.0
1565342471519172890,1.0,-0.0,0.0,0.0,0.0,0.0
1565342471567092265,1.0,-0.0,0.0,0.0,0.0,0.0
1565342471617322265,1.0,-0.0,0.0,0.0,0.0,0.0
1565342471667440495,1.0,-0.0,0.0,0.0,0.0,0.0
1565342471718086692,1.0,-0.0,0.0,0.0,0.0,0.0
1565342471767786276,1.0,-0.0,0.0,0.0,0.0,0.0
1565342471882744140,-0.0,-0.0,0.0,0.0,0.0,0.0
1565342471929551536,-0.0,-0.0,0.0,0.0,0.0,0.0
1565342471982019036,-0.0,-0.0,0.0,0.0,0.0,0.0
1565342472031347838,-0.0,-0.0,0.0,0.0,0.0,0.0
1565342472080205234,-0.0,-0.0,0.0,0.0,0.0,0.0
1565342472130548307,-0.0,-0.0,0.0,0.0,0.0,0.0
1565342472180581953,-0.0,-0.0,0.0,0.0,0.0,0.0
1565342472231878463,-0.0,-0.0,0.0,0.0,0.0,0.0
1565342472280644921,-0.0,-0.0,0.0,0.0,0.0,0.0
1565342472332022942,-0.0,-0.0,0.0,0.0,0.0,0.0
1565342472380629973,-0.0,-0.0,0.0,0.0,0.0,0.0
1565342472430679765,-0.0,-0.0,0.0,0.0,0.0,0.0
1565342472480859401,-0.0,-0.0,0.0,0.0,0.0,0.0
1565342472531460807,-0.0,-0.0,0.0,0.0,0.0,0.0
1565342472581395807,-0.0,-0.0,0.0,0.0,0.0,0.0
1565342472714616588,-0.0,-0.0,0.0,0.0,0.0,0.0
1565342472818733619,0.164435341954,-0.0,0.0,0.0,0.0,0.0
1565342472922940442,0.392328292131,-0.0,0.0,0.0,0.0,0.0
1565342473036267942,0.403186440468,-0.0,0.0,0.0,0.0,0.0
1565342473174868359,0.555104374886,-0.0,0.0,0.0,0.0,0.0
1565342473278629348,0.565962553024,-0.0,0.0,0.0,0.0,0.0
1565342473382746692,0.565962553024,-0.0,0.0,0.0,0.0,0.0
1565342473486679817,0.674479961395,-0.0,0.0,0.0,0.0,0.0
1565342473610405285,0.750454962254,-0.0,0.0,0.0,0.0,0.0
1565342473723167577,0.772139191628,-0.0,0.0,0.0,0.0,0.0
1565342473801181952,0.772139191628,-0.0,0.0,0.0,0.0,0.0
1565342473886929087,0.826397895813,-0.0,0.0,0.0,0.0,0.0
1565342473987397108,0.91323107481,-0.0,0.0,0.0,0.0,0.0
1565342474124200025,-0.0,-0.0,0.0,0.0,0.0,0.0
1565342474174936067,-0.0,-0.0,0.0,0.0,0.0,0.0
1565342474222942160,-0.0,-0.0,0.0,0.0,0.0,0.0
1565342474351288983,-0.0,-0.0,0.0,0.0,0.0,-0.5
1565342474401264712,-0.0,-0.0,0.0,0.0,0.0,-0.5
1565342474451794816,-0.0,-0.0,0.0,0.0,0.0,-0.5
1565342474502499504,-0.0,-0.0,0.0,0.0,0.0,-0.5
1565342474552473358,-0.0,-0.0,0.0,0.0,0.0,-0.5
1565342474602066118,-0.0,-0.0,0.0,0.0,0.0,-0.5
1565342474652286691,-0.0,-0.0,0.0,0.0,0.0,-0.5
1565342474702160702,-0.0,-0.0,0.0,0.0,0.0,-0.5
1565342474752455545,-0.0,-0.0,0.0,0.0,0.0,-0.5
1565342474802705337,-0.0,-0.0,0.0,0.0,0.0,-0.5
1565342474853991223,-0.0,-0.0,0.0,0.0,0.0,-0.5
1565342474903327212,-0.0,-0.0,0.0,0.0,0.0,-0.5
1565342474953536587,-0.0,-0.0,0.0,0.0,0.0,-0.5
1565342475004358045,-0.0,-0.0,0.0,0.0,0.0,-0.5
1565342475053584868,-0.0,-0.0,0.0,0.0,0.0,-0.5
1565342475103954035,-0.0,-0.0,0.0,0.0,0.0,-0.5
1565342475154353306,-0.0,-0.0,0.0,0.0,0.0,-0.5
1565342475278847420,-0.0,-0.0,0.0,0.0,0.0,0.0
1565342475328517785,-0.0,-0.0,0.0,0.0,0.0,0.0
1565342475379648358,-0.0,-0.0,0.0,0.0,0.0,0.0
1565342475523742941,1.0,-0.0,0.0,0.0,0.0,0.0
1565342475573957420,1.0,-0.0,0.0,0.0,0.0,0.0
1565342475624097524,1.0,-0.0,0.0,0.0,0.0,0.0
1565342475673658410,1.0,-0.0,0.0,0.0,0.0,0.0
1565342475723845545,1.0,-0.0,0.0,0.0,0.0,0.0
1565342475774088201,1.0,-0.0,0.0,0.0,0.0,0.0
1565342475829977472,1.0,-0.0,0.0,0.0,0.0,0.0
1565342475878297993,1.0,-0.0,0.0,0.0,0.0,0.0
1565342475924828930,1.0,-0.0,0.0,0.0,0.0,0.0
1565342475994699660,1.0,-0.0,0.0,0.0,0.0,0.0
1565342476026999920,1.0,-0.0,0.0,0.0,0.0,0.0
1565342476075109764,1.0,-0.0,0.0,0.0,0.0,0.0
1565342476127096014,1.0,-0.0,0.0,0.0,0.0,0.0
1565342476175670597,1.0,-0.0,0.0,0.0,0.0,0.0
1565342476294852212,-0.0,-0.0,0.0,0.0,0.0,-0.201593220234
1565342476399296534,-0.0,-0.0,0.0,0.0,0.0,-0.5
1565342476507332941,-0.0,-0.0,0.0,0.0,0.0,-0.5
1565342476557068566,-0.0,-0.0,0.0,0.0,0.0,-0.5
1565342476607118045,-0.0,-0.0,0.0,0.0,0.0,-0.5
1565342476746944347,-0.0,-0.0,0.0,0.0,0.0,-0.5
1565342476797494659,-0.0,-0.0,0.0,0.0,0.0,-0.5
1565342476931457420,-0.0,-0.0,0.0,0.0,0.0,0.103901870549
1565342477035254555,0.175293505192,-0.0,0.0,0.0,0.0,0.0
1565342477138962888,0.576820731163,-0.0,0.0,0.0,0.0,0.0
1565342477242955805,0.598504900932,-0.0,0.0,0.0,0.0,0.0
1565342477293130024,0.598504900932,-0.0,0.0,0.0,0.0,0.0
1565342477399500544,0.685338079929,-0.0,0.0,0.0,0.0,0.0
1565342477503188513,0.707054436207,-0.0,0.0,0.0,0.0,0.0
1565342477606816586,0.782997310162,-0.0,0.0,0.0,0.0,0.0
1565342477710832211,0.804713666439,-0.0,0.0,0.0,0.0,0.0
1565342477760779503,0.804713666439,-0.0,0.0,0.0,0.0,0.0
1565342477814202315,0.804713666439,-0.0,0.0,0.0,0.0,0.0
1565342477925765440,0.815571844578,-0.0,0.0,0.0,0.0,0.0
1565342477985240336,0.815571844578,-0.0,0.0,0.0,0.0,0.0
1565342478016591325,0.815571844578,-0.0,0.0,0.0,0.0,0.0
1565342478163673461,0.804713666439,-0.0,0.0,0.0,0.0,0.391482591629
1565342478267951377,0.804713666439,-0.0,0.0,0.0,0.0,0.163589656353
1565342478371346586,0.815571844578,-0.0,0.0,0.0,0.0,0.0
1565342478495448304,0.815571844578,-0.0,0.0,0.0,0.0,0.0
1565342478639668096,0.815571844578,-0.0,0.0,0.0,0.0,0.402340769768
1565342478743582002,0.815571844578,-0.0,0.0,0.0,0.0,0.0
1565342478851829971,0.837256014347,-0.0,0.0,0.0,0.0,0.310094565153
1565342478954768200,0.848114192486,-0.0,0.0,0.0,0.0,0.0
1565342479005045179,0.848114192486,-0.0,0.0,0.0,0.0,0.0
1565342479139104138,0.848114192486,-0.0,0.0,0.0,0.0,0.0
1565342479254708460,0.902372896671,-0.0,0.0,0.0,0.0,0.0
1565342479386883356,0.924089252949,-0.0,0.0,0.0,0.0,0.0
1565342479519256064,0.934947371483,-0.0,0.0,0.0,0.0,0.0
1565342479651394919,0.97834789753,-0.0,0.0,0.0,0.0,0.0
1565342479766719346,1.0,-0.0,0.0,0.0,0.0,0.0
1565342479819395856,1.0,-0.0,0.0,0.0,0.0,0.0
1565342479867570075,1.0,-0.0,0.0,0.0,0.0,0.0
1565342479917694554,1.0,-0.0,0.0,0.0,0.0,0.0
1565342479967444398,1.0,-0.0,0.0,0.0,0.0,0.0
1565342480018422939,1.0,-0.0,0.0,0.0,0.0,0.0
1565342480068357106,1.0,-0.0,0.0,0.0,0.0,0.0
1565342480133143200,1.0,-0.0,0.0,0.0,0.0,0.0
1565342480168601012,1.0,-0.0,0.0,0.0,0.0,0.0
1565342480218483043,1.0,-0.0,0.0,0.0,0.0,0.0
1565342480269457991,1.0,-0.0,0.0,0.0,0.0,0.0
1565342480318967523,1.0,-0.0,0.0,0.0,0.0,0.0
1565342480369285595,1.0,-0.0,0.0,0.0,0.0,0.0
1565342480419061064,1.0,-0.0,0.0,0.0,0.0,0.0
1565342480469993356,1.0,-0.0,0.0,0.0,0.0,0.0
1565342480519448668,1.0,-0.0,0.0,0.0,0.0,0.0
1565342480569343981,1.0,-0.0,0.0,0.0,0.0,0.0
1565342480675554345,0.609363079071,-0.0,0.0,0.0,0.0,-0.451186448336
1565342480779549710,-0.0,-0.0,0.0,0.0,0.0,-0.5
1565342480829724970,-0.0,-0.0,0.0,0.0,0.0,-0.5
1565342480934758929,-0.0,-0.0,0.0,0.0,0.0,-0.5
1565342481059243303,-0.0,-0.0,0.0,0.0,0.0,-0.5
1565342481109424866,-0.0,-0.0,0.0,0.0,0.0,-0.5
1565342481215502522,-0.0,-0.0,0.0,0.0,0.0,0.0
1565342481266084814,-0.0,-0.0,0.0,0.0,0.0,0.0
1565342481371408616,0.511703848839,-0.0,0.0,0.0,0.0,0.0
1565342481475248147,0.91323107481,-0.0,0.0,0.0,0.0,0.0
1565342481587441793,0.91323107481,-0.0,0.0,0.0,0.0,0.0
1565342481637475439,0.91323107481,-0.0,0.0,0.0,0.0,0.0
1565342481751400595,0.891514718533,-0.0,0.0,0.0,0.0,0.0
1565342481868837262,0.826397895813,-0.0,0.0,0.0,0.0,0.0
1565342481919191011,0.826397895813,-0.0,0.0,0.0,0.0,0.0
1565342482033291845,0.826397895813,-0.0,0.0,0.0,0.0,-0.310110628605
1565342482143725543,0.685338079929,-0.0,0.0,0.0,0.0,0.0
1565342482243402418,-0.0,-0.0,0.0,0.0,0.0,0.0
1565342482293402522,-0.0,-0.0,0.0,0.0,0.0,0.0
1565342482343751740,-0.0,-0.0,0.0,0.0,0.0,0.0
1565342482459465178,0.435728818178,-0.0,0.0,0.0,0.0,-0.00624264124781
1565342482563507522,0.576820731163,-0.0,0.0,0.0,0.0,0.0
1565342482613886115,0.576820731163,-0.0,0.0,0.0,0.0,0.0
1565342482719045959,0.631079435349,-0.0,0.0,0.0,0.0,0.0
1565342482823463407,0.663621783257,-0.0,0.0,0.0,0.0,-0.36436933279
1565342482933005699,0.761313140392,-0.0,0.0,0.0,0.0,-0.451186448336
1565342483035555021,0.815571844578,-0.0,0.0,0.0,0.0,0.0
1565342483144152574,0.804713666439,-0.0,0.0,0.0,0.0,0.0
1565342483279374292,0.804713666439,-0.0,0.0,0.0,0.0,0.0
1565342483391233198,0.804713666439,-0.0,0.0,0.0,0.0,-0.0550883188844
1565342483496080073,0.902372896671,-0.0,0.0,0.0,0.0,-0.196164146066
1565342483602518875,0.924089252949,-0.0,0.0,0.0,0.0,-0.36436933279
1565342483707635855,0.924089252949,-0.0,0.0,0.0,0.0,-0.391498655081
1565342483848816271,0.924089252949,-0.0,0.0,0.0,0.0,-0.5
1565342483970538615,0.934947371483,-0.0,0.0,0.0,0.0,-0.5
1565342484021531688,0.934947371483,-0.0,0.0,0.0,0.0,-0.5
1565342484071388927,0.934947371483,-0.0,0.0,0.0,0.0,-0.5
1565342484199350386,0.956631600857,-0.0,0.0,0.0,0.0,0.0
1565342484339385854,1.0,0.0559179410338,0.0,0.0,0.0,0.0
1565342484465947261,1.0,-0.0,0.0,0.0,0.0,0.304665476084
1565342484567146010,1.0,-0.0,0.0,0.0,0.0,0.5
1565342484703573458,1.0,-0.0,0.0,0.0,0.0,0.0
1565342484831651792,1.0,-0.0,0.0,0.0,0.0,0.0
1565342484959649292,1.0,-0.0,0.0,0.0,0.0,0.250406771898
1565342485063531948,1.0,-0.0,0.0,0.0,0.0,0.0
1565342485113368719,1.0,-0.0,0.0,0.0,0.0,0.0
1565342485163189500,1.0,-0.0,0.0,0.0,0.0,0.0
1565342485279538875,1.0,-0.0,0.0,0.0,0.0,0.5
1565342485383224187,1.0,-0.0,0.0,0.0,0.0,0.0
1565342485433292416,1.0,-0.0,0.0,0.0,0.0,0.0
1565342485539114500,1.0,-0.0,0.0,0.0,0.0,0.299236387014
1565342485643165073,1.0,-0.0,0.0,0.0,0.0,0.0
1565342485747207156,1.0,-0.0,0.0,0.0,0.0,0.391482591629
1565342485868190593,1.0,-0.0,0.0,0.0,0.0,0.0
1565342485901237677,1.0,-0.0,0.0,0.0,0.0,0.0
1565342486031652625,1.0,-0.0,0.0,0.0,0.0,0.185289919376
1565342486136069552,1.0,-0.0,0.0,0.0,0.0,0.0
1565342486275493041,1.0,-0.0,0.0,0.0,0.0,0.429470121861
1565342486382557520,1.0,-0.0,0.0,0.0,0.0,0.0
1565342486429476218,1.0,-0.0,0.0,0.0,0.0,0.0
1565342486535800385,1.0,-0.0,0.0,0.0,0.0,0.5
1565342486650866426,1.0,-0.0,0.0,0.0,0.0,0.0
1565342486701350020,1.0,-0.0,0.0,0.0,0.0,0.0
1565342486751558614,1.0,-0.0,0.0,0.0,0.0,0.0
1565342486891093249,1.0,-0.0,0.0,0.0,0.0,0.5
1565342487023992676,1.0,-0.0,0.0,0.0,0.0,0.0
1565342487073028770,1.0,-0.0,0.0,0.0,0.0,0.0
1565342487123362260,1.0,-0.0,0.0,0.0,0.0,0.0
1565342487240357416,1.0,-0.0,0.0,0.0,0.0,0.5
1565342487374894343,1.0,-0.0,0.0,0.0,0.0,0.0
1565342487511364343,1.0,-0.0,0.0,0.0,0.0,0.5
1565342487635205801,1.0,-0.0,0.0,0.0,0.0,0.0
1565342487783177468,1.0,-0.0,0.0,0.0,0.0,0.5
1565342487891013718,1.0,-0.0,0.0,0.0,0.0,0.0
1565342487958533718,1.0,-0.0,0.0,0.0,0.0,0.0
1565342487997722103,1.0,-0.0,0.0,0.0,0.0,0.0
1565342488042038926,1.0,-0.0,0.0,0.0,0.0,0.0
1565342488092028457,1.0,-0.0,0.0,0.0,0.0,0.0
1565342488232986530,1.0,-0.0,0.0,0.0,0.0,0.5
1565342488335275228,1.0,-0.0,0.0,0.0,0.0,0.0
1565342488386653249,1.0,-0.0,0.0,0.0,0.0,0.0
1565342488437485436,1.0,-0.0,0.0,0.0,0.0,0.0
1565342488488825332,1.0,-0.0,0.0,0.0,0.0,0.0
1565342488536593353,1.0,-0.0,0.0,0.0,0.0,0.0
1565342488585633613,1.0,-0.0,0.0,0.0,0.0,0.0
1565342488716448457,1.0,-0.0,0.0,0.0,0.0,-0.266694039106
1565342488819736165,1.0,-0.0,0.0,0.0,0.0,-0.5
