%time,field.header.seq,field.header.stamp,field.header.frame_id,field.pose.position.x,field.pose.position.y,field.pose.position.z,field.pose.orientation.x,field.pose.orientation.y,field.pose.orientation.z,field.pose.orientation.w
1565342400259901616,61805,1565342400204399679,map,0.97149848938,0.319841384888,0.0,0.0,0.0,0.109576267168,0.993978390949
1565342400326382605,61806,1565342400271265148,map,0.972063064575,0.321245193481,0.0,0.0,0.0,0.111375446081,0.993778400857
1565342400393365574,61807,1565342400337755304,map,0.971789360046,0.323532104492,0.0,0.0,0.0,0.112986924977,0.993596474825
1565342400459996563,61808,1565342400404482127,map,0.970949172974,0.325166702271,0.0,0.0,0.0,0.114810934099,0.99338736121
1565342400533551720,61809,1565342400473094575,map,0.970728874207,0.326769828796,0.0,0.0,0.0,0.116608642331,0.993177942029
1565342400599013907,61810,1565342400539759575,map,0.969957351685,0.327578544617,0.0,0.0,0.0,0.118575177771,0.992945077644
1565342400665847292,61811,1565342400606174002,map,0.969820022583,0.329978942871,0.0,0.0,0.0,0.119811397809,0.9927966705
1565342400732840365,61812,1565342400673409419,map,0.969851493835,0.330673217773,0.0,0.0,0.0,0.120861410961,0.992669390754
1565342400800791928,61813,1565342400740236606,map,0.968671798706,0.331448554993,0.0,0.0,0.0,0.120035351051,0.992769618037
1565342400867845365,61814,1565342400806591658,map,0.968503952026,0.331828117371,0.0,0.0,0.0,0.118028838466,0.993010167768
1565342400933907084,61815,1565342400872751971,map,0.967981338501,0.334553718567,0.0,0.0,0.0,0.115078354163,0.993356417608
1565342400999813074,61816,1565342400939783689,map,0.967364311218,0.335886001587,0.0,0.0,0.0,0.113308285078,0.993559878685
1565342401066352344,61817,1565342401006440981,map,0.966512680054,0.337303161621,0.0,0.0,0.0,0.111630666078,0.993749764473
1565342401132817657,61818,1565342401072947596,map,0.966348648071,0.338600158691,0.0,0.0,0.0,0.109678250708,0.993967142979
1565342401199989011,61819,1565342401140156502,map,0.966061592102,0.340379714966,0.0,0.0,0.0,0.107549044389,0.994199780251
1565342401266256251,61820,1565342401206293585,map,0.965780258179,0.342294692993,0.0,0.0,0.0,0.104627741683,0.994511455776
1565342401332509792,61821,1565342401273044627,map,0.964082717896,0.343338012695,0.0,0.0,0.0,0.100276563971,0.994959602556
1565342401400612865,61822,1565342401339595304,map,0.963829040527,0.344964981079,0.0,0.0,0.0,0.0958921340156,0.995391731247
1565342401467702813,61823,1565342401406166710,map,0.964413642883,0.347890853882,0.0,0.0,0.0,0.091569070075,0.995798727357
1565342401533061198,61824,1565342401473312856,map,0.96259021759,0.348524093628,0.0,0.0,0.0,0.0884457466461,0.996080995653
1565342401600191407,61825,1565342401539656606,map,0.962041854858,0.349812507629,0.0,0.0,0.0,0.0848157259616,0.996396654265
1565342401666096823,61826,1565342401606210981,map,0.9632396698,0.352131843567,0.0,0.0,0.0,0.0807131165126,0.996737374047
1565342401732689011,61827,1565342401672881033,map,0.963310241699,0.353178024292,0.0,0.0,0.0,0.0769719436379,0.997033259171
1565342401799861980,61828,1565342401739921085,map,0.96222114563,0.354990005493,0.0,0.0,0.0,0.073392749719,0.997303115551
1565342401865862552,61829,1565342401806223689,map,0.961006164551,0.35620880127,0.0,0.0,0.0,0.0703402638441,0.997523056015
1565342401932883230,61830,1565342401872958897,map,0.960551261902,0.358659744263,0.0,0.0,0.0,0.0672365996817,0.997737059382
1565342401999293854,61831,1565342401939641449,map,0.960217475891,0.359407424927,0.0,0.0,0.0,0.0647053455068,0.99790441339
1565342402068310573,61832,1565342402006395251,map,0.960311889648,0.361404418945,0.0,0.0,0.0,0.0616472192007,0.998098001383
1565342402133970886,61833,1565342402073421710,map,0.95874786377,0.363202095032,0.0,0.0,0.0,0.0586936356197,0.998276042554
1565342402201293229,61834,1565342402140177543,map,0.958552360535,0.36479473114,0.0,0.0,0.0,0.0557578901526,0.998444318771
1565342402268158177,61835,1565342402206780303,map,0.958148002625,0.366226196289,0.0,0.0,0.0,0.0531952451293,0.998584130605
1565342402332472136,61836,1565342402272890720,map,0.957966804504,0.367671012878,0.0,0.0,0.0,0.0509907364001,0.998699126264
1565342402400148229,61837,1565342402339649001,map,0.957605361938,0.369969367981,0.0,0.0,0.0,0.0486739030256,0.998814723142
1565342402467341511,61838,1565342402406358949,map,0.958399772644,0.372494697571,0.0,0.0,0.0,0.0464893855595,0.998918784001
1565342402533601979,61839,1565342402473641293,map,0.958665847778,0.374371528625,0.0,0.0,0.0,0.0442654085336,0.999019806414
1565342402599677031,61840,1565342402539917595,map,0.95964050293,0.375665664673,0.0,0.0,0.0,0.0424169930848,0.999099994344
1565342402667320156,61841,1565342402606294887,map,0.962968826294,0.379095077515,0.0,0.0,0.0,0.0398476692002,0.999205766226
1565342402732959167,61842,1565342402672889887,map,0.963575363159,0.380801200867,0.0,0.0,0.0,0.0380007003836,0.999277712536
1565342402800560260,61843,1565342402740028897,map,0.967233657837,0.382682800293,0.0,0.0,0.0,0.0361837121726,0.999345155076
1565342402866941458,61844,1565342402806364418,map,0.9688539505,0.385480880737,0.0,0.0,0.0,0.0347760445146,0.99939513043
1565342402934279375,61845,1565342402873024991,map,0.971143722534,0.387553215027,0.0,0.0,0.0,0.0336252198125,0.999434512408
1565342402999875833,61846,1565342402939830407,map,0.975644111633,0.391164779663,0.0,0.0,0.0,0.0321360845531,0.99948350265
1565342403068028698,61847,1565342403006355772,map,0.980229377747,0.394041061401,0.0,0.0,0.0,0.0305294074892,0.999533869
1565342403133607448,61848,1565342403072988689,map,0.98558807373,0.39758014679,0.0,0.0,0.0,0.0290410175995,0.9995782207
1565342403199840000,61849,1565342403140040199,map,0.989916801453,0.399749755859,0.0,0.0,0.0,0.0279414809719,0.999609560599
1565342403266440885,61850,1565342403206449261,map,0.99674987793,0.403195381165,0.0,0.0,0.0,0.0269276841325,0.999637384169
1565342403332916614,61851,1565342403273013949,map,1.00350379944,0.405830383301,0.0,0.0,0.0,0.0262796720926,0.999654629777
1565342403399444323,61852,1565342403339741605,map,1.01113319397,0.409594535828,0.0,0.0,0.0,0.0256986449061,0.999669735288
1565342403467840469,61853,1565342403406390043,map,1.01890563965,0.412809371948,0.0,0.0,0.0,0.0252333133978,0.999681589255
1565342403534346979,61854,1565342403474053480,map,1.02552223206,0.41520690918,0.0,0.0,0.0,0.0249814067481,0.99968791596
1565342403600673698,61855,1565342403540565563,map,1.034532547,0.41921043396,0.0,0.0,0.0,0.0240795991848,0.999710044414
1565342403667482812,61856,1565342403606838115,map,1.04156494141,0.421246528625,0.0,0.0,0.0,0.0243222233148,0.999704170969
1565342403733198333,61857,1565342403672968584,map,1.05035686493,0.42458820343,0.0,0.0,0.0,0.0241110054369,0.999709287452
1565342403800225260,61858,1565342403739746553,map,1.0587310791,0.4287109375,0.0,0.0,0.0,0.0240826306917,0.999709971391
1565342403866902291,61859,1565342403806329522,map,1.06669139862,0.432615280151,0.0,0.0,0.0,0.0243174004907,0.999704288294
1565342403933321666,61860,1565342403873218949,map,1.07581520081,0.435954093933,0.0,0.0,0.0,0.024884415449,0.999690334988
1565342403999955520,61861,1565342403939872542,map,1.08654975891,0.441122055054,0.0,0.0,0.0,0.0242642488355,0.999705579773
1565342404066970416,61862,1565342404006266657,map,1.09572792053,0.444554328918,0.0,0.0,0.0,0.0246947856854,0.999695037279
1565342404133208125,61863,1565342404073011240,map,1.10502147675,0.448888778687,0.0,0.0,0.0,0.0248127387879,0.999692116601
1565342404199287395,61864,1565342404139695199,map,1.11516571045,0.453788757324,0.0,0.0,0.0,0.0244060286374,0.999702128519
1565342404266465989,61865,1565342404206534157,map,1.12460899353,0.456812858582,0.0,0.0,0.0,0.0251752285032,0.999683053707
1565342404332460156,61866,1565342404272975980,map,1.13630485535,0.461853027344,0.0,0.0,0.0,0.0246377148438,0.999696445431
1565342404399296197,61867,1565342404339774001,map,1.14575004578,0.464780807495,0.0,0.0,0.0,0.0253701292984,0.999678126468
1565342404465891145,61868,1565342404406264261,map,1.15598487854,0.468197822571,0.0,0.0,0.0,0.0250520664224,0.999686147732
1565342404532776770,61869,1565342404473465771,map,1.16619873047,0.471934318542,0.0,0.0,0.0,0.0232334389466,0.999730067226
1565342404599274374,61870,1565342404539706292,map,1.17521381378,0.475532531738,0.0,0.0,0.0,0.0210151493177,0.999779157364
1565342404666338853,61871,1565342404606410198,map,1.18584156036,0.479626655579,0.0,0.0,0.0,0.0183706305437,0.999831245728
1565342404734550103,61872,1565342404673346344,map,1.19692993164,0.484132766724,0.0,0.0,0.0,0.0161323869211,0.999869864578
1565342404800541666,61873,1565342404739856553,map,1.20721626282,0.488952636719,0.0,0.0,0.0,0.0145613918225,0.999893977314
1565342404866882395,61874,1565342404806371344,map,1.21790599823,0.493307113647,0.0,0.0,0.0,0.0129832013734,0.999915714689
1565342404934146405,61875,1565342404873551605,map,1.22867107391,0.497299194336,0.0,0.0,0.0,0.0114102234485,0.999934901282
1565342405001298749,61876,1565342404940544938,map,1.23923683167,0.501184463501,0.0,0.0,0.0,0.00991966418338,0.999950798921
1565342405067141770,61877,1565342405006907646,map,1.251704216,0.505513191223,0.0,0.0,0.0,0.00838181620044,0.999964871962
1565342405132547916,61878,1565342405073081448,map,1.26334953308,0.509859085083,0.0,0.0,0.0,0.00730538016835,0.999973315354
1565342405200779999,61879,1565342405139777594,map,1.27463245392,0.513180732727,0.0,0.0,0.0,0.00671148616632,0.999977477723
1565342405265630884,61880,1565342405206315875,map,1.28574848175,0.516702651978,0.0,0.0,0.0,0.00636451026683,0.999979746299
1565342405333400468,61881,1565342405273289886,map,1.29714775085,0.520787239075,0.0,0.0,0.0,0.00590508026108,0.999982564862
1565342405402436926,61882,1565342405339663740,map,1.30868244171,0.52404499054,0.0,0.0,0.0,0.00490928378493,0.999987949394
1565342405467940884,61883,1565342405406478844,map,1.32087516785,0.528028488159,0.0,0.0,0.0,0.00258207406779,0.999996666441
1565342405534104374,61884,1565342405473405250,map,1.33164787292,0.531847000122,0.0,0.0,0.0,-0.000159414600837,0.999999987293
1565342405600277343,61885,1565342405539818792,map,1.34299755096,0.535931587219,0.0,0.0,0.0,-0.00249782154438,0.999996880439
1565342405665762447,61886,1565342405606337906,map,1.35575580597,0.539240837097,0.0,0.0,0.0,-0.00417699381525,0.999991276323
1565342405732788020,61887,1565342405673250771,map,1.36737346649,0.543629646301,0.0,0.0,0.0,-0.00572836432671,0.999983592786
1565342405799080676,61888,1565342405739750354,map,1.3802280426,0.546663284302,0.0,0.0,0.0,-0.00729235690038,0.999973410412
1565342405867641405,61889,1565342405806349313,map,1.39366436005,0.550424575806,0.0,0.0,0.0,-0.00909259493198,0.999958661504
1565342405933729738,61890,1565342405873137802,map,1.40577507019,0.553262710571,0.0,0.0,0.0,-0.0106408096637,0.999943384982
1565342405999627238,61891,1565342405940103479,map,1.418176651,0.556141853333,0.0,0.0,0.0,-0.0119284263284,0.999928853792
1565342406065875988,61892,1565342406006381292,map,1.43287181854,0.559516906738,0.0,0.0,0.0,-0.0133190109743,0.999911298039
1565342406132172811,61893,1565342406073071917,map,1.44625663757,0.562169075012,0.0,0.0,0.0,-0.0145355429065,0.999894353416
1565342406200203332,61894,1565342406140560198,map,1.46060371399,0.565236091614,0.0,0.0,0.0,-0.0155994841809,0.999878320644
1565342406267418592,61895,1565342406206687594,map,1.47335529327,0.568354606628,0.0,0.0,0.0,-0.016850540099,0.99985801957
1565342406332822394,61896,1565342406273555198,map,1.48739433289,0.57081413269,0.0,0.0,0.0,-0.0182324398349,0.999833775254
1565342406400014738,61897,1565342406340426552,map,1.50166606903,0.573949813843,0.0,0.0,0.0,-0.0196703222992,0.999806520493
1565342406467332707,61898,1565342406407173844,map,1.51520061493,0.576585769653,0.0,0.0,0.0,-0.0209644294909,0.999780222197
1565342406532585780,61899,1565342406473453271,map,1.53067970276,0.580003738403,0.0,0.0,0.0,-0.0222356190399,0.999752758059
1565342406599005311,61900,1565342406539848479,map,1.54493522644,0.582473754883,0.0,0.0,0.0,-0.0230081358922,0.999735277802
1565342406669024530,61901,1565342406606338635,map,1.55999469757,0.585266113281,0.0,0.0,0.0,-0.0236860134918,0.999719447027
1565342406732415676,61902,1565342406673241708,map,1.57372570038,0.587114334106,0.0,0.0,0.0,-0.0240015899441,0.999711920345
1565342406799155988,61903,1565342406739767489,map,1.58916950226,0.589343070984,0.0,0.0,0.0,-0.024645606337,0.999696250912
1565342406866292446,61904,1565342406806405770,map,1.60626983643,0.591158866882,0.0,0.0,0.0,-0.0253785140889,0.999677913642
1565342406933405728,61905,1565342406873054000,map,1.62043094635,0.592671394348,0.0,0.0,0.0,-0.0258559097778,0.99966568008
1565342406998670988,61906,1565342406939749625,map,1.63518047333,0.595762252808,0.0,0.0,0.0,-0.0269212696462,0.999637556938
1565342407065653800,61907,1565342407006298010,map,1.65028858185,0.597312927246,0.0,0.0,0.0,-0.0268473866013,0.999639543952
1565342407132415155,61908,1565342407072994520,map,1.6646604538,0.598963737488,0.0,0.0,0.0,-0.0287675819648,0.999586127469
1565342407199226977,61909,1565342407139848427,map,1.67801189423,0.599617004395,0.0,0.0,0.0,-0.0319561523619,0.999489271741
1565342407265477238,61910,1565342407206158270,map,1.69552326202,0.600949287415,0.0,0.0,0.0,-0.0380316165548,0.999276536371
1565342407334296821,61911,1565342407272867645,map,1.70918273926,0.601564407349,0.0,0.0,0.0,-0.0451188980293,0.998981623975
1565342407399127134,61912,1565342407339583999,map,1.72289276123,0.602777481079,0.0,0.0,0.0,-0.0540007153117,0.998540896882
1565342407466679790,61913,1565342407406250301,map,1.73638916016,0.604202270508,0.0,0.0,0.0,-0.0638226409961,0.997961257012
1565342407533036248,61914,1565342407473295926,map,1.75154590607,0.605352401733,0.0,0.0,0.0,-0.0746973835061,0.997206247923
1565342407598817602,61915,1565342407539718687,map,1.76697063446,0.605854988098,0.0,0.0,0.0,-0.0852306830301,0.996361245066
1565342407665487602,61916,1565342407606253270,map,1.78291893005,0.606280326843,0.0,0.0,0.0,-0.0951222174631,0.995465601488
1565342407732645363,61917,1565342407673521760,map,1.80021953583,0.60648059845,0.0,0.0,0.0,-0.104763945582,0.994497116992
1565342407805565936,61918,1565342407740168426,map,1.81576251984,0.604356765747,0.0,0.0,0.0,-0.11473168788,0.993396516904
1565342407867989165,61919,1565342407806572853,map,1.83144187927,0.601748466492,0.0,0.0,0.0,-0.127017878389,0.991900427749
1565342407933026613,61920,1565342407873006968,map,1.8495054245,0.597467422485,0.0,0.0,0.0,-0.141517473616,0.989935757846
1565342407999884790,61921,1565342407939551239,map,1.86493492126,0.596814155579,0.0,0.0,0.0,-0.155470768161,0.987840493322
1565342408066725519,61922,1565342408006172801,map,1.88020610809,0.596311569214,0.0,0.0,0.0,-0.170447572922,0.985366746387
1565342408133453383,61923,1565342408073596760,map,1.8958234787,0.595609664917,0.0,0.0,0.0,-0.186222372567,0.98250762234
1565342408199749217,61924,1565342408139846291,map,1.91122150421,0.594653129578,0.0,0.0,0.0,-0.203406864484,0.979094299585
1565342408267434998,61925,1565342408206244676,map,1.9271774292,0.593748092651,0.0,0.0,0.0,-0.221217441171,0.975224509393
1565342408332788748,61926,1565342408272920666,map,1.94299602509,0.593852043152,0.0,0.0,0.0,-0.238864935139,0.971052801222
1565342408398599894,61927,1565342408339673218,map,1.95858478546,0.593091011047,0.0,0.0,0.0,-0.254703280807,0.967019254589
1565342408465658383,61928,1565342408406382749,map,1.97173023224,0.591238021851,0.0,0.0,0.0,-0.268714234553,0.963219943808
1565342408532493592,61929,1565342408473429155,map,1.9874124527,0.589460372925,0.0,0.0,0.0,-0.282381533773,0.959302178348
1565342408599061404,61930,1565342408540192697,map,2.00124073029,0.587040901184,0.0,0.0,0.0,-0.29562530363,0.955303972489
1565342408665955467,61931,1565342408606451082,map,2.01533603668,0.585537910461,0.0,0.0,0.0,-0.308051826067,0.951369577218
1565342408732169321,61932,1565342408672889051,map,2.03126621246,0.582522392273,0.0,0.0,0.0,-0.320558128874,0.94722884564
1565342408800105675,61933,1565342408739724103,map,2.0465631485,0.58056640625,0.0,0.0,0.0,-0.33195175451,0.943296365241
1565342408867419425,61934,1565342408806266030,map,2.06202793121,0.577771186829,0.0,0.0,0.0,-0.343027081774,0.939325513956
1565342408932947810,61935,1565342408873087957,map,2.07663059235,0.576161384583,0.0,0.0,0.0,-0.35278252453,0.935705343784
1565342408999135883,61936,1565342408939812593,map,2.0912733078,0.574053764343,0.0,0.0,0.0,-0.362504880653,0.931981872947
1565342409066588018,61937,1565342409006199103,map,2.10733604431,0.570610046387,0.0,0.0,0.0,-0.371663428831,0.928367543417
1565342409136106664,61938,1565342409073514936,map,2.12106609344,0.569826126099,0.0,0.0,0.0,-0.380388207631,0.924826908938
1565342409200601143,61939,1565342409140220926,map,2.13568210602,0.565523147583,0.0,0.0,0.0,-0.388815467789,0.921315652753
1565342409267256456,61940,1565342409206835145,map,2.15019702911,0.562713623047,0.0,0.0,0.0,-0.397025861885,0.917807422608
1565342409333005935,61941,1565342409273303582,map,2.16448020935,0.55896282196,0.0,0.0,0.0,-0.40470256333,0.914448377566
1565342409399785779,61942,1565342409339937749,map,2.18023204803,0.553738594055,0.0,0.0,0.0,-0.412345418474,0.911027582384
1565342409468439320,61943,1565342409406346394,map,2.19471549988,0.548072814941,0.0,0.0,0.0,-0.419390862288,0.907805763712
1565342409534847758,61944,1565342409473396603,map,2.20869922638,0.544344902039,0.0,0.0,0.0,-0.426250032674,0.90460538891
1565342409599596664,61945,1565342409540088269,map,2.22247123718,0.538377761841,0.0,0.0,0.0,-0.432999895769,0.901393970617
1565342409667366924,61946,1565342409606419884,map,2.2354888916,0.533472061157,0.0,0.0,0.0,-0.439439035307,0.898272416502
1565342409732698383,61947,1565342409673018582,map,2.24913597107,0.527868270874,0.0,0.0,0.0,-0.445830703558,0.895117301679
1565342409802917810,61948,1565342409739793061,map,2.26037311554,0.522466659546,0.0,0.0,0.0,-0.451190621638,0.892427600955
1565342409867488643,61949,1565342409806253478,map,2.27315807343,0.51655292511,0.0,0.0,0.0,-0.457270009808,0.889327913725
1565342409933644737,61950,1565342409872897540,map,2.28506183624,0.510217666626,0.0,0.0,0.0,-0.463685346842,0.885999943072
1565342410001262029,61951,1565342409939721915,map,2.29769706726,0.504292488098,0.0,0.0,0.0,-0.471452974468,0.881891202397
1565342410066012028,61952,1565342410006110144,map,2.30985832214,0.4979429245,0.0,0.0,0.0,-0.479835737823,0.877358344525
1565342410133266508,61953,1565342410073018738,map,2.32184696198,0.490354537964,0.0,0.0,0.0,-0.488506332016,0.872560349535
1565342410200928591,61954,1565342410139638425,map,2.33323478699,0.483484268188,0.0,0.0,0.0,-0.496475931763,0.86805048769
1565342410266708747,61955,1565342410206245665,map,2.34521770477,0.475723266602,0.0,0.0,0.0,-0.504097332923,0.863646848509
1565342410332934997,61956,1565342410272868634,map,2.35629844666,0.467933654785,0.0,0.0,0.0,-0.511484448585,0.859292533923
1565342410400054424,61957,1565342410340013790,map,2.36647129059,0.459634780884,0.0,0.0,0.0,-0.519166139335,0.854673340972
1565342410468106455,61958,1565342410406278894,map,2.37823295593,0.450241088867,0.0,0.0,0.0,-0.527563220079,0.849515773144
1565342410534048955,61959,1565342410473829727,map,2.38767337799,0.442893981934,0.0,0.0,0.0,-0.535057737839,0.84481549298
1565342410600642497,61960,1565342410540286602,map,2.39883232117,0.434150695801,0.0,0.0,0.0,-0.542446289513,0.840090485004
1565342410667309945,61961,1565342410606833634,map,2.40861988068,0.426325798035,0.0,0.0,0.0,-0.549486388204,0.835502668565
1565342410733188955,61962,1565342410673069363,map,2.41878318787,0.41787147522,0.0,0.0,0.0,-0.556241831213,0.831020472196
1565342410799630882,61963,1565342410739687956,map,2.42849063873,0.409319877625,0.0,0.0,0.0,-0.563212911195,0.826311815638
1565342410867070414,61964,1565342410806446967,map,2.43841362,0.399362564087,0.0,0.0,0.0,-0.570233252247,0.821482828812
1565342410934735622,61965,1565342410872863217,map,2.44836425781,0.38858795166,0.0,0.0,0.0,-0.576915833865,0.816803599794
1565342410999665622,61966,1565342410939579467,map,2.45850467682,0.379293441772,0.0,0.0,0.0,-0.583973307769,0.811772859742
1565342411067727289,61967,1565342411006265196,map,2.46738433838,0.37008190155,0.0,0.0,0.0,-0.590053153707,0.807364400875
1565342411136625205,61968,1565342411073089415,map,2.47662830353,0.359387397766,0.0,0.0,0.0,-0.596227013848,0.802815886713
1565342411200963695,61969,1565342411139686758,map,2.48525714874,0.348767280579,0.0,0.0,0.0,-0.602076691371,0.798438261676
1565342411267099997,61970,1565342411206150300,map,2.49465656281,0.338252067566,0.0,0.0,0.0,-0.607904072642,0.794010477554
1565342411332568903,61971,1565342411272901029,map,2.50316143036,0.327610969543,0.0,0.0,0.0,-0.613802043209,0.789459974763
1565342411399703590,61972,1565342411339867852,map,2.51180267334,0.316700935364,0.0,0.0,0.0,-0.61957594003,0.784936720084
1565342411466845465,61973,1565342411406141758,map,2.51988792419,0.305128097534,0.0,0.0,0.0,-0.625061576374,0.780575445259
1565342411533589007,61974,1565342411473336133,map,2.52765369415,0.293759346008,0.0,0.0,0.0,-0.630857324133,0.77589885719
1565342411599411299,61975,1565342411539566133,map,2.53532981873,0.282011032104,0.0,0.0,0.0,-0.637518947487,0.770434677046
1565342411667587132,61976,1565342411606111394,map,2.54340457916,0.270167350769,0.0,0.0,0.0,-0.645420953472,0.76382706997
1565342411732970309,61977,1565342411672903894,map,2.55028533936,0.259317398071,0.0,0.0,0.0,-0.653388411443,0.757022842319
1565342411800172392,61978,1565342411739520977,map,2.55775165558,0.245649337769,0.0,0.0,0.0,-0.662623180752,0.748952949343
1565342411866446090,61979,1565342411806433737,map,2.5641412735,0.232961654663,0.0,0.0,0.0,-0.672536253223,0.740064178366
1565342411933631663,61980,1565342411873312383,map,2.56843566895,0.221855163574,0.0,0.0,0.0,-0.682274671349,0.731095939556
1565342411999971351,61981,1565342411940031602,map,2.5722284317,0.210496902466,0.0,0.0,0.0,-0.692039296729,0.721859828349
1565342412068331715,61982,1565342412006620664,map,2.57653045654,0.199361801147,0.0,0.0,0.0,-0.701112499008,0.71305067403
1565342412132976715,61983,1565342412073124571,map,2.5822353363,0.186149597168,0.0,0.0,0.0,-0.709704821069,0.704499160363
1565342412200651559,61984,1565342412139705925,map,2.5881319046,0.173418998718,0.0,0.0,0.0,-0.718244772854,0.695790518956
1565342412267293121,61985,1565342412206280925,map,2.59215641022,0.16081237793,0.0,0.0,0.0,-0.725742293649,0.687966658501
1565342412333474892,61986,1565342412273100716,map,2.59793186188,0.147531509399,0.0,0.0,0.0,-0.73355381667,0.679631369235
1565342412400191298,61987,1565342412339908320,map,2.60215759277,0.134408950806,0.0,0.0,0.0,-0.7408345006,0.671687607985
1565342412469252132,61988,1565342412406192018,map,2.60648059845,0.12059211731,0.0,0.0,0.0,-0.7475460482,0.66420998624
1565342412534845413,61989,1565342412473757800,map,2.61154937744,0.107351303101,0.0,0.0,0.0,-0.753957884174,0.656922757173
1565342412600165517,61990,1565342412539969362,map,2.6150560379,0.0955781936646,0.0,0.0,0.0,-0.75969110668,0.65028410901
1565342412667518538,61991,1565342412606402070,map,2.61926078796,0.0820465087891,0.0,0.0,0.0,-0.765758554311,0.643128164909
1565342412733164892,61992,1565342412673208685,map,2.62210559845,0.069920539856,0.0,0.0,0.0,-0.770792079186,0.637086784249
1565342412799595152,61993,1565342412739795716,map,2.62732410431,0.055760383606,0.0,0.0,0.0,-0.775336953528,0.631547787974
1565342412868650725,61994,1565342412806709102,map,2.63007068634,0.0424318313599,0.0,0.0,0.0,-0.777741219325,0.628584597142
1565342412933602704,61995,1565342412873317070,map,2.6326675415,0.0269041061401,0.0,0.0,0.0,-0.779713061187,0.626136999557
1565342412999983746,61996,1565342412939873268,map,2.63494110107,0.0130739212036,0.0,0.0,0.0,-0.781862889072,0.623450417188
1565342413066960100,61997,1565342413006276601,map,2.63703918457,-0.00164222717285,0.0,0.0,0.0,-0.784335459594,0.620336913962
1565342413135511454,61998,1565342413073099831,map,2.63875102997,-0.0157871246338,0.0,0.0,0.0,-0.786716014224,0.617315084024
1565342413200158434,61999,1565342413139652226,map,2.64039897919,-0.0303611755371,0.0,0.0,0.0,-0.789035128753,0.614348081786
1565342413268148381,62000,1565342413206313893,map,2.64175415039,-0.045449256897,0.0,0.0,0.0,-0.79137555759,0.611330292763
1565342413334211298,62001,1565342413273872435,map,2.64321708679,-0.0601367950439,0.0,0.0,0.0,-0.794114990974,0.60776753871
1565342413400024996,62002,1565342413340252851,map,2.64404392242,-0.0746078491211,0.0,0.0,0.0,-0.796789693322,0.604256720786
1565342413466830517,62003,1565342413406810508,map,2.64562988281,-0.0900926589966,0.0,0.0,0.0,-0.800092645827,0.599876452358
1565342413533492548,62004,1565342413473612695,map,2.64609527588,-0.103416442871,0.0,0.0,0.0,-0.803204668691,0.595703164498
1565342413600086506,62005,1565342413540282070,map,2.64692783356,-0.118274688721,0.0,0.0,0.0,-0.806541088673,0.59117803772
1565342413667456038,62006,1565342413606246966,map,2.64673709869,-0.132475852966,0.0,0.0,0.0,-0.81096945732,0.58508848843
1565342413732817392,62007,1565342413672882851,map,2.64570617676,-0.147439956665,0.0,0.0,0.0,-0.816856027218,0.576841599399
1565342413804705152,62008,1565342413739578007,map,2.64546966553,-0.162417411804,0.0,0.0,0.0,-0.823616172014,0.567147600891
1565342413866410048,62009,1565342413806294205,map,2.64436912537,-0.176383972168,0.0,0.0,0.0,-0.829558704983,0.558419515228
1565342413932970673,62010,1565342413873012747,map,2.64336967468,-0.191446304321,0.0,0.0,0.0,-0.835094635358,0.550106307905
1565342413999483121,62011,1565342413939867955,map,2.6418428421,-0.205721855164,0.0,0.0,0.0,-0.839902025293,0.542738047228
1565342414067189683,62012,1565342414006561757,map,2.63970279694,-0.220394134521,0.0,0.0,0.0,-0.845016089066,0.534740880446
1565342414134468485,62013,1565342414073864570,map,2.63658618927,-0.235410690308,0.0,0.0,0.0,-0.850188628796,0.52647820037
1565342414200217339,62014,1565342414139763580,map,2.63371372223,-0.248552322388,0.0,0.0,0.0,-0.854972487955,0.51867335081
1565342414267064996,62015,1565342414206254622,map,2.63148021698,-0.262742996216,0.0,0.0,0.0,-0.859639512057,0.510901075856
1565342414334511454,62016,1565342414273366497,map,2.62915802002,-0.277022361755,0.0,0.0,0.0,-0.864161267483,0.503214967764
1565342414400220516,62017,1565342414339830091,map,2.62685108185,-0.291330337524,0.0,0.0,0.0,-0.868391296343,0.495879578564
1565342414466981402,62018,1565342414406335663,map,2.62421512604,-0.305141448975,0.0,0.0,0.0,-0.872467383726,0.488672348649
1565342414533562339,62019,1565342414473456861,map,2.62160015106,-0.319156646729,0.0,0.0,0.0,-0.876403870232,0.48157684355
1565342414599504891,62020,1565342414539942955,map,2.6192522049,-0.332414627075,0.0,0.0,0.0,-0.880184221195,0.474632212095
1565342414667468589,62021,1565342414606469413,map,2.61497306824,-0.347017288208,0.0,0.0,0.0,-0.884171983191,0.467161539662
1565342414733443485,62022,1565342414673574465,map,2.61235809326,-0.360649108887,0.0,0.0,0.0,-0.88759509094,0.460624526636
1565342414800339735,62023,1565342414740526913,map,2.60902690887,-0.376041412354,0.0,0.0,0.0,-0.891162918699,0.453683427442
1565342414868881870,62024,1565342414807056965,map,2.60471439362,-0.39048576355,0.0,0.0,0.0,-0.894466766802,0.447134435139
1565342414933319683,62025,1565342414873160559,map,2.60037231445,-0.40460395813,0.0,0.0,0.0,-0.89750789436,0.440998389523
1565342415001731662,62026,1565342414939839517,map,2.59602069855,-0.418204307556,0.0,0.0,0.0,-0.900531083964,0.43479163609
1565342415068046766,62027,1565342415006600299,map,2.59112262726,-0.432518005371,0.0,0.0,0.0,-0.903795308581,0.427964998787
1565342415133608641,62028,1565342415073032694,map,2.58558177948,-0.445508956909,0.0,0.0,0.0,-0.907939885441,0.419100422841
1565342415200601089,62029,1565342415140604361,map,2.58085727692,-0.458606719971,0.0,0.0,0.0,-0.912665441705,0.408707464475
1565342415267003589,62030,1565342415206265924,map,2.57625579834,-0.469903945923,0.0,0.0,0.0,-0.917747049165,0.397165398478
1565342415335322183,62031,1565342415272885871,map,2.57162761688,-0.482068061829,0.0,0.0,0.0,-0.923095276209,0.384571334138
1565342415399595464,62032,1565342415339630246,map,2.56822490692,-0.493705749512,0.0,0.0,0.0,-0.928831037625,0.370503581013
1565342415466895412,62033,1565342415406464778,map,2.56519889832,-0.503717422485,0.0,0.0,0.0,-0.9345406088,0.355856502685
1565342415533785151,62034,1565342415473542434,map,2.56262779236,-0.51414680481,0.0,0.0,0.0,-0.940772952744,0.339037241886
1565342415599430516,62035,1565342415539717590,map,2.55998802185,-0.523030281067,0.0,0.0,0.0,-0.947109348043,0.320911020144
1565342415668055881,62036,1565342415606243371,map,2.55703544617,-0.531381607056,0.0,0.0,0.0,-0.953342685749,0.301890250802
1565342415732996818,62037,1565342415672989205,map,2.55582904816,-0.539661407471,0.0,0.0,0.0,-0.959358026424,0.28219173825
1565342415800405360,62038,1565342415739989100,map,2.55399608612,-0.54718208313,0.0,0.0,0.0,-0.96446290824,0.264218278379
1565342415867514162,62039,1565342415806538527,map,2.55189037323,-0.554544448853,0.0,0.0,0.0,-0.968963434542,0.247204090825
1565342415933136610,62040,1565342415873151392,map,2.5485868454,-0.56157875061,0.0,0.0,0.0,-0.973077495789,0.230478170741
1565342415999686505,62041,1565342415939956027,map,2.54416656494,-0.568694114685,0.0,0.0,0.0,-0.976773433332,0.214274730047
1565342416066915620,62042,1565342416006513059,map,2.54143047333,-0.576038360596,0.0,0.0,0.0,-0.980096619857,0.198521071287
1565342416135821766,62043,1565342416073595663,map,2.53759479523,-0.583278656006,0.0,0.0,0.0,-0.983070513509,0.183227632931
1565342416200866557,62044,1565342416140633059,map,2.53278064728,-0.591053962708,0.0,0.0,0.0,-0.985698326953,0.168519459536
1565342416267488328,62045,1565342416207039256,map,2.52754211426,-0.598496437073,0.0,0.0,0.0,-0.987990294913,0.154515944673
1565342416333721557,62046,1565342416273037329,map,2.52192211151,-0.606170654297,0.0,0.0,0.0,-0.990055460319,0.140677594141
1565342416399605307,62047,1565342416339808319,map,2.51615428925,-0.613637924194,0.0,0.0,0.0,-0.991853612304,0.127382933546
1565342416466552286,62048,1565342416406348944,map,2.51247119904,-0.620576858521,0.0,0.0,0.0,-0.993441133001,0.114344721179
1565342416533790776,62049,1565342416473659673,map,2.506772995,-0.627478599548,0.0,0.0,0.0,-0.994830430158,0.101550062687
1565342416598895776,62050,1565342416539843579,map,2.50018310547,-0.634532928467,0.0,0.0,0.0,-0.995990819355,0.0894555071605
1565342416666966141,62051,1565342416606409308,map,2.49469566345,-0.640826225281,0.0,0.0,0.0,-0.996954549854,0.0779847775262
1565342416732687182,62052,1565342416673031704,map,2.48880290985,-0.647523880005,0.0,0.0,0.0,-0.997824563001,0.0659252718766
1565342416800279474,62053,1565342416739942329,map,2.48185253143,-0.653268814087,0.0,0.0,0.0,-0.998578532939,0.053300220951
1565342416866402495,62054,1565342416806218267,map,2.47337818146,-0.658226966858,0.0,0.0,0.0,-0.999191324038,0.040208182845
1565342416932275047,62055,1565342416872928371,map,2.46657562256,-0.663895606995,0.0,0.0,0.0,-0.999614736209,0.0277557048999
1565342416998982390,62056,1565342416939706131,map,2.45869255066,-0.66886138916,0.0,0.0,0.0,-0.999871546669,0.016027793424
1565342417067279005,62057,1565342417006337537,map,2.45006084442,-0.674493789673,0.0,0.0,0.0,-0.999987904634,0.00491839253617
1565342417132411870,62058,1565342417073115246,map,2.44213676453,-0.679128646851,0.0,0.0,0.0,0.99998303613,0.00582472765778
1565342417200232286,62059,1565342417141073892,map,2.43383789062,-0.684126853943,0.0,0.0,0.0,0.999862346334,0.0165918167418
1565342417268453276,62060,1565342417206489829,map,2.42636871338,-0.688232421875,0.0,0.0,0.0,0.999641569014,0.0267718788951
1565342417332139526,62061,1565342417272985871,map,2.41725635529,-0.692102432251,0.0,0.0,0.0,0.999318145946,0.0369221232317
1565342417398839213,62062,1565342417339754048,map,2.40838718414,-0.69552230835,0.0,0.0,0.0,0.998920308671,0.0464566133671
1565342417469470515,62063,1565342417406420454,map,2.39980602264,-0.698204040527,0.0,0.0,0.0,0.998491279175,0.0549105218659
1565342417534264213,62064,1565342417474612537,map,2.39227581024,-0.702893257141,0.0,0.0,0.0,0.997977882169,0.0635621483344
1565342417599547807,62065,1565342417540263266,map,2.38399505615,-0.706780433655,0.0,0.0,0.0,0.997398656522,0.0720827300253
1565342417668543328,62066,1565342417606851079,map,2.3727350235,-0.710822105408,0.0,0.0,0.0,0.996722408276,0.080897718389
1565342417733241192,62067,1565342417672929881,map,2.36308288574,-0.712796211243,0.0,0.0,0.0,0.996027196595,0.0890495572287
1565342417799725463,62068,1565342417739623735,map,2.35513019562,-0.715996742249,0.0,0.0,0.0,0.995267817417,0.097169808141
1565342417866241348,62069,1565342417806382433,map,2.344871521,-0.717292785645,0.0,0.0,0.0,0.99448714161,0.104858596081
1565342417932511244,62070,1565342417872971391,map,2.33537578583,-0.71854019165,0.0,0.0,0.0,0.993688375784,0.112175807695
1565342417999160098,62071,1565342417939819672,map,2.32619571686,-0.719390869141,0.0,0.0,0.0,0.992928328831,0.118715347809
1565342418067486817,62072,1565342418006878266,map,2.31798839569,-0.721173286438,0.0,0.0,0.0,0.992121526891,0.125279191724
1565342418132063119,62073,1565342418072922068,map,2.30872917175,-0.724195480347,0.0,0.0,0.0,0.991203845261,0.132344010595
1565342418199445255,62074,1565342418140168370,map,2.29794788361,-0.726669311523,0.0,0.0,0.0,0.990205088833,0.139620492941
1565342418266694525,62075,1565342418206612120,map,2.28767871857,-0.727201461792,0.0,0.0,0.0,0.989306273677,0.145852997441
1565342418332703432,62076,1565342418273178683,map,2.27825164795,-0.728436470032,0.0,0.0,0.0,0.988775024672,0.149412016203
1565342418399739942,62077,1565342418340339256,map,2.26876163483,-0.730282783508,0.0,0.0,0.0,0.988292090883,0.152573730037
1565342418466334161,62078,1565342418406370037,map,2.25505638123,-0.732193946838,0.0,0.0,0.0,0.987651666135,0.156665843054
1565342418533342911,62079,1565342418473708370,map,2.24713611603,-0.732148170471,0.0,0.0,0.0,0.987149824057,0.159797449495
1565342418599697806,62080,1565342418540018214,map,2.2351436615,-0.732581138611,0.0,0.0,0.0,0.986551425184,0.163451171509
1565342418666696088,62081,1565342418606247745,map,2.22326946259,-0.73325252533,0.0,0.0,0.0,0.985884629481,0.167426095196
1565342418732581869,62082,1565342418673211235,map,2.21445941925,-0.732584953308,0.0,0.0,0.0,0.985320497125,0.170714726795
1565342418799197858,62083,1565342418739982693,map,2.20485973358,-0.732406616211,0.0,0.0,0.0,0.985103213276,0.171964121822
1565342418866369213,62084,1565342418806585870,map,2.19458580017,-0.732113838196,0.0,0.0,0.0,0.985151205696,0.171688968535
1565342418932981608,62085,1565342418873675922,map,2.18307590485,-0.733010292053,0.0,0.0,0.0,0.98517577637,0.171547922326
1565342419000336556,62086,1565342418940625089,map,2.17147636414,-0.733004570007,0.0,0.0,0.0,0.985187859937,0.171478513617
1565342419067213744,62087,1565342419006897172,map,2.16105651855,-0.731851577759,0.0,0.0,0.0,0.985105201683,0.171952730766
1565342419133033483,62088,1565342419073366182,map,2.14870262146,-0.732679367065,0.0,0.0,0.0,0.984939159181,0.172901280249
1565342419199377806,62089,1565342419139816860,map,2.13838005066,-0.732158660889,0.0,0.0,0.0,0.984833858821,0.173500059135
1565342419265997962,62090,1565342419206264828,map,2.12661743164,-0.730661392212,0.0,0.0,0.0,0.984830135687,0.173521191337
1565342419332856765,62091,1565342419273013787,map,2.11478710175,-0.728945732117,0.0,0.0,0.0,0.984835678855,0.173489727807
1565342419399747910,62092,1565342419339898162,map,2.10173511505,-0.728303909302,0.0,0.0,0.0,0.984598624273,0.174830057713
1565342419467099264,62093,1565342419406768005,map,2.0899887085,-0.727770805359,0.0,0.0,0.0,0.984341553341,0.176271683396
1565342419533175410,62094,1565342419473484672,map,2.07783794403,-0.725309371948,0.0,0.0,0.0,0.984146180925,0.177359224658
1565342419599668014,62095,1565342419540682797,map,2.06482028961,-0.724570274353,0.0,0.0,0.0,0.983773290906,0.179416030775
1565342419666576400,62096,1565342419606342849,map,2.05300712585,-0.721995353699,0.0,0.0,0.0,0.983476178792,0.181037581042
1565342419733112441,62097,1565342419673272797,map,2.04099750519,-0.719245910645,0.0,0.0,0.0,0.983219262746,0.182427742862
1565342419800885462,62098,1565342419741766703,map,2.027967453,-0.717157363892,0.0,0.0,0.0,0.982901693126,0.184131099083
1565342419867834316,62099,1565342419806413370,map,2.01379394531,-0.715331077576,0.0,0.0,0.0,0.982478453928,0.186376199039
1565342419932250723,62100,1565342419873042536,map,2.00236034393,-0.712146759033,0.0,0.0,0.0,0.982142786968,0.188137040498
1565342420000874108,62101,1565342419939787276,map,1.98801898956,-0.709332466125,0.0,0.0,0.0,0.981579556213,0.191053853203
1565342420067543327,62102,1565342420006451963,map,1.97572803497,-0.705393791199,0.0,0.0,0.0,0.981221206337,0.192885832124
1565342420132267545,62103,1565342420073200140,map,1.96279239655,-0.702133178711,0.0,0.0,0.0,0.98120722354,0.192956949793
1565342420199344889,62104,1565342420140298786,map,1.94911193848,-0.6985912323,0.0,0.0,0.0,0.981650320229,0.190689928403
1565342420266232493,62105,1565342420206581286,map,1.93532562256,-0.695183753967,0.0,0.0,0.0,0.98193184646,0.189234904043
1565342420332960514,62106,1565342420273680505,map,1.9223947525,-0.689069747925,0.0,0.0,0.0,0.982211395102,0.187778527347
1565342420400222597,62107,1565342420340457953,map,1.9093837738,-0.685126304626,0.0,0.0,0.0,0.982392789753,0.186827210654
1565342420467493222,62108,1565342420407225817,map,1.89591026306,-0.681735992432,0.0,0.0,0.0,0.982998357404,0.183614349497
1565342420534640618,62109,1565342420473729619,map,1.88200855255,-0.677843093872,0.0,0.0,0.0,0.983681536184,0.179918413093
1565342420600830670,62110,1565342420540365244,map,1.8670425415,-0.674593925476,0.0,0.0,0.0,0.984325978703,0.176358633617
1565342420666697545,62111,1565342420606521390,map,1.8529214859,-0.670369148254,0.0,0.0,0.0,0.984889217869,0.17318553209
1565342420732503952,62112,1565342420673145869,map,1.83830833435,-0.665376663208,0.0,0.0,0.0,0.985298326822,0.170842638595
1565342420799071191,62113,1565342420739878994,map,1.82640838623,-0.662634849548,0.0,0.0,0.0,0.985909806262,0.167277774725
1565342420866410410,62114,1565342420806568682,map,1.81168174744,-0.658550262451,0.0,0.0,0.0,0.986799123422,0.161949035235
1565342420932817806,62115,1565342420873534619,map,1.79538249969,-0.656052589417,0.0,0.0,0.0,0.987392978065,0.158288050298
1565342420999292753,62116,1565342420940029932,map,1.78167819977,-0.654259681702,0.0,0.0,0.0,0.988149265024,0.153496026114
1565342421066519368,62117,1565342421006655192,map,1.76653575897,-0.652285575867,0.0,0.0,0.0,0.989152198133,0.146894278064
1565342421132667024,62118,1565342421073326650,map,1.75262260437,-0.650121688843,0.0,0.0,0.0,0.990381352069,0.138364653988
1565342421199649889,62119,1565342421140254619,map,1.73601818085,-0.6484375,0.0,0.0,0.0,0.99142716975,0.130660503139
1565342421266433899,62120,1565342421206623577,map,1.72131347656,-0.646348953247,0.0,0.0,0.0,0.992345562015,0.123492046505
1565342421332537805,62121,1565342421273279984,map,1.70506286621,-0.643893241882,0.0,0.0,0.0,0.993128770958,0.11702668198
1565342421399707389,62122,1565342421340021182,map,1.68801116943,-0.642160415649,0.0,0.0,0.0,0.993688977527,0.112170477134
1565342421467413274,62123,1565342421406685765,map,1.67216968536,-0.639917373657,0.0,0.0,0.0,0.994324688882,0.10638803072
1565342421533716399,62124,1565342421473665140,map,1.65703296661,-0.638631820679,0.0,0.0,0.0,0.99484079956,0.101448427932
1565342421599661191,62125,1565342421540325921,map,1.64325428009,-0.636880874634,0.0,0.0,0.0,0.995296939942,0.0968710552313
1565342421667090722,62126,1565342421606827692,map,1.62669086456,-0.634763717651,0.0,0.0,0.0,0.99567442934,0.0929108753549
1565342421733959003,62127,1565342421673785088,map,1.61284160614,-0.632981300354,0.0,0.0,0.0,0.996005724338,0.0892894007474
1565342421804954055,62128,1565342421740550348,map,1.59802246094,-0.631742477417,0.0,0.0,0.0,0.996293187816,0.0860225779209
1565342421868668014,62129,1565342421807190921,map,1.58252716064,-0.630618095398,0.0,0.0,0.0,0.996553649515,0.0829507301913
1565342421933826868,62130,1565342421873469515,map,1.56874847412,-0.629293441772,0.0,0.0,0.0,0.99680510645,0.079872271499
1565342421999101243,62131,1565342421939972327,map,1.55599403381,-0.628874778748,0.0,0.0,0.0,0.99693752284,0.0782021454503
1565342422067592961,62132,1565342422006637171,map,1.54162788391,-0.627114295959,0.0,0.0,0.0,0.997082748398,0.0763281916983
1565342422132858118,62133,1565342422073252535,map,1.52950763702,-0.626005172729,0.0,0.0,0.0,0.997259717048,0.0739801105314
1565342422199903118,62134,1565342422140249723,map,1.51599311829,-0.625430107117,0.0,0.0,0.0,0.997385906233,0.072258937492
1565342422266787232,62135,1565342422206659567,map,1.50280952454,-0.624742507935,0.0,0.0,0.0,0.997525059083,0.0703118517877
1565342422333288951,62136,1565342422273337171,map,1.48742675781,-0.625027656555,0.0,0.0,0.0,0.997650400523,0.068510425015
1565342422400770670,62137,1565342422340365921,map,1.4725522995,-0.623464584351,0.0,0.0,0.0,0.997844416294,0.0656240875863
1565342422466415357,62138,1565342422406651910,map,1.45705223083,-0.6229429245,0.0,0.0,0.0,0.997965801297,0.0637515446177
1565342422533140774,62139,1565342422473741910,map,1.43626976013,-0.620451927185,0.0,0.0,0.0,0.998369379777,0.057083986575
1565342422600314211,62140,1565342422540036181,map,1.41949462891,-0.62017250061,0.0,0.0,0.0,0.998450820227,0.0556413478288
1565342422668479732,62141,1565342422606854931,map,1.40334129333,-0.620306015015,0.0,0.0,0.0,0.998540752989,0.0540033759983
1565342422733226972,62142,1565342422673233994,map,1.3895368576,-0.62121295929,0.0,0.0,0.0,0.998586521229,0.0531503491959
1565342422800569680,62143,1565342422740010556,map,1.37463951111,-0.620367050171,0.0,0.0,0.0,0.998642306262,0.0520916897839
1565342422867000201,62144,1565342422806495452,map,1.35922050476,-0.62077999115,0.0,0.0,0.0,0.99871839788,0.0506118734606
1565342422933627128,62145,1565342422873403056,map,1.34644603729,-0.620252609253,0.0,0.0,0.0,0.99879307552,0.0491161103179
1565342423000312909,62146,1565342422940034775,map,1.33053016663,-0.621141433716,0.0,0.0,0.0,0.998872824212,0.0474666309288
1565342423067257284,62147,1565342423006882066,map,1.31623077393,-0.621964454651,0.0,0.0,0.0,0.998955570468,0.0456921025108
1565342423135026190,62148,1565342423074078160,map,1.29962348938,-0.621668815613,0.0,0.0,0.0,0.998975103587,0.0452630358332
1565342423201855357,62149,1565342423140661858,map,1.2853269577,-0.622297286987,0.0,0.0,0.0,0.998994452416,0.0448339608054
1565342423267273273,62150,1565342423207239566,map,1.27044677734,-0.623114585876,0.0,0.0,0.0,0.999064553517,0.043243703665
1565342423333298794,62151,1565342423273292118,map,1.25493907928,-0.623586654663,0.0,0.0,0.0,0.999107722624,0.0422345663245
1565342423400374367,62152,1565342423340374775,map,1.24059772491,-0.624025344849,0.0,0.0,0.0,0.999163323715,0.0408980750524
1565342423466708273,62153,1565342423406543889,map,1.22343635559,-0.624635696411,0.0,0.0,0.0,0.999181048571,0.0404627257789
1565342423533795305,62154,1565342423473742847,map,1.20572185516,-0.625032424927,0.0,0.0,0.0,0.999183940134,0.0403912586777
1565342423599821398,62155,1565342423540266702,map,1.18980693817,-0.626062393188,0.0,0.0,0.0,0.999210638942,0.039725294521
1565342423668038794,62156,1565342423606737431,map,1.17586708069,-0.626801490784,0.0,0.0,0.0,0.999226718924,0.0393187510995
1565342423732853586,62157,1565342423673258368,map,1.16116333008,-0.626792907715,0.0,0.0,0.0,0.999215372188,0.0396060599329
1565342423799717492,62158,1565342423739864722,map,1.14446258545,-0.6279296875,0.0,0.0,0.0,0.999219121222,0.0395113627303
1565342423867128221,62159,1565342423806463629,map,1.1275100708,-0.627820968628,0.0,0.0,0.0,0.999134023887,0.0416077193758
1565342423932156763,62160,1565342423873066129,map,1.10996055603,-0.628317832947,0.0,0.0,0.0,0.998994142404,0.0448408679906
1565342423999840721,62161,1565342423939799670,map,1.09465026855,-0.629201889038,0.0,0.0,0.0,0.998741616964,0.0501515956318
1565342424065973429,62162,1565342424006334462,map,1.0777130127,-0.627473831177,0.0,0.0,0.0,0.998321501156,0.057915285797
1565342424132411554,62163,1565342424073212639,map,1.06293487549,-0.628667831421,0.0,0.0,0.0,0.997864739311,0.0653143325779
1565342424198838169,62164,1565342424139776597,map,1.0461101532,-0.628481864929,0.0,0.0,0.0,0.997207286254,0.0746835205457
1565342424265528117,62165,1565342424206308993,map,1.02943134308,-0.62742805481,0.0,0.0,0.0,0.996249786957,0.0865237654559
1565342424332955877,62166,1565342424273053837,map,1.01035881042,-0.626389503479,0.0,0.0,0.0,0.995225990107,0.0975972777104
1565342424400204211,62167,1565342424340030816,map,0.997143745422,-0.626250267029,0.0,0.0,0.0,0.993522732325,0.113633535336
1565342424468626085,62168,1565342424406600868,map,0.983721733093,-0.626089096069,0.0,0.0,0.0,0.991631960237,0.129097077566
1565342424534519315,62169,1565342424473947014,map,0.96448802948,-0.626006126404,0.0,0.0,0.0,0.989718847981,0.143026577779
1565342424601290460,62170,1565342424540311493,map,0.950468063354,-0.623747825623,0.0,0.0,0.0,0.987450935148,0.157926092443
1565342424667838585,62171,1565342424607178316,map,0.93420124054,-0.622011184692,0.0,0.0,0.0,0.984800085823,0.173691654845
1565342424732460825,62172,1565342424673174826,map,0.917495727539,-0.61928653717,0.0,0.0,0.0,0.982163952481,0.188026515274
1565342424800093169,62173,1565342424740103993,map,0.901242256165,-0.615924835205,0.0,0.0,0.0,0.979500341171,0.201442502084
1565342424866429315,62174,1565342424806793159,map,0.884028434753,-0.613260269165,0.0,0.0,0.0,0.976878988163,0.213792989797
1565342424932756554,62175,1565342424873236441,map,0.868377685547,-0.610498428345,0.0,0.0,0.0,0.9743387379,0.225086702912
1565342424999193689,62176,1565342424940019357,map,0.851922988892,-0.608070373535,0.0,0.0,0.0,0.971794320764,0.235830019569
1565342425068655929,62177,1565342425006484566,map,0.83664226532,-0.606252670288,0.0,0.0,0.0,0.969348619257,0.245689345201
1565342425132664523,62178,1565342425073399097,map,0.819104194641,-0.602421760559,0.0,0.0,0.0,0.966777483792,0.25561943751
1565342425201058012,62179,1565342425140644357,map,0.803286552429,-0.600950241089,0.0,0.0,0.0,0.964698720886,0.263355990857
1565342425266963846,62180,1565342425206483993,map,0.786260604858,-0.596950531006,0.0,0.0,0.0,0.962545056317,0.271121770722
1565342425335734731,62181,1565342425273116284,map,0.769960403442,-0.592607498169,0.0,0.0,0.0,0.960166785806,0.279427528055
1565342425400282960,62182,1565342425339774930,map,0.752306938171,-0.588564872742,0.0,0.0,0.0,0.957239652223,0.28929612547
1565342425467601762,62183,1565342425406208888,map,0.73443031311,-0.58392906189,0.0,0.0,0.0,0.953407226638,0.301686360636
1565342425534440460,62184,1565342425473461857,map,0.717188835144,-0.579833984375,0.0,0.0,0.0,0.949435132177,0.313963261843
1565342425600334106,62185,1565342425540030972,map,0.700159072876,-0.575888633728,0.0,0.0,0.0,0.944684993659,0.32797905841
1565342425666464210,62186,1565342425606395972,map,0.68429851532,-0.571415901184,0.0,0.0,0.0,0.939696614413,0.342009170726
1565342425733207075,62187,1565342425673096180,map,0.667921066284,-0.565599441528,0.0,0.0,0.0,0.933995547527,0.357284644506
1565342425801764366,62188,1565342425739853419,map,0.653393745422,-0.557838439941,0.0,0.0,0.0,0.927479085914,0.373875039542
1565342425867385095,62189,1565342425806787222,map,0.638781547546,-0.551465988159,0.0,0.0,0.0,0.920585621859,0.390540795343
1565342425933234731,62190,1565342425873594878,map,0.624484062195,-0.543297767639,0.0,0.0,0.0,0.912665441705,0.408707464475
1565342426000097595,62191,1565342425940598888,map,0.610847473145,-0.535209655762,0.0,0.0,0.0,0.904311761085,0.426872625924
1565342426066419574,62192,1565342426006882951,map,0.598007202148,-0.527315139771,0.0,0.0,0.0,0.895211331864,0.445641864395
1565342426132540512,62193,1565342426072985555,map,0.586090087891,-0.519233703613,0.0,0.0,0.0,0.885222057259,0.465168689124
1565342426199564783,62194,1565342426139855659,map,0.574185371399,-0.512685775757,0.0,0.0,0.0,0.874752450715,0.484570067141
1565342426266333741,62195,1565342426206349721,map,0.563003540039,-0.505485534668,0.0,0.0,0.0,0.863403001994,0.504514872078
1565342426333245460,62196,1565342426273262273,map,0.550288200378,-0.500036239624,0.0,0.0,0.0,0.851328128281,0.524633603573
1565342426399599626,62197,1565342426339867482,map,0.538801193237,-0.494495391846,0.0,0.0,0.0,0.837969142408,0.545717615962
1565342426466068793,62198,1565342426406407950,map,0.527569770813,-0.49174785614,0.0,0.0,0.0,0.824802259304,0.565421288109
1565342426533287439,62199,1565342426473582846,map,0.517013549805,-0.489239692688,0.0,0.0,0.0,0.812113547437,0.583499431079
1565342426600568689,62200,1565342426540688784,map,0.506718635559,-0.486587524414,0.0,0.0,0.0,0.799485538719,0.600685336411
1565342426667799626,62201,1565342426606550971,map,0.496480941772,-0.484702110291,0.0,0.0,0.0,0.787054886508,0.616882975632
1565342426733220512,62202,1565342426673224565,map,0.486124038696,-0.482450485229,0.0,0.0,0.0,0.774654821627,0.632384303513
1565342426799777022,62203,1565342426739981700,map,0.476091384888,-0.474184036255,0.0,0.0,0.0,0.761405715474,0.64827566393
1565342426868064626,62204,1565342426806757638,map,0.466659545898,-0.466298103333,0.0,0.0,0.0,0.748311142874,0.663347897751
1565342426933154470,62205,1565342426873170346,map,0.45680809021,-0.460088729858,0.0,0.0,0.0,0.735830430034,0.677165842491
1565342426999597960,62206,1565342426939925398,map,0.447183609009,-0.456741333008,0.0,0.0,0.0,0.724212086936,0.689577300334
1565342427066684262,62207,1565342427006484409,map,0.437242507935,-0.451322555542,0.0,0.0,0.0,0.712529391954,0.701642263266
1565342427134899730,62208,1565342427073268523,map,0.427914619446,-0.445150375366,0.0,0.0,0.0,0.700816078066,0.713342011047
1565342427200086553,62209,1565342427139996336,map,0.419044494629,-0.439971923828,0.0,0.0,0.0,0.689631547059,0.724160430637
1565342427267204470,62210,1565342427206545659,map,0.410524368286,-0.434589385986,0.0,0.0,0.0,0.678508844327,0.734592232582
1565342427333590928,62211,1565342427273878002,map,0.403020858765,-0.428346633911,0.0,0.0,0.0,0.667434649098,0.744668375308
1565342427400353949,62212,1565342427340483992,map,0.395251274109,-0.421778678894,0.0,0.0,0.0,0.65657686748,0.754259118003
1565342427467082959,62213,1565342427407048575,map,0.388865470886,-0.415456771851,0.0,0.0,0.0,0.646105111312,0.763248442604
1565342427534271241,62214,1565342427473678679,map,0.383358955383,-0.408864974976,0.0,0.0,0.0,0.635827826594,0.771830923797
1565342427601738220,62215,1565342427540089929,map,0.37993144989,-0.401797294617,0.0,0.0,0.0,0.625830718268,0.779958916913
1565342427668222543,62216,1565342427606549513,map,0.37504863739,-0.395822525024,0.0,0.0,0.0,0.616227856347,0.787567920285
1565342427732690407,62217,1565342427673508054,map,0.369229316711,-0.387062072754,0.0,0.0,0.0,0.606221903668,0.795295544759
1565342427799286605,62218,1565342427740070554,map,0.364016532898,-0.378646850586,0.0,0.0,0.0,0.59662803116,0.802517907859
1565342427867399313,62219,1565342427806681700,map,0.358739852905,-0.367952346802,0.0,0.0,0.0,0.586653423507,0.809838107702
1565342427932464990,62220,1565342427873217221,map,0.353988647461,-0.359301567078,0.0,0.0,0.0,0.577435189184,0.816436526799
1565342427999229990,62221,1565342427940196908,map,0.350469589233,-0.351390838623,0.0,0.0,0.0,0.568692523516,0.822550189166
1565342428066846449,62222,1565342428006767742,map,0.347036361694,-0.343626976013,0.0,0.0,0.0,0.560315413937,0.828279322997
1565342428133426553,62223,1565342428073248627,map,0.343907356262,-0.334616661072,0.0,0.0,0.0,0.551811002574,0.833969194538
1565342428200110459,62224,1565342428140003002,map,0.340823173523,-0.324419021606,0.0,0.0,0.0,0.543184110386,0.83961361484
1565342428266875563,62225,1565342428206466700,map,0.338195800781,-0.314065933228,0.0,0.0,0.0,0.534564520912,0.845127666676
1565342428332537178,62226,1565342428273468419,map,0.33611869812,-0.304962158203,0.0,0.0,0.0,0.526397762974,0.850238434286
1565342428399889782,62227,1565342428340054408,map,0.334535598755,-0.293924331665,0.0,0.0,0.0,0.518239903948,0.855235290406
1565342428467091084,62228,1565342428406486023,map,0.333547592163,-0.282930374146,0.0,0.0,0.0,0.510427233386,0.859920949517
1565342428533175407,62229,1565342428473700502,map,0.332153320312,-0.271593093872,0.0,0.0,0.0,0.502821638158,0.864390189787
1565342428599280511,62230,1565342428540203418,map,0.331497192383,-0.260656356812,0.0,0.0,0.0,0.49530491855,0.86871919379
1565342428666708792,62231,1565342428606621179,map,0.330884933472,-0.249562263489,0.0,0.0,0.0,0.487869408075,0.872916628702
1565342428733889834,62232,1565342428673842898,map,0.331497192383,-0.239701271057,0.0,0.0,0.0,0.480623676522,0.876926953381
1565342428800732386,62233,1565342428740738002,map,0.331416130066,-0.228851318359,0.0,0.0,0.0,0.473323455264,0.880888702786
1565342428868037907,62234,1565342428807109512,map,0.330877304077,-0.218055725098,0.0,0.0,0.0,0.466456082819,0.884544358866
1565342428934103636,62235,1565342428873227377,map,0.331634521484,-0.20740032196,0.0,0.0,0.0,0.459851610698,0.887995774843
1565342428999566500,62236,1565342428940216543,map,0.332807540894,-0.196803092957,0.0,0.0,0.0,0.453137413599,0.891440679124
1565342429068117282,62237,1565342429006819877,map,0.334757804871,-0.185757637024,0.0,0.0,0.0,0.446391037616,0.894837997369
1565342429133069990,62238,1565342429073345658,map,0.336171150208,-0.175002098083,0.0,0.0,0.0,0.439726100818,0.898131925866
1565342429199498792,62239,1565342429140027220,map,0.336839675903,-0.164644241333,0.0,0.0,0.0,0.432948316884,0.901418745594
1565342429267775563,62240,1565342429206647637,map,0.339262008667,-0.156488418579,0.0,0.0,0.0,0.426417254184,0.90452657525
1565342429334059313,62241,1565342429273330085,map,0.340965270996,-0.145265579224,0.0,0.0,0.0,0.419069561231,0.907954130367
1565342429400101604,62242,1565342429339954720,map,0.342092514038,-0.137228965759,0.0,0.0,0.0,0.412615767357,0.910905169888
1565342429467858219,62243,1565342429406779251,map,0.342237472534,-0.130217552185,0.0,0.0,0.0,0.406108404517,0.913824908711
1565342429533256136,62244,1565342429473850501,map,0.342791557312,-0.123121261597,0.0,0.0,0.0,0.399546369335,0.916712986027
1565342429599708167,62245,1565342429539960866,map,0.34300994873,-0.117376327515,0.0,0.0,0.0,0.393524728329,0.919314031327
1565342429667065875,62246,1565342429606531335,map,0.342852592468,-0.109416007996,0.0,0.0,0.0,0.386969610581,0.922092468512
1565342429733194781,62247,1565342429673225033,map,0.342573165894,-0.102135658264,0.0,0.0,0.0,0.380678774906,0.924707343074
1565342429799864261,62248,1565342429740219720,map,0.343320846558,-0.0932788848877,0.0,0.0,0.0,0.374466826026,0.927240312004
1565342429867080823,62249,1565342429806504772,map,0.344945907593,-0.0852603912354,0.0,0.0,0.0,0.368685413251,0.929554229755
1565342429933129573,62250,1565342429873156699,map,0.346731185913,-0.0762939453125,0.0,0.0,0.0,0.363160897117,0.931726442045
1565342430000824208,62251,1565342429939976335,map,0.350483894348,-0.0656938552856,0.0,0.0,0.0,0.357469058972,0.933924981933
1565342430067464156,62252,1565342430007084303,map,0.353584289551,-0.058201789856,0.0,0.0,0.0,0.352818497458,0.93569178037
1565342430135754521,62253,1565342430073731491,map,0.35638999939,-0.0477705001831,0.0,0.0,0.0,0.347694779909,0.937607775151
1565342430202040979,62254,1565342430140672116,map,0.360517501831,-0.0370464324951,0.0,0.0,0.0,0.34260111657,0.939480960385
1565342430267441240,62255,1565342430207531855,map,0.364702224731,-0.0275650024414,0.0,0.0,0.0,0.337929942861,0.941171266943
1565342430332990302,62256,1565342430273155032,map,0.368783950806,-0.0159015655518,0.0,0.0,0.0,0.33283858267,0.942983816344
1565342430399682229,62257,1565342430339947689,map,0.372995376587,-0.00611782073975,0.0,0.0,0.0,0.328739061774,0.94442079036
1565342430466953010,62258,1565342430407102636,map,0.376065254211,0.00669288635254,0.0,0.0,0.0,0.325335050111,0.945598807724
1565342430533871760,62259,1565342430473899355,map,0.381078720093,0.0181293487549,0.0,0.0,0.0,0.32476863742,0.945793493395
1565342430599556708,62260,1565342430539930501,map,0.386045455933,0.0293064117432,0.0,0.0,0.0,0.324261819581,0.945967373836
1565342430667968791,62261,1565342430606883626,map,0.390467643738,0.0430860519409,0.0,0.0,0.0,0.322581882346,0.946541562311
1565342430733485823,62262,1565342430673139563,map,0.396371841431,0.0549182891846,0.0,0.0,0.0,0.321453287933,0.946925437232
1565342430800278531,62263,1565342430740177740,map,0.402505874634,0.0660219192505,0.0,0.0,0.0,0.320648546885,0.947198241859
1565342430867897333,62264,1565342430806533886,map,0.408254623413,0.0784587860107,0.0,0.0,0.0,0.319725824321,0.947510104042
1565342430933844573,62265,1565342430873116126,map,0.415858268738,0.0908641815186,0.0,0.0,0.0,0.319024191836,0.947746572151
1565342431000858896,62266,1565342430940025188,map,0.422258377075,0.101198196411,0.0,0.0,0.0,0.31903438828,0.94774313983
1565342431067381656,62267,1565342431006525188,map,0.429026603699,0.115132331848,0.0,0.0,0.0,0.317859633981,0.948137781699
1565342431133970875,62268,1565342431072973470,map,0.436645507812,0.12732219696,0.0,0.0,0.0,0.314820553263,0.949151209894
1565342431199529000,62269,1565342431139638938,map,0.442828178406,0.13902759552,0.0,0.0,0.0,0.309788047874,0.950805640178
1565342431266481968,62270,1565342431206445709,map,0.449460983276,0.15163230896,0.0,0.0,0.0,0.304204055012,0.952606893169
1565342431332876864,62271,1565342431273033522,map,0.455335617065,0.164678573608,0.0,0.0,0.0,0.299649245415,0.954049437777
1565342431400757593,62272,1565342431340207324,map,0.463689804077,0.177706718445,0.0,0.0,0.0,0.294643891284,0.955607124989
1565342431467019885,62273,1565342431406807949,map,0.469161987305,0.188520431519,0.0,0.0,0.0,0.287895934174,0.957661699707
1565342431533948687,62274,1565342431474138313,map,0.476463317871,0.199078559875,0.0,0.0,0.0,0.279168134428,0.96024223648
1565342431599939833,62275,1565342431540273157,map,0.482394218445,0.212224960327,0.0,0.0,0.0,0.270715450359,0.96265941274
1565342431667273479,62276,1565342431607276803,map,0.49050617218,0.225214004517,0.0,0.0,0.0,0.261966662828,0.965076923134
1565342431733083687,62277,1565342431673212688,map,0.499197006226,0.235346794128,0.0,0.0,0.0,0.2520143707,0.967723491996
1565342431802523010,62278,1565342431740532844,map,0.506421089172,0.249155044556,0.0,0.0,0.0,0.240514278706,0.970645600484
1565342431867485249,62279,1565342431806894823,map,0.514724731445,0.26162147522,0.0,0.0,0.0,0.23069428636,0.9730262824
1565342431933933531,62280,1565342431873281386,map,0.522758483887,0.272992134094,0.0,0.0,0.0,0.22160797032,0.975135840532
1565342431999802801,62281,1565342431940098209,map,0.533060073853,0.284563064575,0.0,0.0,0.0,0.210752621702,0.977539427566
1565342432066832124,62282,1565342432006442792,map,0.540964126587,0.296000480652,0.0,0.0,0.0,0.1981051725,0.980180769363
1565342432135132280,62283,1565342432073139667,map,0.550790786743,0.307141304016,0.0,0.0,0.0,0.186105642511,0.982529739919
1565342432200460874,62284,1565342432140337532,map,0.557299613953,0.318554878235,0.0,0.0,0.0,0.175503445114,0.984478816813
1565342432268513010,62285,1565342432206645448,map,0.565678596497,0.331796646118,0.0,0.0,0.0,0.165560766035,0.986199590727
1565342432333398114,62286,1565342432273170604,map,0.574252128601,0.343595504761,0.0,0.0,0.0,0.156341143704,0.987703116724
1565342432401033582,62287,1565342432339980292,map,0.58198261261,0.352818489075,0.0,0.0,0.0,0.148187190018,0.988959330162
1565342432469241551,62288,1565342432406459459,map,0.589162826538,0.363119125366,0.0,0.0,0.0,0.139754895841,0.990186128507
1565342432533395093,62289,1565342432473561386,map,0.596255302429,0.372744560242,0.0,0.0,0.0,0.131635513813,0.991298184959
1565342432600461239,62290,1565342432540108990,map,0.602869033813,0.38140296936,0.0,0.0,0.0,0.123810752932,0.992305848748
1565342432667068478,62291,1565342432606465084,map,0.60969543457,0.390316963196,0.0,0.0,0.0,0.116335320668,0.993209994495
1565342432733118582,62292,1565342432673380604,map,0.615079879761,0.39857673645,0.0,0.0,0.0,0.109143281594,0.99402602787
1565342432800047905,62293,1565342432739942740,map,0.619723320007,0.407499313354,0.0,0.0,0.0,0.102004077108,0.994783980698
