%time,field.linear.x,field.linear.y,field.linear.z,field.angular.x,field.angular.y,field.angular.z
1565342400264439063,1550.0,1550.0,1550.0,1550.0,0.0,0.0
1565342400314080834,1550.0,1550.0,1550.0,1550.0,0.0,0.0
1565342400364093907,1550.0,1550.0,1550.0,1550.0,0.0,0.0
1565342400414353595,1550.0,1550.0,1550.0,1550.0,0.0,0.0
1565342400464208438,1550.0,1550.0,1550.0,1550.0,0.0,0.0
1565342400514228126,1550.0,1550.0,1550.0,1550.0,0.0,0.0
1565342400564974272,1583.72239172,1550.0,1550.0,1583.72239172,0.0,0.0
1565342400614995990,1583.72239172,1550.0,1550.0,1583.72239172,0.0,0.0
1565342400666954740,1592.94701219,1550.0,1550.0,1592.94701219,0.0,0.0
1565342400714961824,1592.94701219,1550.0,1550.0,1592.94701219,0.0,0.0
1565342400764964740,1550.0,1550.0,1550.0,1550.0,0.0,0.0
1565342400815043699,1550.0,1550.0,1550.0,1550.0,0.0,0.0
1565342400865288230,1550.0,1550.0,1550.0,1550.0,0.0,0.0
1565342400915009219,1550.0,1550.0,1550.0,1550.0,0.0,0.0
1565342400965072240,1550.0,1550.0,1550.0,1550.0,0.0,0.0
1565342401015054219,1550.0,1550.0,1550.0,1550.0,0.0,0.0
1565342401065830261,1550.0,1550.0,1550.0,1550.0,0.0,0.0
1565342401114822709,1592.94701219,1550.0,1550.0,1592.94701219,0.0,0.0
1565342401165216355,1592.94701219,1550.0,1550.0,1592.94701219,0.0,0.0
1565342401215024324,1559.30437073,1550.0,1550.0,1559.30437073,0.0,0.0
1565342401265121928,1559.30437073,1550.0,1550.0,1559.30437073,0.0,0.0
1565342401315597448,1550.0,1550.0,1550.0,1550.0,0.0,0.0
1565342401365016876,1550.0,1550.0,1550.0,1550.0,0.0,0.0
1565342401414925313,1550.0,1550.0,1550.0,1550.0,0.0,0.0
1565342401465513959,1550.0,1550.0,1550.0,1550.0,0.0,0.0
1565342401515163959,1550.0,1550.0,1550.0,1550.0,0.0,0.0
1565342401565084948,1550.0,1550.0,1550.0,1550.0,0.0,0.0
1565342401614937813,1550.0,1550.0,1550.0,1550.0,0.0,0.0
1565342401665079428,1550.0,1550.0,1550.0,1550.0,0.0,0.0
1565342401715125209,1550.0,1550.0,1550.0,1550.0,0.0,0.0
1565342401765046563,1550.0,1550.0,1550.0,1550.0,0.0,0.0
1565342401814910730,1550.0,1550.0,1550.0,1550.0,0.0,0.0
1565342401865712709,1550.0,1550.0,1550.0,1550.0,0.0,0.0
1565342401914894167,1550.0,1550.0,1578.38108838,1578.38108838,0.0,0.0
1565342401964946459,1550.0,1550.0,1578.38108838,1578.38108838,0.0,0.0
1565342402014886198,1550.0,1550.0,1578.38108838,1578.38108838,0.0,0.0
1565342402064906094,1550.0,1550.0,1578.38108838,1578.38108838,0.0,0.0
1565342402114906250,1550.0,1550.0,1578.38108838,1578.38108838,0.0,0.0
1565342402165075834,1550.0,1550.0,1578.38108838,1578.38108838,0.0,0.0
1565342402215011459,1550.0,1550.0,1577.29527354,1577.29527354,0.0,0.0
1565342402265001146,1550.0,1550.0,1577.29527354,1577.29527354,0.0,0.0
1565342402315121563,1550.0,1550.0,1577.29527354,1577.29527354,0.0,0.0
1565342402364955313,1550.0,1550.0,1577.29527354,1577.29527354,0.0,0.0
1565342402415144323,1550.0,1550.0,1609.85049009,1609.85049009,0.0,0.0
1565342402465329063,1550.0,1550.0,1609.85049009,1609.85049009,0.0,0.0
1565342402514627344,1550.0,1550.0,1609.85049009,1609.85049009,0.0,0.0
1565342402564987031,1550.0,1550.0,1626.13131404,1626.13131404,0.0,0.0
1565342402615112917,1550.0,1550.0,1626.13131404,1626.13131404,0.0,0.0
1565342402665858125,1550.0,1550.0,1626.13131404,1626.13131404,0.0,0.0
1565342402715134583,1550.0,1550.0,1626.13131404,1626.13131404,0.0,0.0
1565342402765218021,1550.0,1550.0,1626.13131404,1626.13131404,0.0,0.0
1565342402814885781,1550.0,1550.0,1626.13131404,1626.13131404,0.0,0.0
1565342402865195312,1550.0,1550.0,1627.21391916,1627.21391916,0.0,0.0
1565342402914572083,1550.0,1550.0,1627.21391916,1627.21391916,0.0,0.0
1565342402964873229,1550.0,1550.0,1628.29973102,1628.29973102,0.0,0.0
1565342403015070677,1550.0,1550.0,1628.29973102,1628.29973102,0.0,0.0
1565342403064809792,1550.0,1550.0,1628.29973102,1628.29973102,0.0,0.0
1565342403114854896,1550.0,1550.0,1628.29973102,1628.29973102,0.0,0.0
1565342403165354896,1550.0,1550.0,1628.29973102,1628.29973102,0.0,0.0
1565342403215184739,1550.0,1550.0,1628.29973102,1628.29973102,0.0,0.0
1565342403265476094,1550.0,1550.0,1628.29973102,1628.29973102,0.0,0.0
1565342403315651875,1550.0,1550.0,1628.29973102,1628.29973102,0.0,0.0
1565342403364838177,1550.0,1550.0,1628.29973102,1628.29973102,0.0,0.0
1565342403414852500,1550.0,1550.0,1628.29973102,1628.29973102,0.0,0.0
1565342403465588385,1550.0,1550.0,1628.29973102,1628.29973102,0.0,0.0
1565342403516113698,1550.0,1550.0,1630.47136664,1630.47136664,0.0,0.0
1565342403565244218,1550.0,1550.0,1630.47136664,1630.47136664,0.0,0.0
1565342403614768385,1550.0,1550.0,1630.47136664,1630.47136664,0.0,0.0
1565342403664987291,1550.0,1550.0,1630.47136664,1630.47136664,0.0,0.0
1565342403714838958,1550.0,1550.0,1630.47136664,1630.47136664,0.0,0.0
1565342403764875000,1550.0,1550.0,1630.47136664,1630.47136664,0.0,0.0
1565342403815198385,1550.0,1550.0,1630.47136664,1630.47136664,0.0,0.0
1565342403865424010,1550.0,1550.0,1630.47136664,1630.47136664,0.0,0.0
1565342403915145312,1550.0,1550.0,1630.47136664,1630.47136664,0.0,0.0
1565342403964825052,1550.0,1550.0,1630.47136664,1630.47136664,0.0,0.0
1565342404014887031,1550.0,1550.0,1630.47136664,1630.47136664,0.0,0.0
1565342404065182708,1550.0,1550.0,1630.47136664,1630.47136664,0.0,0.0
1565342404115290208,1550.0,1550.0,1630.47136664,1630.47136664,0.0,0.0
1565342404165614114,1550.0,1550.0,1631.55718446,1631.55718446,0.0,0.0
1565342404215097083,1550.0,1550.0,1631.55718446,1631.55718446,0.0,0.0
1565342404266695729,1550.0,1550.0,1631.55718446,1631.55718446,0.0,0.0
1565342404315228854,1570.70062459,1550.0,1627.21391916,1647.91454375,0.0,0.0
1565342404364917864,1570.70062459,1550.0,1627.21391916,1647.91454375,0.0,0.0
1565342404414878541,1573.95486087,1550.0,1626.13131404,1650.08617491,0.0,0.0
1565342404466579166,1573.95486087,1550.0,1626.13131404,1650.08617491,0.0,0.0
1565342404515201301,1550.0,1550.0,1626.13131404,1626.13131404,0.0,0.0
1565342404565082864,1550.0,1550.0,1626.13131404,1626.13131404,0.0,0.0
1565342404615148958,1550.0,1550.0,1628.29973102,1628.29973102,0.0,0.0
1565342404667222499,1550.0,1550.0,1628.29973102,1628.29973102,0.0,0.0
1565342404715100260,1550.0,1550.0,1628.29973102,1628.29973102,0.0,0.0
1565342404765011666,1550.0,1550.0,1629.38554883,1629.38554883,0.0,0.0
1565342404815016510,1550.0,1550.0,1629.38554883,1629.38554883,0.0,0.0
1565342404865631041,1550.0,1550.0,1630.47136664,1630.47136664,0.0,0.0
1565342404915534635,1550.0,1550.0,1630.47136664,1630.47136664,0.0,0.0
1565342404965086041,1550.0,1550.0,1630.47136664,1630.47136664,0.0,0.0
1565342405015200885,1550.0,1550.0,1630.47136664,1630.47136664,0.0,0.0
1565342405065194218,1550.0,1550.0,1630.47136664,1630.47136664,0.0,0.0
1565342405116417603,1550.0,1550.0,1631.55718446,1631.55718446,0.0,0.0
1565342405165035989,1550.0,1550.0,1631.55718446,1631.55718446,0.0,0.0
1565342405215234426,1550.0,1550.0,1631.55718446,1631.55718446,0.0,0.0
1565342405266414114,1584.80820656,1550.0,1631.55718446,1666.36539102,0.0,0.0
1565342405315530572,1584.80820656,1550.0,1631.55718446,1666.36539102,0.0,0.0
1565342405365045364,1550.0,1550.0,1632.63978958,1632.63978958,0.0,0.0
1565342405414965884,1550.0,1550.0,1632.63978958,1632.63978958,0.0,0.0
1565342405465547707,1550.0,1550.0,1635.89723706,1635.89723706,0.0,0.0
1565342405515063332,1550.0,1550.0,1635.89723706,1635.89723706,0.0,0.0
1565342405565018072,1550.0,1550.0,1635.89723706,1635.89723706,0.0,0.0
1565342405615144374,1550.0,1550.0,1635.89723706,1635.89723706,0.0,0.0
1565342405665402811,1550.0,1550.0,1635.89723706,1635.89723706,0.0,0.0
1565342405714606405,1550.0,1550.0,1635.89723706,1635.89723706,0.0,0.0
1565342405765267863,1550.0,1550.0,1635.89723706,1635.89723706,0.0,0.0
1565342405815430416,1550.0,1550.0,1635.89723706,1635.89723706,0.0,0.0
1565342405866820832,1550.0,1550.0,1635.89723706,1635.89723706,0.0,0.0
1565342405914930311,1550.0,1550.0,1635.89723706,1635.89723706,0.0,0.0
1565342405964939999,1550.0,1550.0,1635.89723706,1635.89723706,0.0,0.0
1565342406015292290,1550.0,1550.0,1635.89723706,1635.89723706,0.0,0.0
1565342406067115624,1550.0,1550.0,1635.89723706,1635.89723706,0.0,0.0
1565342406115184842,1550.0,1550.0,1635.89723706,1635.89723706,0.0,0.0
1565342406165218488,1550.0,1550.0,1635.89723706,1635.89723706,0.0,0.0
1565342406214851249,1550.0,1550.0,1635.89723706,1635.89723706,0.0,0.0
1565342406266062863,1550.0,1550.0,1635.89723706,1635.89723706,0.0,0.0
1565342406314938540,1550.0,1550.0,1635.89723706,1635.89723706,0.0,0.0
1565342406365059217,1550.0,1550.0,1635.89723706,1635.89723706,0.0,0.0
1565342406415058228,1550.0,1550.0,1635.89723706,1635.89723706,0.0,0.0
1565342406465286457,1550.0,1550.0,1635.89723706,1635.89723706,0.0,0.0
1565342406515009269,1550.0,1550.0,1635.89723706,1635.89723706,0.0,0.0
1565342406564834374,1550.0,1550.0,1635.89723706,1635.89723706,0.0,0.0
1565342406615994165,1550.0,1550.0,1635.89723706,1635.89723706,0.0,0.0
1565342406665878228,1550.0,1550.0,1635.89723706,1635.89723706,0.0,0.0
1565342406715064061,1550.0,1550.0,1635.89723706,1635.89723706,0.0,0.0
1565342406765164530,1550.0,1550.0,1635.89723706,1635.89723706,0.0,0.0
1565342406815236405,1550.0,1550.0,1635.89723706,1635.89723706,0.0,0.0
1565342406865356873,1550.0,1550.0,1635.89723706,1635.89723706,0.0,0.0
1565342406914991717,1550.0,1550.0,1635.89723706,1635.89723706,0.0,0.0
1565342406965081821,1591.86119437,1550.0,1635.89723706,1677.75843143,0.0,0.0
1565342407015267811,1591.86119437,1550.0,1635.89723706,1677.75843143,0.0,0.0
1565342407065224894,1600.0,1550.0,1635.89723706,1685.89723706,0.0,0.0
1565342407115183123,1600.0,1550.0,1635.89723706,1685.89723706,0.0,0.0
1565342407165153436,1600.0,1550.0,1635.89723706,1685.89723706,0.0,0.0
1565342407214992915,1600.0,1550.0,1635.89723706,1685.89723706,0.0,0.0
1565342407265538592,1600.0,1550.0,1635.89723706,1685.89723706,0.0,0.0
1565342407315205207,1600.0,1550.0,1635.89723706,1685.89723706,0.0,0.0
1565342407366498644,1600.0,1550.0,1635.89723706,1685.89723706,0.0,0.0
1565342407415936821,1550.0,1550.0,1635.89723706,1635.89723706,0.0,0.0
1565342407467683540,1550.0,1550.0,1635.89723706,1635.89723706,0.0,0.0
1565342407515683592,1550.0,1550.0,1635.89723706,1635.89723706,0.0,0.0
1565342407565150884,1550.0,1550.0,1635.89723706,1635.89723706,0.0,0.0
1565342407615149842,1593.48992109,1550.0,1635.89723706,1679.38715816,0.0,0.0
1565342407665609790,1593.48992109,1550.0,1635.89723706,1679.38715816,0.0,0.0
1565342407715103331,1600.0,1550.0,1635.89723706,1685.89723706,0.0,0.0
1565342407765476300,1600.0,1550.0,1635.89723706,1685.89723706,0.0,0.0
1565342407815729425,1600.0,1550.0,1635.89723706,1685.89723706,0.0,0.0
1565342407865445258,1600.0,1550.0,1635.89723706,1685.89723706,0.0,0.0
1565342407915013800,1600.0,1550.0,1635.89723706,1685.89723706,0.0,0.0
1565342407965084529,1600.0,1550.0,1635.89723706,1685.89723706,0.0,0.0
1565342408015182290,1600.0,1550.0,1635.89723706,1685.89723706,0.0,0.0
1565342408065274842,1600.0,1550.0,1635.89723706,1685.89723706,0.0,0.0
1565342408115005258,1600.0,1550.0,1635.89723706,1685.89723706,0.0,0.0
1565342408165366404,1550.0,1550.0,1635.89723706,1635.89723706,0.0,0.0
1565342408214971040,1550.0,1550.0,1635.89723706,1635.89723706,0.0,0.0
1565342408265669998,1550.0,1550.0,1635.89723706,1635.89723706,0.0,0.0
1565342408314968904,1550.0,1550.0,1635.89723706,1635.89723706,0.0,0.0
1565342408365535675,1550.0,1550.0,1635.89723706,1635.89723706,0.0,0.0
1565342408415298487,1550.0,1550.0,1635.89723706,1635.89723706,0.0,0.0
1565342408465581612,1550.0,1550.0,1635.89723706,1635.89723706,0.0,0.0
1565342408515695467,1550.0,1550.0,1635.89723706,1635.89723706,0.0,0.0
1565342408565363748,1550.0,1550.0,1635.89723706,1635.89723706,0.0,0.0
1565342408614975727,1550.0,1550.0,1635.89723706,1635.89723706,0.0,0.0
1565342408665881196,1550.0,1550.0,1635.89723706,1635.89723706,0.0,0.0
1565342408715177029,1550.0,1550.0,1635.89723706,1635.89723706,0.0,0.0
1565342408765081925,1550.0,1550.0,1635.89723706,1635.89723706,0.0,0.0
1565342408815159008,1550.0,1550.0,1635.89723706,1635.89723706,0.0,0.0
1565342408865054633,1550.0,1550.0,1635.89723706,1635.89723706,0.0,0.0
1565342408915148175,1550.0,1550.0,1635.89723706,1635.89723706,0.0,0.0
1565342408965423487,1550.0,1550.0,1635.89723706,1635.89723706,0.0,0.0
1565342409015110206,1550.0,1550.0,1635.89723706,1635.89723706,0.0,0.0
1565342409065851925,1550.0,1550.0,1635.89723706,1635.89723706,0.0,0.0
1565342409115028539,1550.0,1550.0,1635.89723706,1635.89723706,0.0,0.0
1565342409164639477,1550.0,1550.0,1635.89723706,1635.89723706,0.0,0.0
1565342409215102341,1550.0,1550.0,1635.89723706,1635.89723706,0.0,0.0
1565342409265699008,1550.0,1550.0,1635.89723706,1635.89723706,0.0,0.0
1565342409315162237,1550.0,1550.0,1635.89723706,1635.89723706,0.0,0.0
1565342409365200779,1550.0,1550.0,1635.89723706,1635.89723706,0.0,0.0
1565342409415147914,1550.0,1550.0,1635.89723706,1635.89723706,0.0,0.0
1565342409465618018,1550.0,1550.0,1635.89723706,1635.89723706,0.0,0.0
1565342409515269789,1550.0,1550.0,1635.89723706,1635.89723706,0.0,0.0
1565342409565184685,1550.0,1550.0,1635.89723706,1635.89723706,0.0,0.0
1565342409615170935,1550.0,1550.0,1635.89723706,1635.89723706,0.0,0.0
1565342409665268279,1550.0,1550.0,1635.89723706,1635.89723706,0.0,0.0
1565342409715159737,1569.07189935,1550.0,1635.89723706,1654.96913642,0.0,0.0
1565342409765558331,1569.07189935,1550.0,1635.89723706,1654.96913642,0.0,0.0
1565342409815243070,1584.26529765,1550.0,1636.98305488,1671.24835253,0.0,0.0
1565342409865351195,1584.26529765,1550.0,1636.98305488,1671.24835253,0.0,0.0
1565342409914790414,1567.98608303,1550.0,1635.89723706,1653.88332009,0.0,0.0
1565342409964901247,1567.98608303,1550.0,1635.89723706,1653.88332009,0.0,0.0
1565342410014903070,1550.0,1550.0,1635.89723706,1635.89723706,0.0,0.0
1565342410065907237,1550.0,1550.0,1635.89723706,1635.89723706,0.0,0.0
1565342410115475258,1550.0,1550.0,1635.89723706,1635.89723706,0.0,0.0
1565342410164857810,1550.0,1550.0,1635.89723706,1635.89723706,0.0,0.0
1565342410214890310,1568.52899194,1550.0,1635.89723706,1654.426229,0.0,0.0
1565342410264961039,1568.52899194,1550.0,1635.89723706,1654.426229,0.0,0.0
1565342410314845883,1550.0,1550.0,1635.89723706,1635.89723706,0.0,0.0
1565342410364903851,1550.0,1550.0,1635.89723706,1635.89723706,0.0,0.0
1565342410414825570,1550.0,1550.0,1635.89723706,1635.89723706,0.0,0.0
1565342410464920778,1550.0,1550.0,1635.89723706,1635.89723706,0.0,0.0
1565342410514915466,1550.0,1550.0,1635.89723706,1635.89723706,0.0,0.0
1565342410564897549,1550.0,1550.0,1635.89723706,1635.89723706,0.0,0.0
1565342410614864580,1550.0,1550.0,1640.23728967,1640.23728967,0.0,0.0
1565342410665198382,1550.0,1550.0,1640.23728967,1640.23728967,0.0,0.0
1565342410714890414,1550.0,1550.0,1640.23728967,1640.23728967,0.0,0.0
1565342410764933382,1550.0,1550.0,1650.0,1650.0,0.0,0.0
1565342410815182914,1550.0,1550.0,1650.0,1650.0,0.0,0.0
1565342410864968799,1550.0,1550.0,1650.0,1650.0,0.0,0.0
1565342410914872445,1550.0,1550.0,1650.0,1650.0,0.0,0.0
1565342410964940153,1550.0,1550.0,1650.0,1650.0,0.0,0.0
1565342411014954893,1550.0,1550.0,1650.0,1650.0,0.0,0.0
1565342411064961507,1550.0,1550.0,1650.0,1650.0,0.0,0.0
1565342411114906507,1550.0,1550.0,1650.0,1650.0,0.0,0.0
1565342411164929736,1550.0,1550.0,1650.0,1650.0,0.0,0.0
1565342411214884528,1550.0,1550.0,1650.0,1650.0,0.0,0.0
1565342411265901455,1550.0,1550.0,1650.0,1650.0,0.0,0.0
1565342411315637288,1559.30437073,1550.0,1647.83478975,1657.13916048,0.0,0.0
1565342411365603590,1559.30437073,1550.0,1647.83478975,1657.13916048,0.0,0.0
1565342411414578226,1584.26529765,1550.0,1647.83478975,1682.1000874,0.0,0.0
1565342411465066507,1584.26529765,1550.0,1647.83478975,1682.1000874,0.0,0.0
1565342411515204632,1584.80820656,1550.0,1647.83478975,1682.64299631,0.0,0.0
1565342411564933538,1584.80820656,1550.0,1647.83478975,1682.64299631,0.0,0.0
1565342411615396507,1588.60535324,1550.0,1646.7489779,1685.35433114,0.0,0.0
1565342411664969528,1588.60535324,1550.0,1646.7489779,1685.35433114,0.0,0.0
1565342411714887497,1588.60535324,1550.0,1646.7489779,1685.35433114,0.0,0.0
1565342411764893903,1584.26529765,1550.0,1646.7489779,1681.01427555,0.0,0.0
1565342411814928747,1584.26529765,1550.0,1646.7489779,1681.01427555,0.0,0.0
1565342411865064528,1550.0,1550.0,1646.7489779,1646.7489779,0.0,0.0
1565342411914937497,1550.0,1550.0,1646.7489779,1646.7489779,0.0,0.0
1565342411964960257,1550.0,1550.0,1646.7489779,1646.7489779,0.0,0.0
1565342412014925517,1550.0,1550.0,1646.7489779,1646.7489779,0.0,0.0
1565342412064965882,1550.0,1550.0,1646.7489779,1646.7489779,0.0,0.0
1565342412114860049,1550.0,1550.0,1646.7489779,1646.7489779,0.0,0.0
1565342412164907913,1550.0,1550.0,1646.7489779,1646.7489779,0.0,0.0
1565342412214908174,1550.0,1550.0,1646.7489779,1646.7489779,0.0,0.0
1565342412265137809,1550.0,1550.0,1646.7489779,1646.7489779,0.0,0.0
1565342412314820830,1550.0,1550.0,1650.0,1650.0,0.0,0.0
1565342412364795101,1550.0,1550.0,1650.0,1650.0,0.0,0.0
1565342412414859163,1550.0,1550.0,1650.0,1650.0,0.0,0.0
1565342412465251715,1550.0,1550.0,1650.0,1650.0,0.0,0.0
1565342412515384684,1550.0,1550.0,1650.0,1650.0,0.0,0.0
1565342412565193903,1550.0,1550.0,1650.0,1650.0,0.0,0.0
1565342412614875517,1550.0,1600.0,1700.0,1650.0,0.0,0.0
1565342412665976715,1550.0,1600.0,1700.0,1650.0,0.0,0.0
1565342412714628069,1550.0,1600.0,1700.0,1650.0,0.0,0.0
1565342412765345986,1550.0,1550.0,1650.0,1650.0,0.0,0.0
1565342412814652548,1550.0,1550.0,1650.0,1650.0,0.0,0.0
1565342412865006246,1550.0,1550.0,1650.0,1650.0,0.0,0.0
1565342412915034892,1550.0,1550.0,1650.0,1650.0,0.0,0.0
1565342412965092392,1550.0,1550.0,1650.0,1650.0,0.0,0.0
1565342413015214215,1550.0,1550.0,1650.0,1650.0,0.0,0.0
1565342413065459163,1550.0,1550.0,1650.0,1650.0,0.0,0.0
1565342413114910673,1550.0,1550.0,1650.0,1650.0,0.0,0.0
1565342413165040256,1550.0,1550.0,1650.0,1650.0,0.0,0.0
1565342413214935152,1550.0,1550.0,1650.0,1650.0,0.0,0.0
1565342413265491194,1550.0,1550.0,1650.0,1650.0,0.0,0.0
1565342413314892600,1550.0,1550.0,1650.0,1650.0,0.0,0.0
1565342413364954371,1550.0,1550.0,1650.0,1650.0,0.0,0.0
1565342413415607861,1550.0,1550.0,1650.0,1650.0,0.0,0.0
1565342413465402913,1600.0,1550.0,1650.0,1700.0,0.0,0.0
1565342413515146767,1600.0,1550.0,1650.0,1700.0,0.0,0.0
1565342413565233538,1600.0,1550.0,1647.83478975,1697.83478975,0.0,0.0
1565342413615156871,1600.0,1550.0,1647.83478975,1697.83478975,0.0,0.0
1565342413665231715,1550.0,1550.0,1647.83478975,1647.83478975,0.0,0.0
1565342413714924735,1550.0,1550.0,1647.83478975,1647.83478975,0.0,0.0
1565342413765169579,1550.0,1550.0,1647.83478975,1647.83478975,0.0,0.0
1565342413815550569,1550.0,1550.0,1647.83478975,1647.83478975,0.0,0.0
1565342413865415465,1550.0,1550.0,1647.83478975,1647.83478975,0.0,0.0
1565342413915091298,1550.0,1550.0,1646.7489779,1646.7489779,0.0,0.0
1565342413965019527,1550.0,1550.0,1646.7489779,1646.7489779,0.0,0.0
1565342414015231089,1550.0,1550.0,1646.7489779,1646.7489779,0.0,0.0
1565342414065653017,1550.0,1550.0,1646.7489779,1646.7489779,0.0,0.0
1565342414116064110,1550.0,1550.0,1646.7489779,1646.7489779,0.0,0.0
1565342414164922079,1550.0,1550.0,1647.83478975,1647.83478975,0.0,0.0
1565342414215437652,1550.0,1550.0,1647.83478975,1647.83478975,0.0,0.0
1565342414266779579,1550.0,1550.0,1647.83478975,1647.83478975,0.0,0.0
1565342414314987704,1550.0,1550.0,1647.83478975,1647.83478975,0.0,0.0
1565342414365011975,1550.0,1550.0,1647.83478975,1647.83478975,0.0,0.0
1565342414415058902,1550.0,1550.0,1646.7489779,1646.7489779,0.0,0.0
1565342414465112079,1550.0,1550.0,1646.7489779,1646.7489779,0.0,0.0
1565342414514966350,1550.0,1550.0,1646.7489779,1646.7489779,0.0,0.0
1565342414564950933,1550.0,1550.0,1647.83478975,1647.83478975,0.0,0.0
1565342414614919006,1550.0,1550.0,1647.83478975,1647.83478975,0.0,0.0
1565342414664965933,1550.0,1550.0,1647.83478975,1647.83478975,0.0,0.0
1565342414714945464,1550.0,1550.0,1647.83478975,1647.83478975,0.0,0.0
1565342414764936818,1551.70847438,1550.0,1647.83478975,1649.54326414,0.0,0.0
1565342414814923693,1551.70847438,1550.0,1647.83478975,1649.54326414,0.0,0.0
1565342414865033485,1551.70847438,1550.0,1647.83478975,1649.54326414,0.0,0.0
1565342414914865933,1600.0,1550.0,1566.4435342,1616.4435342,0.0,0.0
1565342414964943485,1600.0,1550.0,1566.4435342,1616.4435342,0.0,0.0
1565342415015020308,1600.0,1550.0,1550.0,1600.0,0.0,0.0
1565342415065145464,1600.0,1550.0,1550.0,1600.0,0.0,0.0
1565342415115090308,1600.0,1550.0,1550.0,1600.0,0.0,0.0
1565342415165055412,1600.0,1550.0,1550.0,1600.0,0.0,0.0
1565342415215096558,1600.0,1550.0,1550.0,1600.0,0.0,0.0
1565342415265136402,1600.0,1550.0,1550.0,1600.0,0.0,0.0
1565342415315031141,1600.0,1550.0,1550.0,1600.0,0.0,0.0
1565342415365007235,1600.0,1550.0,1550.0,1600.0,0.0,0.0
1565342415415020256,1600.0,1550.0,1550.0,1600.0,0.0,0.0
1565342415467784631,1600.0,1550.0,1550.0,1600.0,0.0,0.0
1565342415515023433,1600.0,1550.0,1550.0,1600.0,0.0,0.0
1565342415564982599,1550.0,1550.0,1550.0,1550.0,0.0,0.0
1565342415615444006,1550.0,1550.0,1550.0,1550.0,0.0,0.0
1565342415665021922,1550.0,1550.0,1601.17038488,1601.17038488,0.0,0.0
1565342415715142964,1550.0,1550.0,1601.17038488,1601.17038488,0.0,0.0
1565342415765023380,1550.0,1550.0,1632.63978958,1632.63978958,0.0,0.0
1565342415814949943,1550.0,1550.0,1632.63978958,1632.63978958,0.0,0.0
1565342415865108016,1550.0,1550.0,1632.63978958,1632.63978958,0.0,0.0
1565342415915171089,1550.0,1550.0,1632.63978958,1632.63978958,0.0,0.0
1565342415965194370,1550.0,1550.0,1632.63978958,1632.63978958,0.0,0.0
1565342416015234578,1550.0,1550.0,1632.63978958,1632.63978958,0.0,0.0
1565342416065472964,1550.0,1550.0,1632.63978958,1632.63978958,0.0,0.0
1565342416115106089,1550.0,1550.0,1632.63978958,1632.63978958,0.0,0.0
1565342416165092287,1550.0,1550.0,1630.47136664,1630.47136664,0.0,0.0
1565342416215081505,1550.0,1550.0,1630.47136664,1630.47136664,0.0,0.0
1565342416264991453,1550.0,1550.0,1630.47136664,1630.47136664,0.0,0.0
1565342416314848693,1550.0,1550.0,1630.47136664,1630.47136664,0.0,0.0
1565342416365023797,1550.0,1550.0,1630.47136664,1630.47136664,0.0,0.0
1565342416415025672,1550.0,1550.0,1630.47136664,1630.47136664,0.0,0.0
1565342416465848901,1550.0,1550.0,1630.47136664,1630.47136664,0.0,0.0
1565342416515097339,1565.81605673,1550.0,1630.47136664,1646.28742337,0.0,0.0
1565342416565123849,1565.81605673,1550.0,1630.47136664,1646.28742337,0.0,0.0
1565342416615106401,1575.5835861,1550.0,1630.47136664,1656.05495274,0.0,0.0
1565342416665060724,1575.5835861,1550.0,1630.47136664,1656.05495274,0.0,0.0
1565342416714864161,1550.0,1550.0,1630.47136664,1630.47136664,0.0,0.0
1565342416765007495,1550.0,1550.0,1630.47136664,1630.47136664,0.0,0.0
1565342416814902495,1550.0,1550.0,1630.47136664,1630.47136664,0.0,0.0
1565342416866337182,1550.0,1550.0,1630.47136664,1630.47136664,0.0,0.0
1565342416915101557,1550.0,1550.0,1630.47136664,1630.47136664,0.0,0.0
1565342416964661557,1550.0,1550.0,1630.47136664,1630.47136664,0.0,0.0
1565342417014943745,1550.0,1550.0,1630.47136664,1630.47136664,0.0,0.0
1565342417064956505,1550.0,1550.0,1630.47136664,1630.47136664,0.0,0.0
1565342417115106088,1550.0,1550.0,1630.47136664,1630.47136664,0.0,0.0
1565342417165160984,1550.0,1550.0,1630.47136664,1630.47136664,0.0,0.0
1565342417215110880,1550.0,1550.0,1631.55718446,1631.55718446,0.0,0.0
1565342417265533692,1550.0,1550.0,1631.55718446,1631.55718446,0.0,0.0
1565342417314584578,1550.0,1550.0,1630.47136664,1630.47136664,0.0,0.0
1565342417365189422,1550.0,1550.0,1630.47136664,1630.47136664,0.0,0.0
1565342417414990203,1550.0,1550.0,1630.47136664,1630.47136664,0.0,0.0
1565342417465753536,1550.0,1550.0,1630.47136664,1630.47136664,0.0,0.0
1565342417515111192,1550.0,1550.0,1630.47136664,1630.47136664,0.0,0.0
1565342417565206765,1550.0,1550.0,1630.47136664,1630.47136664,0.0,0.0
1565342417615210099,1550.0,1550.0,1630.47136664,1630.47136664,0.0,0.0
1565342417664718328,1550.0,1550.0,1630.47136664,1630.47136664,0.0,0.0
1565342417715590619,1550.0,1550.0,1630.47136664,1630.47136664,0.0,0.0
1565342417765177703,1550.0,1550.0,1630.47136664,1630.47136664,0.0,0.0
1565342417814909578,1550.0,1550.0,1631.55718446,1631.55718446,0.0,0.0
1565342417865208536,1550.0,1550.0,1631.55718446,1631.55718446,0.0,0.0
1565342417915027338,1550.0,1550.0,1631.55718446,1631.55718446,0.0,0.0
1565342417964897546,1550.0,1550.0,1630.47136664,1630.47136664,0.0,0.0
1565342418014885046,1550.0,1550.0,1630.47136664,1630.47136664,0.0,0.0
1565342418064992598,1550.0,1550.0,1630.47136664,1630.47136664,0.0,0.0
1565342418115095515,1550.0,1600.0,1680.47136664,1630.47136664,0.0,0.0
1565342418165177390,1550.0,1600.0,1680.47136664,1630.47136664,0.0,0.0
1565342418215153848,1550.0,1550.0,1631.55718446,1631.55718446,0.0,0.0
1565342418266456713,1550.0,1550.0,1631.55718446,1631.55718446,0.0,0.0
1565342418314937390,1550.0,1550.0,1631.55718446,1631.55718446,0.0,0.0
1565342418364726036,1550.0,1550.0,1631.55718446,1631.55718446,0.0,0.0
1565342418414917911,1550.0,1550.0,1630.47136664,1630.47136664,0.0,0.0
1565342418465261869,1550.0,1550.0,1630.47136664,1630.47136664,0.0,0.0
1565342418515144213,1550.0,1550.0,1630.47136664,1630.47136664,0.0,0.0
1565342418564914577,1550.0,1550.0,1630.47136664,1630.47136664,0.0,0.0
1565342418614903692,1550.0,1600.0,1680.47136664,1630.47136664,0.0,0.0
1565342418665306140,1550.0,1600.0,1680.47136664,1630.47136664,0.0,0.0
1565342418714892129,1550.0,1575.04228354,1655.51365018,1630.47136664,0.0,0.0
1565342418764921609,1550.0,1575.04228354,1655.51365018,1630.47136664,0.0,0.0
1565342418814929108,1550.0,1550.0,1631.55718446,1631.55718446,0.0,0.0
1565342418865399890,1550.0,1550.0,1631.55718446,1631.55718446,0.0,0.0
1565342418915005306,1550.0,1550.0,1631.55718446,1631.55718446,0.0,0.0
1565342418964938067,1550.0,1550.0,1631.55718446,1631.55718446,0.0,0.0
1565342419015288223,1550.0,1550.0,1642.40892529,1642.40892529,0.0,0.0
1565342419065692025,1550.0,1550.0,1642.40892529,1642.40892529,0.0,0.0
1565342419115213171,1550.0,1550.0,1642.40892529,1642.40892529,0.0,0.0
1565342419165403692,1550.0,1550.0,1645.66316009,1645.66316009,0.0,0.0
1565342419215207754,1550.0,1550.0,1645.66316009,1645.66316009,0.0,0.0
1565342419265331087,1550.0,1550.0,1650.0,1650.0,0.0,0.0
1565342419315282858,1550.0,1550.0,1650.0,1650.0,0.0,0.0
1565342419365430671,1550.0,1557.75700212,1650.0,1657.75700212,0.0,0.0
1565342419415313640,1550.0,1557.75700212,1650.0,1657.75700212,0.0,0.0
1565342419465600202,1550.0,1557.75700212,1650.0,1657.75700212,0.0,0.0
1565342419514770514,1550.0,1557.75700212,1650.0,1657.75700212,0.0,0.0
1565342419564852702,1550.0,1557.75700212,1650.0,1657.75700212,0.0,0.0
1565342419614858014,1550.0,1556.67118579,1650.0,1656.67118579,0.0,0.0
1565342419665169785,1550.0,1556.67118579,1650.0,1656.67118579,0.0,0.0
1565342419715045775,1550.0,1557.75700212,1650.0,1657.75700212,0.0,0.0
1565342419765524629,1550.0,1557.75700212,1650.0,1657.75700212,0.0,0.0
1565342419814919369,1550.0,1557.75700212,1650.0,1657.75700212,0.0,0.0
1565342419864931816,1550.0,1557.75700212,1650.0,1657.75700212,0.0,0.0
1565342419915173952,1550.0,1607.75700212,1700.0,1657.75700212,0.0,0.0
1565342419964936191,1550.0,1607.75700212,1700.0,1657.75700212,0.0,0.0
1565342420014887129,1550.0,1607.75700212,1700.0,1657.75700212,0.0,0.0
1565342420064940827,1550.0,1556.67118579,1650.0,1656.67118579,0.0,0.0
1565342420114874473,1550.0,1556.67118579,1650.0,1656.67118579,0.0,0.0
1565342420165351816,1550.0,1556.67118579,1650.0,1656.67118579,0.0,0.0
1565342420214838170,1550.0,1606.67118579,1700.0,1656.67118579,0.0,0.0
1565342420265588170,1550.0,1606.67118579,1700.0,1656.67118579,0.0,0.0
1565342420316884733,1550.0,1570.15932202,1670.15932202,1650.0,0.0,0.0
1565342420365126087,1550.0,1570.15932202,1670.15932202,1650.0,0.0,0.0
1565342420414891972,1550.0,1570.15932202,1670.15932202,1650.0,0.0,0.0
1565342420465973587,1550.0,1550.0,1650.0,1650.0,0.0,0.0
1565342420515092597,1550.0,1550.0,1650.0,1650.0,0.0,0.0
1565342420564807858,1550.0,1550.0,1650.0,1650.0,0.0,0.0
1565342420614862962,1550.0,1600.0,1700.0,1650.0,0.0,0.0
1565342420665878795,1550.0,1600.0,1700.0,1650.0,0.0,0.0
1565342420714988952,1550.0,1550.0,1650.0,1650.0,0.0,0.0
1565342420764632910,1550.0,1550.0,1650.0,1650.0,0.0,0.0
1565342420815066608,1550.0,1600.0,1700.0,1650.0,0.0,0.0
1565342420865525931,1550.0,1600.0,1700.0,1650.0,0.0,0.0
1565342420914913847,1550.0,1600.0,1700.0,1650.0,0.0,0.0
1565342420965469733,1550.0,1600.0,1700.0,1650.0,0.0,0.0
1565342421015429212,1550.0,1550.0,1650.0,1650.0,0.0,0.0
1565342421065058743,1550.0,1550.0,1650.0,1650.0,0.0,0.0
1565342421115178587,1550.0,1550.0,1650.0,1650.0,0.0,0.0
1565342421165063170,1550.0,1550.0,1650.0,1650.0,0.0,0.0
1565342421215068430,1550.0,1550.0,1650.0,1650.0,0.0,0.0
1565342421265624889,1550.0,1550.0,1650.0,1650.0,0.0,0.0
1565342421315192910,1550.0,1550.0,1650.0,1650.0,0.0,0.0
1565342421365155253,1550.0,1550.0,1650.0,1650.0,0.0,0.0
1565342421414958639,1550.0,1550.0,1609.85049009,1609.85049009,0.0,0.0
1565342421465226607,1550.0,1550.0,1609.85049009,1609.85049009,0.0,0.0
1565342421515223535,1550.0,1550.0,1589.23282921,1589.23282921,0.0,0.0
1565342421564925149,1550.0,1550.0,1589.23282921,1589.23282921,0.0,0.0
1565342421614912180,1550.0,1550.0,1589.23282921,1589.23282921,0.0,0.0
1565342421665029316,1550.0,1550.0,1589.23282921,1589.23282921,0.0,0.0
1565342421714980409,1550.0,1550.0,1589.23282921,1589.23282921,0.0,0.0
1565342421765527441,1550.0,1550.0,1615.27636051,1615.27636051,0.0,0.0
1565342421814962649,1550.0,1550.0,1615.27636051,1615.27636051,0.0,0.0
1565342421865391399,1550.0,1550.0,1642.40892529,1642.40892529,0.0,0.0
1565342421916272545,1550.0,1550.0,1642.40892529,1642.40892529,0.0,0.0
1565342421966156711,1550.0,1550.0,1642.40892529,1642.40892529,0.0,0.0
1565342422015037232,1550.0,1550.0,1630.47136664,1630.47136664,0.0,0.0
1565342422064976086,1550.0,1550.0,1630.47136664,1630.47136664,0.0,0.0
1565342422115115670,1550.0,1550.0,1630.47136664,1630.47136664,0.0,0.0
1565342422164829524,1550.0,1550.0,1618.53380799,1618.53380799,0.0,0.0
1565342422215939107,1550.0,1550.0,1618.53380799,1618.53380799,0.0,0.0
1565342422265213066,1550.0,1550.0,1633.72560143,1633.72560143,0.0,0.0
1565342422314813847,1550.0,1550.0,1633.72560143,1633.72560143,0.0,0.0
1565342422364816972,1550.0,1550.0,1640.23728967,1640.23728967,0.0,0.0
1565342422414881399,1550.0,1550.0,1640.23728967,1640.23728967,0.0,0.0
1565342422465385201,1550.0,1550.0,1640.23728967,1640.23728967,0.0,0.0
1565342422516243430,1550.0,1550.0,1639.15147185,1639.15147185,0.0,0.0
1565342422566044992,1550.0,1550.0,1639.15147185,1639.15147185,0.0,0.0
1565342422614967336,1550.0,1550.0,1639.15147185,1639.15147185,0.0,0.0
1565342422666752024,1550.0,1550.0,1639.15147185,1639.15147185,0.0,0.0
1565342422715060982,1550.0,1550.0,1640.23728967,1640.23728967,0.0,0.0
1565342422765404940,1550.0,1550.0,1640.23728967,1640.23728967,0.0,0.0
1565342422815142961,1550.0,1550.0,1640.23728967,1640.23728967,0.0,0.0
1565342422864951347,1550.0,1550.0,1640.23728967,1640.23728967,0.0,0.0
1565342422914874211,1550.0,1550.0,1640.23728967,1640.23728967,0.0,0.0
1565342422964601034,1550.0,1550.0,1640.23728967,1640.23728967,0.0,0.0
1565342423014883013,1550.0,1550.0,1640.23728967,1640.23728967,0.0,0.0
1565342423065215721,1550.0,1550.0,1640.23728967,1640.23728967,0.0,0.0
1565342423115370357,1550.0,1550.0,1640.23728967,1640.23728967,0.0,0.0
1565342423164937284,1550.0,1550.0,1643.49473715,1643.49473715,0.0,0.0
1565342423214730826,1550.0,1550.0,1643.49473715,1643.49473715,0.0,0.0
1565342423265926711,1550.0,1550.0,1643.49473715,1643.49473715,0.0,0.0
1565342423314895305,1550.0,1550.0,1645.66316009,1645.66316009,0.0,0.0
1565342423364837075,1550.0,1550.0,1645.66316009,1645.66316009,0.0,0.0
1565342423414910253,1550.0,1550.0,1645.66316009,1645.66316009,0.0,0.0
1565342423464804784,1550.0,1550.0,1646.7489779,1646.7489779,0.0,0.0
1565342423514854523,1550.0,1550.0,1646.7489779,1646.7489779,0.0,0.0
1565342423564642180,1550.0,1550.0,1646.7489779,1646.7489779,0.0,0.0
1565342423615632388,1550.0,1550.0,1646.7489779,1646.7489779,0.0,0.0
1565342423666064211,1590.23407698,1550.0,1647.83478975,1688.06886673,0.0,0.0
1565342423715584055,1590.23407698,1550.0,1647.83478975,1688.06886673,0.0,0.0
1565342423765309471,1600.0,1550.0,1650.0,1700.0,0.0,0.0
1565342423815419732,1600.0,1550.0,1650.0,1700.0,0.0,0.0
1565342423865541971,1600.0,1550.0,1650.0,1700.0,0.0,0.0
1565342423914827232,1600.0,1550.0,1650.0,1700.0,0.0,0.0
1565342423964895304,1600.0,1550.0,1650.0,1700.0,0.0,0.0
1565342424014837544,1600.0,1550.0,1650.0,1700.0,0.0,0.0
1565342424064968429,1600.0,1550.0,1650.0,1700.0,0.0,0.0
1565342424114891450,1600.0,1550.0,1650.0,1700.0,0.0,0.0
1565342424164911450,1600.0,1550.0,1650.0,1700.0,0.0,0.0
1565342424214841138,1600.0,1550.0,1650.0,1700.0,0.0,0.0
1565342424264965044,1600.0,1550.0,1650.0,1700.0,0.0,0.0
1565342424314889054,1600.0,1550.0,1650.0,1700.0,0.0,0.0
1565342424364856554,1600.0,1550.0,1650.0,1700.0,0.0,0.0
1565342424414823586,1600.0,1550.0,1650.0,1700.0,0.0,0.0
1565342424464947492,1600.0,1550.0,1650.0,1700.0,0.0,0.0
1565342424514839992,1550.0,1550.0,1650.0,1650.0,0.0,0.0
1565342424565400408,1550.0,1550.0,1650.0,1650.0,0.0,0.0
1565342424615239731,1550.0,1550.0,1650.0,1650.0,0.0,0.0
1565342424664918533,1550.0,1550.0,1650.0,1650.0,0.0,0.0
1565342424715283898,1550.0,1550.0,1650.0,1650.0,0.0,0.0
1565342424765270617,1550.0,1550.0,1650.0,1650.0,0.0,0.0
1565342424815266137,1550.0,1550.0,1650.0,1650.0,0.0,0.0
1565342424867102075,1550.0,1550.0,1650.0,1650.0,0.0,0.0
1565342424914883950,1550.0,1550.0,1650.0,1650.0,0.0,0.0
1565342424964862752,1550.0,1550.0,1650.0,1650.0,0.0,0.0
1565342425014844158,1550.0,1550.0,1650.0,1650.0,0.0,0.0
1565342425064918221,1550.0,1550.0,1650.0,1650.0,0.0,0.0
1565342425114808585,1550.0,1550.0,1650.0,1650.0,0.0,0.0
1565342425164845200,1600.0,1550.0,1650.0,1700.0,0.0,0.0
1565342425215479210,1600.0,1550.0,1650.0,1700.0,0.0,0.0
1565342425265879627,1600.0,1550.0,1650.0,1700.0,0.0,0.0
1565342425315228116,1600.0,1550.0,1650.0,1700.0,0.0,0.0
1565342425364883793,1600.0,1550.0,1650.0,1700.0,0.0,0.0
1565342425415413012,1600.0,1550.0,1650.0,1700.0,0.0,0.0
1565342425465284002,1600.0,1550.0,1650.0,1700.0,0.0,0.0
1565342425515242231,1600.0,1550.0,1650.0,1700.0,0.0,0.0
1565342425565286970,1600.0,1550.0,1650.0,1700.0,0.0,0.0
1565342425615167908,1600.0,1550.0,1650.0,1700.0,0.0,0.0
1565342425664945408,1600.0,1550.0,1650.0,1700.0,0.0,0.0
1565342425715058585,1600.0,1550.0,1650.0,1700.0,0.0,0.0
1565342425764864731,1600.0,1550.0,1650.0,1700.0,0.0,0.0
1565342425814847491,1600.0,1550.0,1650.0,1700.0,0.0,0.0
1565342425865793168,1600.0,1550.0,1650.0,1700.0,0.0,0.0
1565342425915440095,1600.0,1550.0,1550.0,1600.0,0.0,0.0
1565342425964715095,1600.0,1550.0,1550.0,1600.0,0.0,0.0
1565342426014806554,1600.0,1550.0,1550.0,1600.0,0.0,0.0
1565342426065531762,1600.0,1550.0,1550.0,1600.0,0.0,0.0
1565342426115215772,1600.0,1550.0,1550.0,1600.0,0.0,0.0
1565342426164786710,1600.0,1550.0,1550.0,1600.0,0.0,0.0
1565342426214828376,1600.0,1550.0,1550.0,1600.0,0.0,0.0
1565342426265526970,1550.0,1550.0,1550.0,1550.0,0.0,0.0
1565342426314776189,1550.0,1550.0,1550.0,1550.0,0.0,0.0
1565342426366115981,1550.0,1550.0,1550.0,1550.0,0.0,0.0
1565342426415450043,1550.0,1550.0,1550.0,1550.0,0.0,0.0
1565342426465722751,1550.0,1550.0,1550.0,1550.0,0.0,0.0
1565342426514976137,1550.0,1550.0,1578.38108838,1578.38108838,0.0,0.0
1565342426564938220,1550.0,1550.0,1578.38108838,1578.38108838,0.0,0.0
1565342426615913533,1550.0,1550.0,1597.91293442,1597.91293442,0.0,0.0
1565342426664714991,1550.0,1550.0,1597.91293442,1597.91293442,0.0,0.0
1565342426715431137,1550.0,1550.0,1609.85049009,1609.85049009,0.0,0.0
1565342426765471033,1550.0,1550.0,1609.85049009,1609.85049009,0.0,0.0
1565342426815050928,1550.0,1550.0,1630.47136664,1630.47136664,0.0,0.0
1565342426865299210,1550.0,1550.0,1630.47136664,1630.47136664,0.0,0.0
1565342426915164366,1550.0,1550.0,1648.92060757,1648.92060757,0.0,0.0
1565342426965056553,1550.0,1550.0,1648.92060757,1648.92060757,0.0,0.0
1565342427015787699,1550.0,1550.0,1650.0,1650.0,0.0,0.0
1565342427065603116,1550.0,1550.0,1650.0,1650.0,0.0,0.0
1565342427115154053,1550.0,1550.0,1650.0,1650.0,0.0,0.0
1565342427165311084,1550.0,1550.0,1650.0,1650.0,0.0,0.0
1565342427215057595,1550.0,1550.0,1650.0,1650.0,0.0,0.0
1565342427265455928,1550.0,1550.0,1650.0,1650.0,0.0,0.0
1565342427315174053,1550.0,1550.0,1650.0,1650.0,0.0,0.0
1565342427364981397,1550.0,1550.0,1650.0,1650.0,0.0,0.0
1565342427415162282,1550.0,1550.0,1650.0,1650.0,0.0,0.0
1565342427465611761,1550.0,1550.0,1650.0,1650.0,0.0,0.0
1565342427515064470,1550.0,1550.0,1650.0,1650.0,0.0,0.0
1565342427564974470,1550.0,1550.0,1650.0,1650.0,0.0,0.0
1565342427615036709,1550.0,1550.0,1650.0,1650.0,0.0,0.0
1565342427668459886,1550.0,1550.0,1650.0,1650.0,0.0,0.0
1565342427715230511,1550.0,1550.0,1650.0,1650.0,0.0,0.0
1565342427764777490,1550.0,1550.0,1650.0,1650.0,0.0,0.0
1565342427816241084,1550.0,1550.0,1650.0,1650.0,0.0,0.0
1565342427865395720,1550.0,1550.0,1650.0,1650.0,0.0,0.0
1565342427917178845,1550.0,1550.0,1650.0,1650.0,0.0,0.0
1565342427964960720,1550.0,1550.0,1650.0,1650.0,0.0,0.0
1565342428015138949,1550.0,1550.0,1650.0,1650.0,0.0,0.0
1565342428065945355,1550.0,1550.0,1650.0,1650.0,0.0,0.0
1565342428115063636,1550.0,1550.0,1650.0,1650.0,0.0,0.0
1565342428166228011,1550.0,1550.0,1650.0,1650.0,0.0,0.0
1565342428215040199,1550.0,1550.0,1650.0,1650.0,0.0,0.0
1565342428266479053,1550.0,1550.0,1650.0,1650.0,0.0,0.0
1565342428315223376,1550.0,1550.0,1650.0,1650.0,0.0,0.0
1565342428365873324,1550.0,1550.0,1650.0,1650.0,0.0,0.0
1565342428415444157,1550.0,1550.0,1650.0,1650.0,0.0,0.0
1565342428465411917,1550.0,1550.0,1650.0,1650.0,0.0,0.0
1565342428516214209,1550.0,1550.0,1650.0,1650.0,0.0,0.0
1565342428565023844,1550.0,1550.0,1650.0,1650.0,0.0,0.0
1565342428615169834,1550.0,1550.0,1650.0,1650.0,0.0,0.0
1565342428664974209,1550.0,1550.0,1650.0,1650.0,0.0,0.0
1565342428715407751,1550.0,1550.0,1650.0,1650.0,0.0,0.0
1565342428765131084,1550.0,1550.0,1650.0,1650.0,0.0,0.0
1565342428815112230,1550.0,1550.0,1650.0,1650.0,0.0,0.0
1565342428865064053,1550.0,1550.0,1550.0,1550.0,0.0,0.0
1565342428914887646,1550.0,1550.0,1550.0,1550.0,0.0,0.0
1565342428965082698,1550.0,1550.0,1550.0,1550.0,0.0,0.0
1565342429015037178,1550.0,1550.0,1550.0,1550.0,0.0,0.0
1565342429064826292,1550.0,1550.0,1550.0,1550.0,0.0,0.0
1565342429115150563,1550.0,1550.0,1571.86940312,1571.86940312,0.0,0.0
1565342429165096292,1550.0,1550.0,1571.86940312,1571.86940312,0.0,0.0
1565342429215189105,1550.0,1550.0,1571.86940312,1571.86940312,0.0,0.0
1565342429266084886,1550.0,1550.0,1583.80695879,1583.80695879,0.0,0.0
1565342429314920302,1550.0,1550.0,1583.80695879,1583.80695879,0.0,0.0
1565342429365210094,1550.0,1550.0,1609.85049009,1609.85049009,0.0,0.0
1565342429415362542,1550.0,1550.0,1609.85049009,1609.85049009,0.0,0.0
1565342429465271032,1550.0,1550.0,1620.70544362,1620.70544362,0.0,0.0
1565342429514963688,1550.0,1550.0,1620.70544362,1620.70544362,0.0,0.0
1565342429564971031,1554.50597778,1550.0,1640.40321484,1635.89723706,0.0,0.0
1565342429614993688,1554.50597778,1550.0,1640.40321484,1635.89723706,0.0,0.0
1565342429664992854,1559.93184745,1550.0,1654.50918972,1644.57734227,0.0,0.0
1565342429714876136,1559.93184745,1550.0,1654.50918972,1644.57734227,0.0,0.0
1565342429764876396,1559.93184745,1550.0,1654.50918972,1644.57734227,0.0,0.0
1565342429814667906,1566.4435342,1550.0,1666.4435342,1650.0,0.0,0.0
1565342429865201813,1566.4435342,1550.0,1666.4435342,1650.0,0.0,0.0
1565342429915182229,1566.4435342,1550.0,1666.4435342,1650.0,0.0,0.0
1565342429965028115,1567.52935052,1550.0,1667.52935052,1650.0,0.0,0.0
1565342430015348583,1567.52935052,1550.0,1667.52935052,1650.0,0.0,0.0
1565342430065976031,1567.52935052,1550.0,1667.52935052,1650.0,0.0,0.0
1565342430114926708,1567.52935052,1550.0,1667.52935052,1650.0,0.0,0.0
1565342430164949312,1567.52935052,1550.0,1667.52935052,1650.0,0.0,0.0
1565342430214904573,1567.52935052,1550.0,1667.52935052,1650.0,0.0,0.0
1565342430266487750,1567.52935052,1597.83158004,1715.36093056,1650.0,0.0,0.0
1565342430315269469,1567.52935052,1597.83158004,1715.36093056,1650.0,0.0,0.0
1565342430364770667,1568.61195415,1550.0,1668.61195415,1650.0,0.0,0.0
1565342430415219260,1568.61195415,1550.0,1668.61195415,1650.0,0.0,0.0
1565342430465222229,1569.69777048,1550.0,1669.69777048,1650.0,0.0,0.0
1565342430515065614,1569.69777048,1550.0,1669.69777048,1650.0,0.0,0.0
1565342430565444521,1569.69777048,1550.0,1669.69777048,1650.0,0.0,0.0
1565342430614954052,1569.69777048,1550.0,1669.69777048,1650.0,0.0,0.0
1565342430665187698,1570.7835868,1550.0,1670.7835868,1650.0,0.0,0.0
1565342430714852437,1570.7835868,1550.0,1670.7835868,1650.0,0.0,0.0
1565342430765019833,1570.7835868,1550.0,1670.7835868,1650.0,0.0,0.0
1565342430815130146,1570.7835868,1550.0,1670.7835868,1650.0,0.0,0.0
1565342430864992125,1570.7835868,1550.0,1670.7835868,1650.0,0.0,0.0
1565342430915033375,1620.7835868,1550.0,1670.7835868,1700.0,0.0,0.0
1565342430965091864,1620.7835868,1550.0,1670.7835868,1700.0,0.0,0.0
1565342431014895614,1620.7835868,1550.0,1670.7835868,1700.0,0.0,0.0
1565342431065108323,1570.7835868,1550.0,1670.7835868,1650.0,0.0,0.0
1565342431114991031,1570.7835868,1550.0,1670.7835868,1650.0,0.0,0.0
1565342431165139416,1570.7835868,1550.0,1670.7835868,1650.0,0.0,0.0
1565342431215140510,1620.7835868,1550.0,1670.7835868,1700.0,0.0,0.0
1565342431265575666,1620.7835868,1550.0,1670.7835868,1700.0,0.0,0.0
1565342431314870406,1620.7835868,1550.0,1670.7835868,1700.0,0.0,0.0
1565342431364963062,1570.7835868,1550.0,1670.7835868,1650.0,0.0,0.0
1565342431414885770,1570.7835868,1550.0,1670.7835868,1650.0,0.0,0.0
1565342431465029624,1620.7835868,1550.0,1670.7835868,1700.0,0.0,0.0
1565342431514869937,1620.7835868,1550.0,1670.7835868,1700.0,0.0,0.0
1565342431565052854,1620.7835868,1550.0,1670.7835868,1700.0,0.0,0.0
1565342431614949520,1570.7835868,1550.0,1670.7835868,1650.0,0.0,0.0
1565342431665160510,1570.7835868,1550.0,1670.7835868,1650.0,0.0,0.0
1565342431715034208,1570.7835868,1550.0,1670.7835868,1650.0,0.0,0.0
1565342431765218635,1620.7835868,1550.0,1670.7835868,1700.0,0.0,0.0
1565342431815452176,1620.7835868,1550.0,1670.7835868,1700.0,0.0,0.0
1565342431865171135,1620.7835868,1550.0,1670.7835868,1700.0,0.0,0.0
1565342431915008478,1570.7835868,1550.0,1670.7835868,1650.0,0.0,0.0
1565342431964965822,1570.7835868,1550.0,1670.7835868,1650.0,0.0,0.0
1565342432014869156,1570.7835868,1550.0,1670.7835868,1650.0,0.0,0.0
1565342432066216864,1570.7835868,1550.0,1670.7835868,1650.0,0.0,0.0
1565342432114965978,1550.0,1550.0,1550.0,1550.0,0.0,0.0
1565342432165203895,1550.0,1550.0,1550.0,1550.0,0.0,0.0
1565342432215212385,1550.0,1550.0,1550.0,1550.0,0.0,0.0
1565342432265260405,1550.0,1550.0,1550.0,1550.0,0.0,0.0
1565342432315355718,1550.0,1550.0,1550.0,1550.0,0.0,0.0
1565342432365243999,1550.0,1550.0,1550.0,1550.0,0.0,0.0
1565342432415110041,1550.0,1550.0,1550.0,1550.0,0.0,0.0
1565342432464989728,1550.0,1550.0,1550.0,1550.0,0.0,0.0
1565342432514957801,1550.0,1550.0,1550.0,1550.0,0.0,0.0
1565342432565106916,1550.0,1550.0,1550.0,1550.0,0.0,0.0
1565342432615343322,1550.0,1550.0,1550.0,1550.0,0.0,0.0
1565342432666435822,1550.0,1550.0,1550.0,1550.0,0.0,0.0
1565342432715183166,1550.0,1550.0,1550.0,1550.0,0.0,0.0
1565342432766201707,1550.0,1550.0,1550.0,1550.0,0.0,0.0
1565342432815308374,1550.0,1550.0,1550.0,1550.0,0.0,0.0
1565342432865581916,1550.0,1550.0,1550.0,1550.0,0.0,0.0
1565342432914771291,1550.0,1550.0,1550.0,1550.0,0.0,0.0
1565342432965285093,1550.0,1550.0,1550.0,1550.0,0.0,0.0
1565342433015690978,1550.0,1567.52613783,1550.0,1567.52613783,0.0,0.0
1565342433066087280,1550.0,1567.52613783,1550.0,1567.52613783,0.0,0.0
1565342433114930197,1550.0,1558.84281844,1550.0,1558.84281844,0.0,0.0
1565342433165042436,1550.0,1558.84281844,1550.0,1558.84281844,0.0,0.0
1565342433215213947,1550.0,1635.89402437,1550.0,1635.89402437,0.0,0.0
1565342433265976186,1550.0,1635.89402437,1550.0,1635.89402437,0.0,0.0
1565342433315276290,1550.0,1650.0,1550.0,1650.0,0.0,0.0
1565342433364960561,1550.0,1650.0,1550.0,1650.0,0.0,0.0
1565342433414959936,1550.0,1650.0,1550.0,1650.0,0.0,0.0
1565342433465457124,1550.0,1650.0,1550.0,1650.0,0.0,0.0
1565342433515115665,1550.0,1650.0,1550.0,1650.0,0.0,0.0
1565342433565132592,1550.0,1650.0,1550.0,1650.0,0.0,0.0
1565342433615190457,1550.0,1650.0,1550.0,1650.0,0.0,0.0
1565342433665163738,1550.0,1550.0,1550.0,1550.0,0.0,0.0
1565342433715179676,1550.0,1550.0,1550.0,1550.0,0.0,0.0
1565342433765046134,1550.0,1550.0,1550.0,1550.0,0.0,0.0
1565342433815131603,1550.0,1550.0,1550.0,1550.0,0.0,0.0
1565342433865265509,1550.0,1550.0,1550.0,1550.0,0.0,0.0
1565342433915008582,1550.0,1550.0,1550.0,1550.0,0.0,0.0
1565342433965114311,1550.0,1550.0,1550.0,1550.0,0.0,0.0
1565342434015014311,1550.0,1550.0,1609.85049009,1609.85049009,0.0,0.0
1565342434065826915,1550.0,1550.0,1609.85049009,1609.85049009,0.0,0.0
1565342434115414415,1550.0,1550.0,1610.93630791,1610.93630791,0.0,0.0
1565342434165111967,1550.0,1550.0,1610.93630791,1610.93630791,0.0,0.0
1565342434215135353,1550.0,1550.0,1610.93630791,1610.93630791,0.0,0.0
1565342434265432801,1550.0,1550.0,1617.44799614,1617.44799614,0.0,0.0
1565342434315153998,1550.0,1550.0,1617.44799614,1617.44799614,0.0,0.0
1565342434365324571,1550.0,1550.0,1643.49473715,1643.49473715,0.0,0.0
1565342434415169519,1550.0,1550.0,1643.49473715,1643.49473715,0.0,0.0
1565342434465215613,1557.76021481,1550.0,1657.76021481,1650.0,0.0,0.0
1565342434515091863,1557.76021481,1550.0,1657.76021481,1650.0,0.0,0.0
1565342434565353582,1557.76021481,1550.0,1657.76021481,1650.0,0.0,0.0
1565342434614624623,1557.76021481,1550.0,1657.76021481,1650.0,0.0,0.0
1565342434666440300,1557.76021481,1550.0,1657.76021481,1650.0,0.0,0.0
1565342434716107800,1558.84603113,1550.0,1658.84603113,1650.0,0.0,0.0
1565342434765390665,1558.84603113,1550.0,1658.84603113,1650.0,0.0,0.0
1565342434815771967,1558.84603113,1550.0,1658.84603113,1650.0,0.0,0.0
1565342434865332696,1558.84603113,1550.0,1658.84603113,1650.0,0.0,0.0
1565342434915292540,1557.76021481,1550.0,1657.76021481,1650.0,0.0,0.0
1565342434964987696,1557.76021481,1550.0,1657.76021481,1650.0,0.0,0.0
1565342435016479519,1558.84603113,1550.0,1658.84603113,1650.0,0.0,0.0
1565342435066790196,1558.84603113,1550.0,1658.84603113,1650.0,0.0,0.0
1565342435116100925,1558.84603113,1550.0,1658.84603113,1650.0,0.0,0.0
1565342435165081654,1558.84603113,1550.0,1658.84603113,1650.0,0.0,0.0
1565342435215369258,1558.84603113,1550.0,1658.84603113,1650.0,0.0,0.0
1565342435265458581,1558.84603113,1550.0,1658.84603113,1650.0,0.0,0.0
1565342435315116394,1558.84603113,1550.0,1658.84603113,1650.0,0.0,0.0
1565342435365200040,1558.84603113,1550.0,1658.84603113,1650.0,0.0,0.0
1565342435415026758,1558.84603113,1550.0,1658.84603113,1650.0,0.0,0.0
1565342435465150560,1550.0,1550.0,1550.0,1550.0,0.0,0.0
1565342435515244258,1550.0,1550.0,1550.0,1550.0,0.0,0.0
1565342435565022071,1550.0,1550.0,1550.0,1550.0,0.0,0.0
1565342435615008112,1550.0,1550.0,1550.0,1550.0,0.0,0.0
1565342435665155717,1550.0,1550.0,1550.0,1550.0,0.0,0.0
1565342435715172123,1550.0,1550.0,1550.0,1550.0,0.0,0.0
1565342435765045404,1550.0,1550.0,1550.0,1550.0,0.0,0.0
1565342435816310664,1550.0,1550.0,1550.0,1550.0,0.0,0.0
1565342435865764050,1550.0,1550.0,1550.0,1550.0,0.0,0.0
1565342435914901550,1550.0,1550.0,1550.0,1550.0,0.0,0.0
1565342435965948425,1550.0,1550.0,1550.0,1550.0,0.0,0.0
1565342436015012592,1550.0,1550.0,1550.0,1550.0,0.0,0.0
1565342436066229310,1550.0,1550.0,1550.0,1550.0,0.0,0.0
1565342436115183841,1550.0,1550.0,1550.0,1550.0,0.0,0.0
1565342436164994154,1550.0,1550.0,1550.0,1550.0,0.0,0.0
1565342436215324362,1550.0,1600.0,1600.0,1550.0,0.0,0.0
1565342436267770248,1550.0,1600.0,1600.0,1550.0,0.0,0.0
1565342436314931446,1550.0,1600.0,1600.0,1550.0,0.0,0.0
1565342436364926810,1550.0,1600.0,1600.0,1550.0,0.0,0.0
1565342436414993373,1550.0,1600.0,1600.0,1550.0,0.0,0.0
1565342436465279310,1550.0,1550.0,1550.0,1550.0,0.0,0.0
1565342436515137748,1550.0,1550.0,1550.0,1550.0,0.0,0.0
1565342436565084206,1550.0,1550.0,1550.0,1550.0,0.0,0.0
1565342436615085716,1550.0,1550.0,1550.0,1550.0,0.0,0.0
1565342436665540300,1550.0,1600.0,1600.0,1550.0,0.0,0.0
1565342436715192695,1550.0,1600.0,1600.0,1550.0,0.0,0.0
1565342436764579935,1550.0,1550.0,1550.0,1550.0,0.0,0.0
1565342436815261550,1550.0,1550.0,1550.0,1550.0,0.0,0.0
1565342436865848841,1550.0,1550.0,1550.0,1550.0,0.0,0.0
1565342436915381393,1550.0,1550.0,1550.0,1550.0,0.0,0.0
1565342436965317643,1550.0,1550.0,1550.0,1550.0,0.0,0.0
1565342437014966966,1550.0,1550.0,1550.0,1550.0,0.0,0.0
1565342437065070820,1550.0,1550.0,1550.0,1550.0,0.0,0.0
1565342437114924570,1550.0,1550.0,1550.0,1550.0,0.0,0.0
1565342437164738737,1550.0,1550.0,1550.0,1550.0,0.0,0.0
1565342437215178529,1550.0,1550.0,1550.0,1550.0,0.0,0.0
1565342437265415508,1550.0,1650.0,1550.0,1650.0,0.0,0.0
1565342437315481601,1550.0,1650.0,1550.0,1650.0,0.0,0.0
1565342437365102331,1550.0,1650.0,1550.0,1650.0,0.0,0.0
1565342437415158581,1550.0,1650.0,1550.0,1650.0,0.0,0.0
1565342437465209518,1550.0,1650.0,1550.0,1650.0,0.0,0.0
1565342437515087383,1550.0,1650.0,1550.0,1650.0,0.0,0.0
1565342437565553997,1550.0,1650.0,1550.0,1650.0,0.0,0.0
1565342437615241705,1550.0,1650.0,1550.0,1650.0,0.0,0.0
1565342437664973320,1550.0,1650.0,1550.0,1650.0,0.0,0.0
1565342437715090560,1550.0,1650.0,1550.0,1650.0,0.0,0.0
1565342437764890403,1550.0,1650.0,1550.0,1650.0,0.0,0.0
1565342437815043685,1550.0,1550.0,1550.0,1550.0,0.0,0.0
1565342437865164362,1550.0,1550.0,1550.0,1550.0,0.0,0.0
1565342437914972278,1550.0,1550.0,1550.0,1550.0,0.0,0.0
1565342437965013112,1550.0,1550.0,1550.0,1550.0,0.0,0.0
1565342438015102799,1550.0,1550.0,1550.0,1550.0,0.0,0.0
1565342438065286028,1550.0,1550.0,1650.0,1650.0,0.0,0.0
1565342438115138216,1550.0,1550.0,1650.0,1650.0,0.0,0.0
1565342438165491601,1550.0,1550.0,1650.0,1650.0,0.0,0.0
1565342438215302695,1550.0,1550.0,1650.0,1650.0,0.0,0.0
1565342438265510768,1550.0,1550.0,1650.0,1650.0,0.0,0.0
1565342438314844101,1550.0,1550.0,1650.0,1650.0,0.0,0.0
1565342438365022799,1550.0,1550.0,1650.0,1650.0,0.0,0.0
1565342438414905299,1550.0,1550.0,1650.0,1650.0,0.0,0.0
1565342438466369205,1550.0,1550.0,1650.0,1650.0,0.0,0.0
1565342438514894205,1550.0,1550.0,1650.0,1650.0,0.0,0.0
1565342438564963997,1550.0,1550.0,1650.0,1650.0,0.0,0.0
1565342438615035351,1550.0,1550.0,1650.0,1650.0,0.0,0.0
1565342438665191653,1550.0,1550.0,1550.0,1550.0,0.0,0.0
1565342438714957330,1550.0,1550.0,1550.0,1550.0,0.0,0.0
1565342438764946913,1550.0,1550.0,1550.0,1550.0,0.0,0.0
1565342438814683059,1550.0,1550.0,1550.0,1550.0,0.0,0.0
1565342438865260507,1550.0,1550.0,1550.0,1550.0,0.0,0.0
1565342438914939309,1550.0,1550.0,1550.0,1550.0,0.0,0.0
1565342438964875455,1550.0,1550.0,1550.0,1550.0,0.0,0.0
1565342439015092382,1550.0,1550.0,1550.0,1550.0,0.0,0.0
1565342439065957017,1550.0,1550.0,1550.0,1550.0,0.0,0.0
1565342439115116497,1550.0,1550.0,1550.0,1550.0,0.0,0.0
1565342439165063632,1550.0,1550.0,1550.0,1550.0,0.0,0.0
1565342439215153476,1550.0,1550.0,1550.0,1550.0,0.0,0.0
1565342439264928632,1550.0,1550.0,1550.0,1550.0,0.0,0.0
1565342439315103319,1550.0,1550.0,1550.0,1550.0,0.0,0.0
1565342439365115455,1550.0,1550.0,1550.0,1550.0,0.0,0.0
1565342439414904986,1550.0,1550.0,1550.0,1550.0,0.0,0.0
1565342439467943319,1550.0,1550.0,1550.0,1550.0,0.0,0.0
1565342439515291653,1550.0,1550.0,1550.0,1550.0,0.0,0.0
1565342439565094048,1550.0,1550.0,1550.0,1550.0,0.0,0.0
1565342439615549569,1550.0,1550.0,1550.0,1550.0,0.0,0.0
1565342439665282278,1550.0,1550.0,1550.0,1550.0,0.0,0.0
1565342439715209413,1550.0,1550.0,1550.0,1550.0,0.0,0.0
1565342439765789257,1550.0,1550.0,1550.0,1550.0,0.0,0.0
1565342439815277225,1550.0,1550.0,1550.0,1550.0,0.0,0.0
1565342439865949934,1550.0,1550.0,1550.0,1550.0,0.0,0.0
1565342439916216496,1550.0,1550.0,1550.0,1550.0,0.0,0.0
1565342439965887850,1550.0,1550.0,1550.0,1550.0,0.0,0.0
1565342440015229517,1550.0,1550.0,1550.0,1550.0,0.0,0.0
1565342440065314100,1550.0,1550.0,1550.0,1550.0,0.0,0.0
1565342440115380611,1550.0,1550.0,1550.0,1550.0,0.0,0.0
1565342440165167121,1550.0,1550.0,1550.0,1550.0,0.0,0.0
1565342440215461704,1550.0,1550.0,1550.0,1550.0,0.0,0.0
1565342440265789986,1550.0,1550.0,1550.0,1550.0,0.0,0.0
1565342440316946027,1550.0,1550.0,1550.0,1550.0,0.0,0.0
1565342440364957590,1550.0,1550.0,1550.0,1550.0,0.0,0.0
1565342440414894048,1550.0,1550.0,1550.0,1550.0,0.0,0.0
1565342440465291288,1550.0,1550.0,1550.0,1550.0,0.0,0.0
1565342440515259621,1550.0,1550.0,1550.0,1550.0,0.0,0.0
1565342440565091600,1550.0,1550.0,1550.0,1550.0,0.0,0.0
1565342440615282694,1550.0,1550.0,1550.0,1550.0,0.0,0.0
1565342440665416079,1550.0,1550.0,1550.0,1550.0,0.0,0.0
1565342440715084308,1550.0,1550.0,1550.0,1550.0,0.0,0.0
1565342440764942225,1550.0,1550.0,1550.0,1550.0,0.0,0.0
1565342440814958944,1550.0,1550.0,1550.0,1550.0,0.0,0.0
1565342440865366913,1550.0,1550.0,1550.0,1550.0,0.0,0.0
1565342440915219152,1550.0,1550.0,1550.0,1550.0,0.0,0.0
1565342440964616131,1550.0,1589.69277442,1589.69277442,1550.0,0.0,0.0
1565342441015277433,1550.0,1589.69277442,1589.69277442,1550.0,0.0,0.0
1565342441065098787,1550.0,1573.95646721,1573.95646721,1550.0,0.0,0.0
1565342441115190037,1550.0,1573.95646721,1573.95646721,1550.0,0.0,0.0
1565342441164906808,1550.0,1550.0,1550.0,1550.0,0.0,0.0
1565342441214687746,1550.0,1550.0,1550.0,1550.0,0.0,0.0
1565342441266591912,1550.0,1550.0,1550.0,1550.0,0.0,0.0
1565342441315657485,1550.0,1550.0,1550.0,1550.0,0.0,0.0
1565342441366059933,1550.0,1550.0,1550.0,1550.0,0.0,0.0
1565342441415808839,1550.0,1550.0,1550.0,1550.0,0.0,0.0
1565342441466405402,1550.0,1550.0,1550.0,1550.0,0.0,0.0
1565342441515242798,1550.0,1550.0,1550.0,1550.0,0.0,0.0
1565342441565599725,1550.0,1550.0,1550.0,1550.0,0.0,0.0
1565342441615613162,1550.0,1550.0,1550.0,1550.0,0.0,0.0
1565342441666036339,1550.0,1550.0,1550.0,1550.0,0.0,0.0
1565342441715769673,1550.0,1550.0,1550.0,1550.0,0.0,0.0
1565342441766147693,1550.0,1550.0,1550.0,1550.0,0.0,0.0
1565342441815622589,1550.0,1550.0,1550.0,1550.0,0.0,0.0
1565342441865295246,1550.0,1550.0,1550.0,1550.0,0.0,0.0
1565342441915455923,1550.0,1550.0,1550.0,1550.0,0.0,0.0
1565342441965211235,1550.0,1550.0,1550.0,1550.0,0.0,0.0
1565342442014825662,1550.0,1550.0,1550.0,1550.0,0.0,0.0
1565342442066218995,1550.0,1550.0,1550.0,1550.0,0.0,0.0
1565342442115256704,1550.0,1550.0,1550.0,1550.0,0.0,0.0
1565342442165367225,1550.0,1576.66940391,1576.66940391,1550.0,0.0,0.0
1565342442215204360,1550.0,1576.66940391,1576.66940391,1550.0,0.0,0.0
1565342442264737381,1550.0,1590.77859223,1590.77859223,1550.0,0.0,0.0
1565342442315283006,1550.0,1590.77859223,1590.77859223,1550.0,0.0,0.0
1565342442365167277,1550.0,1590.77859223,1590.77859223,1550.0,0.0,0.0
1565342442415036443,1550.0,1573.41516614,1573.41516614,1550.0,0.0,0.0
1565342442465470193,1550.0,1573.41516614,1573.41516614,1550.0,0.0,0.0
1565342442514812329,1550.0,1550.0,1550.0,1550.0,0.0,0.0
1565342442564824985,1550.0,1550.0,1550.0,1550.0,0.0,0.0
1565342442615036131,1550.0,1550.0,1550.0,1550.0,0.0,0.0
1565342442665600297,1550.0,1550.0,1550.0,1550.0,0.0,0.0
1565342442714989829,1550.0,1550.0,1550.0,1550.0,0.0,0.0
1565342442765186026,1550.0,1550.0,1550.0,1550.0,0.0,0.0
1565342442815161703,1550.0,1550.0,1550.0,1550.0,0.0,0.0
1565342442865199308,1550.0,1550.0,1550.0,1550.0,0.0,0.0
1565342442915116651,1600.0,1550.0,1550.0,1600.0,0.0,0.0
1565342442964986026,1600.0,1550.0,1550.0,1600.0,0.0,0.0
1565342443015190089,1600.0,1550.0,1550.0,1600.0,0.0,0.0
1565342443065561391,1600.0,1550.0,1550.0,1600.0,0.0,0.0
1565342443115080818,1600.0,1550.0,1550.0,1600.0,0.0,0.0
1565342443165143839,1600.0,1550.0,1550.0,1600.0,0.0,0.0
1565342443215456287,1600.0,1550.0,1550.0,1600.0,0.0,0.0
1565342443265464932,1600.0,1550.0,1550.0,1600.0,0.0,0.0
1565342443315507745,1600.0,1550.0,1550.0,1600.0,0.0,0.0
1565342443365126599,1600.0,1550.0,1550.0,1600.0,0.0,0.0
1565342443415193214,1600.0,1550.0,1550.0,1600.0,0.0,0.0
1565342443466544724,1600.0,1550.0,1550.0,1600.0,0.0,0.0
1565342443515230297,1600.0,1550.0,1550.0,1600.0,0.0,0.0
1565342443564904568,1600.0,1550.0,1550.0,1600.0,0.0,0.0
1565342443615084464,1600.0,1550.0,1550.0,1600.0,0.0,0.0
1565342443667256599,1600.0,1550.0,1550.0,1600.0,0.0,0.0
1565342443715119880,1600.0,1550.0,1550.0,1600.0,0.0,0.0
1565342443765239620,1600.0,1550.0,1550.0,1600.0,0.0,0.0
1565342443815183370,1600.0,1550.0,1550.0,1600.0,0.0,0.0
1565342443865145193,1600.0,1550.0,1550.0,1600.0,0.0,0.0
1565342443915019932,1600.0,1550.0,1550.0,1600.0,0.0,0.0
1565342443964891859,1600.0,1550.0,1550.0,1600.0,0.0,0.0
1565342444014851651,1600.0,1550.0,1550.0,1600.0,0.0,0.0
1565342444066157536,1600.0,1550.0,1550.0,1600.0,0.0,0.0
1565342444114657224,1600.0,1550.0,1550.0,1600.0,0.0,0.0
1565342444164946859,1600.0,1550.0,1550.0,1600.0,0.0,0.0
1565342444215100765,1600.0,1550.0,1550.0,1600.0,0.0,0.0
1565342444264933630,1600.0,1550.0,1550.0,1600.0,0.0,0.0
1565342444315356495,1600.0,1550.0,1550.0,1600.0,0.0,0.0
1565342444364881547,1600.0,1550.0,1550.0,1600.0,0.0,0.0
1565342444415256495,1600.0,1550.0,1550.0,1600.0,0.0,0.0
1565342444465344203,1600.0,1550.0,1550.0,1600.0,0.0,0.0
1565342444515430557,1600.0,1550.0,1550.0,1600.0,0.0,0.0
1565342444565018109,1600.0,1550.0,1550.0,1600.0,0.0,0.0
1565342444615663786,1600.0,1550.0,1550.0,1600.0,0.0,0.0
1565342444665344776,1600.0,1550.0,1550.0,1600.0,0.0,0.0
1565342444715306390,1600.0,1550.0,1550.0,1600.0,0.0,0.0
1565342444764797953,1600.0,1550.0,1550.0,1600.0,0.0,0.0
1565342444814850192,1600.0,1550.0,1550.0,1600.0,0.0,0.0
1565342444865199776,1600.0,1550.0,1550.0,1600.0,0.0,0.0
1565342444914829203,1600.0,1550.0,1550.0,1600.0,0.0,0.0
1565342444965104463,1600.0,1550.0,1550.0,1600.0,0.0,0.0
1565342445014856494,1600.0,1550.0,1550.0,1600.0,0.0,0.0
1565342445064996911,1550.0,1550.0,1550.0,1550.0,0.0,0.0
1565342445115025140,1550.0,1550.0,1550.0,1550.0,0.0,0.0
1565342445165216963,1550.0,1550.0,1550.0,1550.0,0.0,0.0
1565342445214843369,1550.0,1550.0,1550.0,1550.0,0.0,0.0
1565342445264918786,1550.0,1550.0,1550.0,1550.0,0.0,0.0
1565342445315014411,1550.0,1550.0,1550.0,1550.0,0.0,0.0
1565342445365213317,1550.0,1550.0,1607.68207312,1607.68207312,0.0,0.0
1565342445415037484,1550.0,1550.0,1607.68207312,1607.68207312,0.0,0.0
1565342445464923682,1550.0,1550.0,1630.47136664,1630.47136664,0.0,0.0
1565342445514908161,1550.0,1550.0,1630.47136664,1630.47136664,0.0,0.0
1565342445564878786,1550.0,1550.0,1630.47136664,1630.47136664,0.0,0.0
1565342445614857744,1550.0,1550.0,1640.23728967,1640.23728967,0.0,0.0
1565342445665038577,1550.0,1550.0,1640.23728967,1640.23728967,0.0,0.0
1565342445714871859,1550.0,1550.0,1640.23728967,1640.23728967,0.0,0.0
1565342445764848317,1550.0,1550.0,1640.23728967,1640.23728967,0.0,0.0
1565342445814915765,1550.0,1550.0,1640.23728967,1640.23728967,0.0,0.0
1565342445864873786,1550.0,1550.0,1640.23728967,1640.23728967,0.0,0.0
1565342445914879098,1550.0,1550.0,1640.23728967,1640.23728967,0.0,0.0
1565342445964879515,1550.0,1550.0,1640.23728967,1640.23728967,0.0,0.0
1565342446014884359,1550.0,1550.0,1640.23728967,1640.23728967,0.0,0.0
1565342446066062796,1550.0,1550.0,1640.23728967,1640.23728967,0.0,0.0
1565342446115454619,1550.0,1550.0,1641.32310748,1641.32310748,0.0,0.0
1565342446165107640,1550.0,1550.0,1641.32310748,1641.32310748,0.0,0.0
1565342446215468369,1550.0,1550.0,1641.32310748,1641.32310748,0.0,0.0
1565342446265241181,1550.0,1550.0,1644.57734227,1644.57734227,0.0,0.0
1565342446315560608,1550.0,1550.0,1644.57734227,1644.57734227,0.0,0.0
1565342446365164202,1550.0,1550.0,1644.57734227,1644.57734227,0.0,0.0
1565342446415124046,1550.0,1550.0,1644.57734227,1644.57734227,0.0,0.0
1565342446464930088,1550.0,1574.49937612,1669.07671839,1644.57734227,0.0,0.0
1565342446514828160,1550.0,1574.49937612,1669.07671839,1644.57734227,0.0,0.0
1565342446564695296,1550.0,1551.16717238,1644.66190953,1643.49473715,0.0,0.0
1565342446615183942,1550.0,1551.16717238,1644.66190953,1643.49473715,0.0,0.0
1565342446665084723,1550.0,1550.0,1643.49473715,1643.49473715,0.0,0.0
1565342446715611285,1550.0,1550.0,1643.49473715,1643.49473715,0.0,0.0
1565342446765293525,1550.0,1550.0,1645.66316009,1645.66316009,0.0,0.0
1565342446815599723,1550.0,1550.0,1645.66316009,1645.66316009,0.0,0.0
1565342446866118994,1550.0,1550.0,1650.0,1650.0,0.0,0.0
1565342446915287014,1550.0,1550.0,1650.0,1650.0,0.0,0.0
1565342446965226285,1550.0,1550.0,1650.0,1650.0,0.0,0.0
