%time,field.header.seq,field.header.stamp,field.header.frame_id,field.pose.position.x,field.pose.position.y,field.pose.position.z,field.pose.orientation.x,field.pose.orientation.y,field.pose.orientation.z,field.pose.orientation.w
1565340109112919260,27438,1565340109057843834,map,0.386143684387,0.549082756042,0.0,0.0,0.0,-0.0536505099955,0.998559774264
1565340109180093740,27439,1565340109124587741,map,0.384321212769,0.548868179321,0.0,0.0,0.0,-0.0551053300993,0.998480546929
1565340109246238844,27440,1565340109191125918,map,0.383005142212,0.547872543335,0.0,0.0,0.0,-0.0563748395321,0.998409674166
1565340109313065458,27441,1565340109258003834,map,0.381770133972,0.54717540741,0.0,0.0,0.0,-0.0576899580142,0.998334547506
1565340109379661604,27442,1565340109324564199,map,0.379644393921,0.545862197876,0.0,0.0,0.0,-0.0586610583043,0.998277957404
1565340109453665719,27443,1565340109393551126,map,0.379199028015,0.54549407959,0.0,0.0,0.0,-0.059845344613,0.998207661125
1565340109521157229,27444,1565340109460489980,map,0.37779712677,0.544631958008,0.0,0.0,0.0,-0.060974098618,0.998139348637
1565340109587742958,27445,1565340109527195605,map,0.377103805542,0.54384803772,0.0,0.0,0.0,-0.0620842138883,0.998070914508
1565340109653047281,27446,1565340109592860918,map,0.37760925293,0.544507980347,0.0,0.0,0.0,-0.0637733888899,0.997964405612
1565340109720154104,27447,1565340109659901438,map,0.377174377441,0.54310798645,0.0,0.0,0.0,-0.064534994595,0.997915444551
1565340109785887073,27448,1565340109726327532,map,0.376615524292,0.542033195496,0.0,0.0,0.0,-0.065496881422,0.997852773972
1565340109852445354,27449,1565340109792844720,map,0.376421928406,0.540873527527,0.0,0.0,0.0,-0.0660818825614,0.997814203545
1565340109920444833,27450,1565340109859669928,map,0.378967285156,0.540468215942,0.0,0.0,0.0,-0.0670313012042,0.997750873043
1565340109987646552,27451,1565340109927247428,map,0.380885124207,0.539571762085,0.0,0.0,0.0,-0.0678536376112,0.997695286078
1565340110052204729,27452,1565340109992885501,map,0.383875846863,0.537515640259,0.0,0.0,0.0,-0.0684480603945,0.997654681254
1565340110119501708,27453,1565340110059646230,map,0.386199951172,0.535708427429,0.0,0.0,0.0,-0.0690938343117,0.997610165375
1565340110186201760,27454,1565340110126338417,map,0.391931533813,0.535509109497,0.0,0.0,0.0,-0.0704656804128,0.997514204352
1565340110252221708,27455,1565340110193083574,map,0.396237373352,0.53429889679,0.0,0.0,0.0,-0.0712590453072,0.99745784295
1565340110318822802,27456,1565340110259702792,map,0.400728225708,0.531461715698,0.0,0.0,0.0,-0.0716916194965,0.997426845284
1565340110387395510,27457,1565340110327323886,map,0.407198905945,0.530723571777,0.0,0.0,0.0,-0.0724761162355,0.997370148228
1565340110453857072,27458,1565340110393198157,map,0.411638259888,0.527328491211,0.0,0.0,0.0,-0.0723779079644,0.997377279889
1565340110519443999,27459,1565340110459910969,map,0.419677734375,0.527684211731,0.0,0.0,0.0,-0.0734895463305,0.997295987448
1565340110585341395,27460,1565340110526170292,map,0.425417900085,0.523813247681,0.0,0.0,0.0,-0.0732458258989,0.997313916973
1565340110651908322,27461,1565340110592810084,map,0.431775093079,0.522242546082,0.0,0.0,0.0,-0.0731666455385,0.997319729064
1565340110720212176,27462,1565340110659654355,map,0.439081192017,0.519912719727,0.0,0.0,0.0,-0.0729535933914,0.99733533639
1565340110786268895,27463,1565340110726406751,map,0.446230888367,0.518445968628,0.0,0.0,0.0,-0.0729540689579,0.997335301602
1565340110854699468,27464,1565340110793482428,map,0.453079223633,0.515629768372,0.0,0.0,0.0,-0.0722449808819,0.997386917268
1565340110920056447,27465,1565340110860261021,map,0.461435317993,0.514169692993,0.0,0.0,0.0,-0.0720604502829,0.997400266445
1565340110987324260,27466,1565340110927567740,map,0.469609260559,0.511500358582,0.0,0.0,0.0,-0.0714526233241,0.997443994729
1565340111053222958,27467,1565340110992851438,map,0.477780342102,0.509742736816,0.0,0.0,0.0,-0.0708055295551,0.997490138791
1565340111121739260,27468,1565340111059655657,map,0.48614025116,0.507678031921,0.0,0.0,0.0,-0.0698102170145,0.997560290709
1565340111186354624,27469,1565340111126166490,map,0.493873596191,0.503995895386,0.0,0.0,0.0,-0.0686326381254,0.997642000411
1565340111253495874,27470,1565340111193131698,map,0.503980636597,0.502683639526,0.0,0.0,0.0,-0.0681383641478,0.997675880901
1565340111320444989,27471,1565340111259724667,map,0.513303756714,0.501314163208,0.0,0.0,0.0,-0.0675077718805,0.997718748313
1565340111387774103,27472,1565340111326418000,map,0.523191452026,0.499216079712,0.0,0.0,0.0,-0.0666544907978,0.9977761166
1565340111453547749,27473,1565340111392892636,map,0.531849861145,0.495409011841,0.0,0.0,0.0,-0.0652810985694,0.997866914057
1565340111519918322,27474,1565340111459739979,map,0.541288375854,0.495511054993,0.0,0.0,0.0,-0.0647398437162,0.997902175885
1565340111586839364,27475,1565340111526270448,map,0.551198005676,0.493723869324,0.0,0.0,0.0,-0.0637919476728,0.997963219469
1565340111653556239,27476,1565340111592973104,map,0.560735702515,0.491468429565,0.0,0.0,0.0,-0.0624487623895,0.99804817122
1565340111719449728,27477,1565340111659942063,map,0.572607040405,0.491676330566,0.0,0.0,0.0,-0.0620858795987,0.998070810892
1565340111785651082,27478,1565340111726237479,map,0.580729484558,0.48841381073,0.0,0.0,0.0,-0.0604967138823,0.998168396419
1565340111853153166,27479,1565340111792923365,map,0.590772628784,0.486889839172,0.0,0.0,0.0,-0.0594200488265,0.998233067874
1565340111920405041,27480,1565340111859690188,map,0.601521492004,0.48592376709,0.0,0.0,0.0,-0.0584347111788,0.998291232321
1565340111986948686,27481,1565340111926798625,map,0.612996101379,0.485101699829,0.0,0.0,0.0,-0.0574671684516,0.998347396726
1565340112053324884,27482,1565340111992904563,map,0.621304512024,0.482380867004,0.0,0.0,0.0,-0.0558999445383,0.99843637564
1565340112119317541,27483,1565340112059677688,map,0.633958816528,0.483325004578,0.0,0.0,0.0,-0.055555488972,0.998455601239
1565340112185716968,27484,1565340112126225969,map,0.643971443176,0.481739997864,0.0,0.0,0.0,-0.0540933245823,0.9985358843
1565340112252849207,27485,1565340112193506698,map,0.654795646667,0.48060798645,0.0,0.0,0.0,-0.0528193709761,0.998604082732
1565340112319787280,27486,1565340112260341802,map,0.667593002319,0.482655525208,0.0,0.0,0.0,-0.0526143780197,0.998614904368
1565340112386673790,27487,1565340112327215292,map,0.678091049194,0.480659484863,0.0,0.0,0.0,-0.0509607830812,0.998700655145
1565340112453031915,27488,1565340112393232427,map,0.689366340637,0.480977058411,0.0,0.0,0.0,-0.0496437594299,0.998766988416
1565340112519074520,27489,1565340112459663989,map,0.699966430664,0.480041503906,0.0,0.0,0.0,-0.0475807815436,0.998867393215
1565340112586260874,27490,1565340112526268573,map,0.711181640625,0.480302810669,0.0,0.0,0.0,-0.0449033479004,0.998991335972
1565340112652677436,27491,1565340112592951906,map,0.724180221558,0.481318473816,0.0,0.0,0.0,-0.0421836673893,0.99910987294
1565340112720461707,27492,1565340112659960812,map,0.735522270203,0.48106098175,0.0,0.0,0.0,-0.0390965547864,0.999235437424
1565340112786278217,27493,1565340112726248833,map,0.748075485229,0.481657028198,0.0,0.0,0.0,-0.0366833477139,0.999326939495
1565340112854279624,27494,1565340112794460760,map,0.759618759155,0.481384277344,0.0,0.0,0.0,-0.0338374479696,0.999427349593
1565340112920450092,27495,1565340112860111073,map,0.77170753479,0.482258796692,0.0,0.0,0.0,-0.0315000489523,0.999503750326
1565340112987572749,27496,1565340112926740031,map,0.785067558289,0.483667373657,0.0,0.0,0.0,-0.0291820177937,0.999574114229
1565340113052759259,27497,1565340112992987270,map,0.797025680542,0.485211372375,0.0,0.0,0.0,-0.0266004731701,0.999646144807
1565340113120599884,27498,1565340113060475291,map,0.810754776001,0.48895740509,0.0,0.0,0.0,-0.0252305035611,0.999681660175
1565340113186253842,27499,1565340113126405656,map,0.822337150574,0.488828659058,0.0,0.0,0.0,-0.0225752802257,0.999745145886
1565340113252654988,27500,1565340113192933937,map,0.836027145386,0.491424560547,0.0,0.0,0.0,-0.0217722455435,0.999762956567
1565340113319415665,27501,1565340113259663000,map,0.84893321991,0.492317199707,0.0,0.0,0.0,-0.0217622343358,0.999763174535
1565340113386351707,27502,1565340113326726125,map,0.861421585083,0.493034362793,0.0,0.0,0.0,-0.0228772785455,0.999738280815
1565340113452849780,27503,1565340113393125291,map,0.874647140503,0.495594978333,0.0,0.0,0.0,-0.0248846668282,0.99969032873
1565340113520733113,27504,1565340113459792374,map,0.887802124023,0.497278213501,0.0,0.0,0.0,-0.0257853614076,0.999667502291
1565340113588151863,27505,1565340113526498052,map,0.899691581726,0.499066352844,0.0,0.0,0.0,-0.0258721168176,0.999665260761
1565340113655379207,27506,1565340113593716802,map,0.913312911987,0.501337051392,0.0,0.0,0.0,-0.0260789943154,0.999659885189
1565340113720208009,27507,1565340113660431281,map,0.92638874054,0.503196716309,0.0,0.0,0.0,-0.0263778683571,0.999652043494
1565340113786403842,27508,1565340113726923781,map,0.940877914429,0.504852294922,0.0,0.0,0.0,-0.026968459385,0.999636284955
1565340113852680561,27509,1565340113793082374,map,0.954966545105,0.506616592407,0.0,0.0,0.0,-0.0287335022018,0.999587107686
1565340113920813269,27510,1565340113859936020,map,0.96871471405,0.50862121582,0.0,0.0,0.0,-0.0310141491493,0.99951894557
1565340113986519467,27511,1565340113926791593,map,0.982187271118,0.511632919312,0.0,0.0,0.0,-0.0333325240119,0.99944431703
1565340114052878321,27512,1565340113993074197,map,0.99698638916,0.513998031616,0.0,0.0,0.0,-0.0345563360944,0.999402751465
1565340114119993321,27513,1565340114059862583,map,1.01057910919,0.516431808472,0.0,0.0,0.0,-0.035242563304,0.999378787914
1565340114186186863,27514,1565340114126610187,map,1.02458763123,0.517970085144,0.0,0.0,0.0,-0.035499894241,0.999369680103
1565340114252542227,27515,1565340114193087583,map,1.03918457031,0.520559310913,0.0,0.0,0.0,-0.0358522908411,0.99935709996
1565340114321163842,27516,1565340114259878520,map,1.05191230774,0.522575378418,0.0,0.0,0.0,-0.0358732581796,0.99935634753
1565340114385939571,27517,1565340114326334510,map,1.06706237793,0.525733947754,0.0,0.0,0.0,-0.036003350631,0.999351669205
1565340114452462175,27518,1565340114393208572,map,1.08080005646,0.528509140015,0.0,0.0,0.0,-0.0349640237586,0.999388571599
1565340114520961185,27519,1565340114459893207,map,1.09429931641,0.530690193176,0.0,0.0,0.0,-0.0331561917845,0.999450182323
1565340114586561394,27520,1565340114526919093,map,1.10964488983,0.534207344055,0.0,0.0,0.0,-0.0315591473627,0.99950188605
1565340114653779623,27521,1565340114593752478,map,1.12272644043,0.535882949829,0.0,0.0,0.0,-0.0289122418449,0.999581953754
1565340114722822487,27522,1565340114661141280,map,1.13701152802,0.538877487183,0.0,0.0,0.0,-0.0273180905709,0.999626791321
1565340114786757904,27523,1565340114726489405,map,1.14849376678,0.5405626297,0.0,0.0,0.0,-0.02454597752,0.999698702104
1565340114853033685,27524,1565340114793113936,map,1.16109275818,0.54319190979,0.0,0.0,0.0,-0.0226055516582,0.999744461867
1565340114920629571,27525,1565340114860120916,map,1.17123699188,0.545141220093,0.0,0.0,0.0,-0.0208247467053,0.999783141449
1565340114988457748,27526,1565340114928031488,map,1.18245124817,0.54776763916,0.0,0.0,0.0,-0.0198491013212,0.999802987181
1565340115055240456,27527,1565340114994164041,map,1.19210338593,0.549342155457,0.0,0.0,0.0,-0.0191144347341,0.999817302503
1565340115121537279,27528,1565340115061051384,map,1.20062065125,0.551122665405,0.0,0.0,0.0,-0.0193735477367,0.999812315211
1565340115186662852,27529,1565340115126989978,map,1.21020698547,0.552900314331,0.0,0.0,0.0,-0.0213763244591,0.99977150027
1565340115252621237,27530,1565340115192997270,map,1.21871185303,0.55580329895,0.0,0.0,0.0,-0.024775743131,0.999693034162
1565340115319739362,27531,1565340115259900082,map,1.22590446472,0.556913375854,0.0,0.0,0.0,-0.0285490419269,0.999592393031
1565340115386117748,27532,1565340115326306228,map,1.23440361023,0.559759140015,0.0,0.0,0.0,-0.0339370496978,0.999423972425
1565340115452589883,27533,1565340115393458415,map,1.24147796631,0.561920166016,0.0,0.0,0.0,-0.0397447874675,0.999209863777
1565340115519592800,27534,1565340115459831540,map,1.2500705719,0.564442634583,0.0,0.0,0.0,-0.0468665619564,0.998901158959
1565340115585939154,27535,1565340115526320342,map,1.25581169128,0.565797805786,0.0,0.0,0.0,-0.0544844686217,0.99851461816
1565340115653631289,27536,1565340115593228832,map,1.26330852509,0.567399978638,0.0,0.0,0.0,-0.0637367471256,0.997966746473
1565340115721567070,27537,1565340115659902947,map,1.27055072784,0.57017326355,0.0,0.0,0.0,-0.0731452453619,0.99732129882
1565340115786449622,27538,1565340115726475499,map,1.27715301514,0.571723937988,0.0,0.0,0.0,-0.0809055148663,0.996721775454
1565340115852542852,27539,1565340115793287426,map,1.28332996368,0.573806762695,0.0,0.0,0.0,-0.0880628933028,0.996114916475
1565340115923431862,27540,1565340115860112009,map,1.28972625732,0.576055526733,0.0,0.0,0.0,-0.0950431837778,0.995473150425
1565340115987276706,27541,1565340115927489874,map,1.2956571579,0.578572273254,0.0,0.0,0.0,-0.101272624188,0.994858711371
1565340116052664362,27542,1565340115993388884,map,1.30308818817,0.580142021179,0.0,0.0,0.0,-0.107561859122,0.994198393915
1565340116122838685,27543,1565340116060046332,map,1.31032085419,0.582552909851,0.0,0.0,0.0,-0.11348816635,0.993539348037
1565340116187710976,27544,1565340116126597686,map,1.31725883484,0.584585189819,0.0,0.0,0.0,-0.118469215294,0.9929577257
1565340116253931549,27545,1565340116193375603,map,1.32553386688,0.586431503296,0.0,0.0,0.0,-0.123382930755,0.992359134789
1565340116320704518,27546,1565340116260111800,map,1.33374595642,0.588193893433,0.0,0.0,0.0,-0.127254598748,0.991870085796
1565340116386063528,27547,1565340116326650134,map,1.34301757812,0.589894294739,0.0,0.0,0.0,-0.131231162767,0.991351795237
1565340116453970143,27548,1565340116393814300,map,1.35216236115,0.5914478302,0.0,0.0,0.0,-0.135588770198,0.990765201951
1565340116519974466,27549,1565340116460366540,map,1.3595790863,0.591784477234,0.0,0.0,0.0,-0.139431460477,0.99023172431
1565340116586773424,27550,1565340116526915811,map,1.36901855469,0.592455863953,0.0,0.0,0.0,-0.145105677717,0.989416162337
1565340116652726549,27551,1565340116593212425,map,1.37812614441,0.593435287476,0.0,0.0,0.0,-0.151243902915,0.988496475376
1565340116720945716,27552,1565340116660376019,map,1.38737773895,0.592999458313,0.0,0.0,0.0,-0.157683317676,0.987489732264
1565340116786100247,27553,1565340116726385134,map,1.39459991455,0.59327507019,0.0,0.0,0.0,-0.164338986126,0.986403922153
1565340116852780664,27554,1565340116793063519,map,1.40330791473,0.593571662903,0.0,0.0,0.0,-0.17097895918,0.985274680238
1565340116920452747,27555,1565340116859795290,map,1.41232872009,0.593037605286,0.0,0.0,0.0,-0.177824213842,0.984062268849
1565340116986282591,27556,1565340116926796540,map,1.42161273956,0.592691421509,0.0,0.0,0.0,-0.185057326287,0.982727727291
1565340117053916132,27557,1565340116993577425,map,1.43069267273,0.591737747192,0.0,0.0,0.0,-0.193544639612,0.981091469985
1565340117120555091,27558,1565340117060481175,map,1.44086647034,0.591387748718,0.0,0.0,0.0,-0.202917560873,0.979195824894
1565340117185637591,27559,1565340117126344717,map,1.45184898376,0.5897397995,0.0,0.0,0.0,-0.212113260614,0.977245089357
1565340117252242955,27560,1565340117193076123,map,1.46102714539,0.588940620422,0.0,0.0,0.0,-0.220092402934,0.975479028053
1565340117319550455,27561,1565340117259855186,map,1.47034645081,0.588178634644,0.0,0.0,0.0,-0.227941937457,0.973674726563
1565340117386314257,27562,1565340117326577998,map,1.47961902618,0.58625793457,0.0,0.0,0.0,-0.235503505265,0.971873499489
1565340117452658007,27563,1565340117393032998,map,1.48801994324,0.585556030273,0.0,0.0,0.0,-0.243791296792,0.969827718519
1565340117519391601,27564,1565340117459789144,map,1.4981212616,0.58278465271,0.0,0.0,0.0,-0.252549264049,0.967584037295
1565340117587869518,27565,1565340117527336956,map,1.50715637207,0.581932067871,0.0,0.0,0.0,-0.262389000848,0.964962181764
1565340117653821340,27566,1565340117593254404,map,1.51610565186,0.580691337585,0.0,0.0,0.0,-0.271306460089,0.962493015411
1565340117719725247,27567,1565340117659964977,map,1.52621650696,0.579538345337,0.0,0.0,0.0,-0.279252583439,0.960217680863
1565340117786433945,27568,1565340117726591487,map,1.53364849091,0.57701587677,0.0,0.0,0.0,-0.286446459057,0.958096250955
1565340117855405403,27569,1565340117795691592,map,1.54207420349,0.575213432312,0.0,0.0,0.0,-0.293440748998,0.955977262715
1565340117920181080,27570,1565340117860505133,map,1.55119037628,0.573293685913,0.0,0.0,0.0,-0.30048758705,0.953785725427
1565340117987044830,27571,1565340117927522581,map,1.56098651886,0.571273803711,0.0,0.0,0.0,-0.306740036353,0.951793333712
1565340118053039049,27572,1565340117993159144,map,1.57075691223,0.569416999817,0.0,0.0,0.0,-0.311711611277,0.950176757975
1565340118121257694,27573,1565340118060234300,map,1.57956504822,0.567733764648,0.0,0.0,0.0,-0.314909938504,0.949121557353
1565340118186549517,27574,1565340118126712789,map,1.58974266052,0.565620422363,0.0,0.0,0.0,-0.315644375666,0.948877562234
1565340118252935299,27575,1565340118193488935,map,1.5987443924,0.564646720886,0.0,0.0,0.0,-0.314943202678,0.949110519954
1565340118322276705,27576,1565340118261379716,map,1.60910129547,0.56206703186,0.0,0.0,0.0,-0.31380430725,0.9494876812
1565340118386967903,27577,1565340118326514091,map,1.61882305145,0.559414863586,0.0,0.0,0.0,-0.31247653504,0.949925478682
1565340118452627851,27578,1565340118393152112,map,1.62787437439,0.556796073914,0.0,0.0,0.0,-0.311125720164,0.950368763298
1565340118520944986,27579,1565340118460165289,map,1.63819408417,0.554229736328,0.0,0.0,0.0,-0.309759768193,0.950814853696
1565340118586940871,27580,1565340118526692789,map,1.64819049835,0.55242729187,0.0,0.0,0.0,-0.308164101892,0.95133321518
1565340118653326184,27581,1565340118593236695,map,1.65800476074,0.55002784729,0.0,0.0,0.0,-0.306274576083,0.951943214717
1565340118719595455,27582,1565340118659998466,map,1.66817760468,0.548170089722,0.0,0.0,0.0,-0.302664386682,0.953097198104
1565340118786655142,27583,1565340118726572633,map,1.67839050293,0.546559333801,0.0,0.0,0.0,-0.298753164652,0.954330417943
1565340118853975663,27584,1565340118793745289,map,1.68703174591,0.544322013855,0.0,0.0,0.0,-0.292799992321,0.956173710419
1565340118920577225,27585,1565340118859911331,map,1.69789123535,0.541213989258,0.0,0.0,0.0,-0.287475133177,0.957788101724
1565340118989595142,27586,1565340118926919560,map,1.7086391449,0.539280891418,0.0,0.0,0.0,-0.283100307122,0.959090306544
1565340119053712121,27587,1565340118993164612,map,1.7183713913,0.535768508911,0.0,0.0,0.0,-0.277943739297,0.960597354663
1565340119120261809,27588,1565340119060111018,map,1.72833061218,0.533973693848,0.0,0.0,0.0,-0.272413961879,0.962180146009
1565340119186166027,27589,1565340119126595133,map,1.73898124695,0.531362533569,0.0,0.0,0.0,-0.267337900824,0.963602847019
1565340119253389829,27590,1565340119193866174,map,1.74908256531,0.528480529785,0.0,0.0,0.0,-0.262312618475,0.964982948134
1565340119320890246,27591,1565340119260768726,map,1.76069927216,0.525978088379,0.0,0.0,0.0,-0.258250265851,0.966078050774
1565340119386415871,27592,1565340119327027424,map,1.77055072784,0.523519515991,0.0,0.0,0.0,-0.25394352239,0.967219048322
1565340119452586288,27593,1565340119393098778,map,1.7807598114,0.520551681519,0.0,0.0,0.0,-0.250346214183,0.968156378404
1565340119519579204,27594,1565340119459994612,map,1.7905664444,0.51891040802,0.0,0.0,0.0,-0.246537960748,0.969133135286
1565340119585918267,27595,1565340119526628570,map,1.79943561554,0.516799926758,0.0,0.0,0.0,-0.242305391059,0.970200029614
1565340119652245350,27596,1565340119593140862,map,1.80945110321,0.514581680298,0.0,0.0,0.0,-0.238309486745,0.971189265039
1565340119719627590,27597,1565340119659980862,map,1.81982898712,0.512217521667,0.0,0.0,0.0,-0.234237691174,0.972179357955
1565340119785875506,27598,1565340119726442372,map,1.82924938202,0.509593009949,0.0,0.0,0.0,-0.230823675373,0.972995596541
1565340119853516079,27599,1565340119793280341,map,1.83990478516,0.507780075073,0.0,0.0,0.0,-0.227975597932,0.973666845871
1565340119920407069,27600,1565340119859845185,map,1.84942722321,0.505784988403,0.0,0.0,0.0,-0.224662340271,0.97443667463
1565340119987327485,27601,1565340119926831018,map,1.86006259918,0.503329277039,0.0,0.0,0.0,-0.221914919451,0.975066032905
1565340120054364412,27602,1565340119993072268,map,1.87023639679,0.500799179077,0.0,0.0,0.0,-0.218771888653,0.975776030006
1565340120121161548,27603,1565340120059960028,map,1.88081932068,0.49863910675,0.0,0.0,0.0,-0.215696894464,0.976460367715
1565340120186709829,27604,1565340120126317632,map,1.89042377472,0.496417045593,0.0,0.0,0.0,-0.212275654075,0.977209827359
1565340120253175767,27605,1565340120193044195,map,1.9005279541,0.493478775024,0.0,0.0,0.0,-0.209773168448,0.977750079417
1565340120319596287,27606,1565340120260032164,map,1.91131401062,0.491285324097,0.0,0.0,0.0,-0.207713610735,0.978189682994
1565340120386534100,27607,1565340120326306226,map,1.92185974121,0.488637924194,0.0,0.0,0.0,-0.206274194494,0.978494229255
1565340120452735819,27608,1565340120392996747,map,1.93260192871,0.485209465027,0.0,0.0,0.0,-0.205259033661,0.978707683172
1565340120519437016,27609,1565340120459797424,map,1.94340801239,0.482045173645,0.0,0.0,0.0,-0.205271634117,0.978705040463
1565340120587414516,27610,1565340120527168466,map,1.95387077332,0.478719711304,0.0,0.0,0.0,-0.206449626163,0.978457230469
1565340120653217016,27611,1565340120593455445,map,1.96403026581,0.47536945343,0.0,0.0,0.0,-0.208222232385,0.97808154156
1565340120720886235,27612,1565340120660251122,map,1.97565460205,0.471035957336,0.0,0.0,0.0,-0.210923672562,0.977502534193
1565340120786374048,27613,1565340120726784299,map,1.98613834381,0.467524528503,0.0,0.0,0.0,-0.214731108636,0.976673205829
1565340120852716600,27614,1565340120792958465,map,1.99707317352,0.464120864868,0.0,0.0,0.0,-0.218155108047,0.975914109352
1565340120920369777,27615,1565340120859943257,map,2.00829029083,0.459988594055,0.0,0.0,0.0,-0.22104421651,0.975263787059
1565340120986657016,27616,1565340120927042632,map,2.02057361603,0.456197738647,0.0,0.0,0.0,-0.224108676407,0.974564159591
1565340121053709829,27617,1565340120993304403,map,2.03036975861,0.451817512512,0.0,0.0,0.0,-0.227209464572,0.97384591143
1565340121120603787,27618,1565340121059813153,map,2.04185581207,0.448120117188,0.0,0.0,0.0,-0.231745461053,0.972776460078
1565340121186534568,27619,1565340121126318517,map,2.05304050446,0.444305419922,0.0,0.0,0.0,-0.237323426067,0.971430693071
1565340121253841131,27620,1565340121193092736,map,2.0657119751,0.440243721008,0.0,0.0,0.0,-0.243812106981,0.969822487102
1565340121321903683,27621,1565340121260124142,map,2.07574558258,0.435643196106,0.0,0.0,0.0,-0.249902077735,0.96827111469
1565340121386956079,27622,1565340121326439351,map,2.08638763428,0.432606697083,0.0,0.0,0.0,-0.256874698488,0.9664447161
1565340121454683318,27623,1565340121393105549,map,2.09834861755,0.426527023315,0.0,0.0,0.0,-0.265211230303,0.96419033563
1565340121520837068,27624,1565340121459912267,map,2.10991477966,0.42182636261,0.0,0.0,0.0,-0.27278488405,0.962075052703
1565340121586918370,27625,1565340121526724455,map,2.12063312531,0.416971206665,0.0,0.0,0.0,-0.279603291286,0.960115617778
1565340121653688943,27626,1565340121593211486,map,2.13156223297,0.411578178406,0.0,0.0,0.0,-0.286233100254,0.958160013943
1565340121719540454,27627,1565340121659966486,map,2.14224815369,0.406811714172,0.0,0.0,0.0,-0.291681829634,0.956515399908
1565340121786199151,27628,1565340121726721642,map,2.15205669403,0.401288032532,0.0,0.0,0.0,-0.29725701541,0.95479750041
1565340121855394099,27629,1565340121793182475,map,2.16316699982,0.39702796936,0.0,0.0,0.0,-0.302233970703,0.953233773506
1565340121921322224,27630,1565340121859903205,map,2.17417144775,0.391484260559,0.0,0.0,0.0,-0.308129398914,0.95134445577
1565340121986212589,27631,1565340121926823777,map,2.18447113037,0.387008666992,0.0,0.0,0.0,-0.31368817427,0.949526055105
1565340122053256078,27632,1565340121993752215,map,2.1955165863,0.381548881531,0.0,0.0,0.0,-0.320023973544,0.947409444938
1565340122120175401,27633,1565340122060274611,map,2.20648765564,0.376070022583,0.0,0.0,0.0,-0.327090448796,0.944993036115
1565340122186325870,27634,1565340122126859454,map,2.21650981903,0.371122360229,0.0,0.0,0.0,-0.334232385464,0.942490696244
1565340122252776651,27635,1565340122193103361,map,2.22696399689,0.365118026733,0.0,0.0,0.0,-0.342039261143,0.939685662249
1565340122320795714,27636,1565340122259763621,map,2.23895835876,0.359629631042,0.0,0.0,0.0,-0.351010116038,0.936371666829
1565340122385773735,27637,1565340122326283257,map,2.2497587204,0.354497909546,0.0,0.0,0.0,-0.359820073013,0.933021711996
1565340122452676078,27638,1565340122393066017,map,2.26064872742,0.349032402039,0.0,0.0,0.0,-0.369224089107,0.929340396207
1565340122519983734,27639,1565340122459959715,map,2.27200889587,0.34209728241,0.0,0.0,0.0,-0.379097495698,0.925356735943
1565340122585964255,27640,1565340122526343413,map,2.28141307831,0.336207389832,0.0,0.0,0.0,-0.389171285984,0.921165408689
1565340122652873422,27641,1565340122593110496,map,2.29237365723,0.330917358398,0.0,0.0,0.0,-0.399433069514,0.916762359054
1565340122721002224,27642,1565340122659816329,map,2.30258750916,0.324760437012,0.0,0.0,0.0,-0.408788367025,0.912629207831
1565340122787189359,27643,1565340122726675756,map,2.3122587204,0.318855285645,0.0,0.0,0.0,-0.417510202582,0.908672235044
1565340122855910401,27644,1565340122794679923,map,2.32112884521,0.312208175659,0.0,0.0,0.0,-0.4257116331,0.904858887033
1565340122920017588,27645,1565340122859845496,map,2.33112335205,0.305128097534,0.0,0.0,0.0,-0.433393567869,0.901204757716
1565340122987032641,27646,1565340122926874246,map,2.34038257599,0.299487113953,0.0,0.0,0.0,-0.440224851923,0.897887565205
1565340123053683474,27647,1565340122992977215,map,2.35017108917,0.293518066406,0.0,0.0,0.0,-0.447258719068,0.894404627793
1565340123121073890,27648,1565340123059740131,map,2.36018466949,0.287979125977,0.0,0.0,0.0,-0.453419904343,0.891297027004
1565340123186703734,27649,1565340123126332058,map,2.37012195587,0.281484603882,0.0,0.0,0.0,-0.459062024409,0.888404219793
1565340123254185193,27650,1565340123193237006,map,2.3791179657,0.275218009949,0.0,0.0,0.0,-0.464075037643,0.885795890393
1565340123320733786,27651,1565340123259784142,map,2.38857078552,0.269605636597,0.0,0.0,0.0,-0.468784947468,0.883312330395
1565340123386308838,27652,1565340123326327683,map,2.39786243439,0.262189865112,0.0,0.0,0.0,-0.473678534754,0.88069781748
1565340123453485765,27653,1565340123393518985,map,2.4082775116,0.255380630493,0.0,0.0,0.0,-0.478684398873,0.877987042202
1565340123521508994,27654,1565340123460535600,map,2.41726016998,0.249277114868,0.0,0.0,0.0,-0.48295530922,0.875645001868
1565340123586745244,27655,1565340123526831537,map,2.42649078369,0.24254322052,0.0,0.0,0.0,-0.487263038235,0.873255249953
1565340123652864724,27656,1565340123593114454,map,2.43541812897,0.23627948761,0.0,0.0,0.0,-0.490680644829,0.871339488827
1565340123719749984,27657,1565340123659828100,map,2.44498538971,0.229209899902,0.0,0.0,0.0,-0.493710721415,0.869626197604
1565340123788160557,27658,1565340123726446798,map,2.45388889313,0.221305847168,0.0,0.0,0.0,-0.4977577098,0.867316125951
1565340123853109828,27659,1565340123792982735,map,2.46336078644,0.213737487793,0.0,0.0,0.0,-0.501402002985,0.865214442438
1565340123919533265,27660,1565340123859718256,map,2.47101306915,0.205924987793,0.0,0.0,0.0,-0.504356961959,0.86349525472
1565340123987263994,27661,1565340123927057579,map,2.48091888428,0.197660446167,0.0,0.0,0.0,-0.508767561368,0.860903925243
1565340124055297588,27662,1565340123993542787,map,2.48966026306,0.191724777222,0.0,0.0,0.0,-0.513409157325,0.858143948982
1565340124122067744,27663,1565340124060301277,map,2.49821949005,0.184390068054,0.0,0.0,0.0,-0.517563188447,0.855644988277
1565340124186276755,27664,1565340124126489037,map,2.50639152527,0.17667388916,0.0,0.0,0.0,-0.522103462208,0.852882157599
1565340124254259203,27665,1565340124193250339,map,2.51448345184,0.167593002319,0.0,0.0,0.0,-0.52709101709,0.849808837153
1565340124320383994,27666,1565340124259761016,map,2.52275180817,0.160284042358,0.0,0.0,0.0,-0.531989017619,0.846751253399
1565340124386114775,27667,1565340124326279141,map,2.5310087204,0.153074264526,0.0,0.0,0.0,-0.537926282052,0.842991883162
1565340124453221494,27668,1565340124393031172,map,2.53934288025,0.14483165741,0.0,0.0,0.0,-0.542605713114,0.839987523774
1565340124520257171,27669,1565340124460015599,map,2.54738140106,0.136507987976,0.0,0.0,0.0,-0.547223266821,0.836986676268
1565340124586408786,27670,1565340124526466485,map,2.55463695526,0.12908744812,0.0,0.0,0.0,-0.550995023283,0.834508528607
1565340124652952796,27671,1565340124593136016,map,2.56272125244,0.120889663696,0.0,0.0,0.0,-0.555131407113,0.831762658958
1565340124719779515,27672,1565340124659893412,map,2.56979846954,0.111505508423,0.0,0.0,0.0,-0.558568670245,0.829458281422
1565340124786265557,27673,1565340124726346120,map,2.577293396,0.104390144348,0.0,0.0,0.0,-0.563343914494,0.826222508772
1565340124853713473,27674,1565340124793518099,map,2.58586406708,0.0958423614502,0.0,0.0,0.0,-0.568204204421,0.822887587753
1565340124921716859,27675,1565340124860370912,map,2.592877388,0.0884275436401,0.0,0.0,0.0,-0.573383118802,0.819287372704
1565340124988328838,27676,1565340124928048828,map,2.60033416748,0.0793180465698,0.0,0.0,0.0,-0.578627896078,0.815591661238
1565340125053097588,27677,1565340124993045755,map,2.60764884949,0.0713806152344,0.0,0.0,0.0,-0.584642763386,0.81129084749
1565340125119841702,27678,1565340125059655703,map,2.6149930954,0.0641527175903,0.0,0.0,0.0,-0.590762254019,0.806845684891
1565340125186048994,27679,1565340125126212005,map,2.62173748016,0.0544939041138,0.0,0.0,0.0,-0.59804575289,0.801461962572
1565340125253536963,27680,1565340125193070182,map,2.628947258,0.0451583862305,0.0,0.0,0.0,-0.605771237956,0.795638867367
1565340125320399410,27681,1565340125259732110,map,2.63596343994,0.0364151000977,0.0,0.0,0.0,-0.613673855988,0.78955962313
1565340125386380452,27682,1565340125326262005,map,2.64181613922,0.0267763137817,0.0,0.0,0.0,-0.620825833014,0.783948521946
1565340125453400296,27683,1565340125392991485,map,2.64658164978,0.0179195404053,0.0,0.0,0.0,-0.627315840021,0.778764943265
1565340125521422431,27684,1565340125459713464,map,2.6514787674,0.0107288360596,0.0,0.0,0.0,-0.633385901115,0.77383609393
1565340125585781077,27685,1565340125526321172,map,2.65596294403,0.00256156921387,0.0,0.0,0.0,-0.638852652258,0.769329115985
1565340125652513473,27686,1565340125593013151,map,2.66294956207,-0.00608730316162,0.0,0.0,0.0,-0.645124975372,0.764077068201
1565340125721860921,27687,1565340125659959349,map,2.66949462891,-0.0161094665527,0.0,0.0,0.0,-0.650724165513,0.759314204014
1565340125785759410,27688,1565340125726370391,map,2.67530822754,-0.024640083313,0.0,0.0,0.0,-0.656284595456,0.75451343909
1565340125852816546,27689,1565340125793125911,map,2.6812620163,-0.0331907272339,0.0,0.0,0.0,-0.660521915863,0.750806765196
1565340125919853421,27690,1565340125859885286,map,2.68750858307,-0.0426082611084,0.0,0.0,0.0,-0.665618627201,0.746292062883
1565340125986325035,27691,1565340125926995859,map,2.69291782379,-0.0519638061523,0.0,0.0,0.0,-0.671145387121,0.741325751169
1565340126053210869,27692,1565340125992977891,map,2.69787120819,-0.0600633621216,0.0,0.0,0.0,-0.677040340603,0.735945906433
1565340126120645504,27693,1565340126059901901,map,2.70358753204,-0.069634437561,0.0,0.0,0.0,-0.683542770928,0.729910460476
1565340126186437848,27694,1565340126126443099,map,2.70805072784,-0.0796346664429,0.0,0.0,0.0,-0.690395455823,0.723432176903
1565340126255877014,27695,1565340126193598255,map,2.71353912354,-0.0890502929688,0.0,0.0,0.0,-0.697403952653,0.716678258931
1565340126323748368,27696,1565340126261026588,map,2.71920108795,-0.098445892334,0.0,0.0,0.0,-0.704280712027,0.709921600366
1565340126387321493,27697,1565340126326949817,map,2.72371768951,-0.107831001282,0.0,0.0,0.0,-0.710404719326,0.703793389255
1565340126452796441,27698,1565340126393345547,map,2.72785758972,-0.116720199585,0.0,0.0,0.0,-0.716116216886,0.697981062718
1565340126520531285,27699,1565340126459794453,map,2.73193836212,-0.126209259033,0.0,0.0,0.0,-0.72192816302,0.691968010416
1565340126586407483,27700,1565340126526341536,map,2.73683452606,-0.135185241699,0.0,0.0,0.0,-0.727571866348,0.686031471071
1565340126654279045,27701,1565340126593343515,map,2.74004364014,-0.144804000854,0.0,0.0,0.0,-0.732820984773,0.680421490164
1565340126720725452,27702,1565340126660035547,map,2.74491119385,-0.155999183655,0.0,0.0,0.0,-0.737878822807,0.674933213624
1565340126787883733,27703,1565340126726403046,map,2.74770927429,-0.164018630981,0.0,0.0,0.0,-0.742658507557,0.669670322736
1565340126853022691,27704,1565340126793320859,map,2.75189495087,-0.173798561096,0.0,0.0,0.0,-0.747366123822,0.664412429868
1565340126920936024,27705,1565340126859803567,map,2.75474643707,-0.184151649475,0.0,0.0,0.0,-0.752488607368,0.658605265528
1565340126987888576,27706,1565340126926775651,map,2.75794315338,-0.193781852722,0.0,0.0,0.0,-0.758514509586,0.651656150701
1565340127053207170,27707,1565340126993011588,map,2.76102161407,-0.202414512634,0.0,0.0,0.0,-0.76444380916,0.644690361831
1565340127120933941,27708,1565340127059736432,map,2.76363372803,-0.211706161499,0.0,0.0,0.0,-0.77059063012,0.637330432956
1565340127186793056,27709,1565340127126717630,map,2.76753330231,-0.222599029541,0.0,0.0,0.0,-0.776498812145,0.630118714797
1565340127254549931,27710,1565340127193663203,map,2.76982402802,-0.231816291809,0.0,0.0,0.0,-0.781879239441,0.623429911803
1565340127320570191,27711,1565340127259803046,map,2.77123832703,-0.240626335144,0.0,0.0,0.0,-0.786771497674,0.617244368503
1565340127385642014,27712,1565340127326353463,map,2.7730922699,-0.249984741211,0.0,0.0,0.0,-0.791563686577,0.611086679689
1565340127453398264,27713,1565340127393320130,map,2.77386951447,-0.26010799408,0.0,0.0,0.0,-0.796833055145,0.604199538421
1565340127521148837,27714,1565340127459818359,map,2.77484130859,-0.270363807678,0.0,0.0,0.0,-0.801732390876,0.597683171438
1565340127586377378,27715,1565340127526431692,map,2.77573680878,-0.280278205872,0.0,0.0,0.0,-0.806335679029,0.591458174958
1565340127654636545,27716,1565340127593801692,map,2.77758312225,-0.28904914856,0.0,0.0,0.0,-0.810657149918,0.585521122836
1565340127722109253,27717,1565340127660925338,map,2.77787780762,-0.300218582153,0.0,0.0,0.0,-0.815337769695,0.578985596806
1565340127786792378,27718,1565340127727116327,map,2.77903270721,-0.309304237366,0.0,0.0,0.0,-0.82000705071,0.572353419476
1565340127853910295,27719,1565340127794656484,map,2.7792673111,-0.318824768066,0.0,0.0,0.0,-0.825236633173,0.564787127394
1565340127919035347,27720,1565340127860087317,map,2.77918243408,-0.328673362732,0.0,0.0,0.0,-0.831159454629,0.556034136525
1565340127986648993,27721,1565340127926878254,map,2.77973747253,-0.337930679321,0.0,0.0,0.0,-0.836681927291,0.547689102087
1565340128054089462,27722,1565340127993926484,map,2.78057098389,-0.347865104675,0.0,0.0,0.0,-0.842114798742,0.539298308676
1565340128120640555,27723,1565340128060467369,map,2.78040885925,-0.3577709198,0.0,0.0,0.0,-0.847116459877,0.531407285804
1565340128186024670,27724,1565340128126728306,map,2.77919769287,-0.367568969727,0.0,0.0,0.0,-0.851732016877,0.523977644015
1565340128253072639,27725,1565340128193436327,map,2.77830982208,-0.378204345703,0.0,0.0,0.0,-0.856758005999,0.515718643406
1565340128320543263,27726,1565340128259992369,map,2.77749156952,-0.387736320496,0.0,0.0,0.0,-0.861158417293,0.50833668009
1565340128386095295,27727,1565340128326424817,map,2.77612304688,-0.397702217102,0.0,0.0,0.0,-0.865771450578,0.500439602114
1565340128452921336,27728,1565340128393114088,map,2.77449893951,-0.406766891479,0.0,0.0,0.0,-0.870023178797,0.493010819715
1565340128520133993,27729,1565340128459963046,map,2.77332115173,-0.417150497437,0.0,0.0,0.0,-0.874651169126,0.484752856976
1565340128586265086,27730,1565340128526356587,map,2.77142810822,-0.426095962524,0.0,0.0,0.0,-0.879114660727,0.476610336958
1565340128653347013,27731,1565340128593400233,map,2.76954174042,-0.435461997986,0.0,0.0,0.0,-0.883922923396,0.467632618083
1565340128721584513,27732,1565340128660363306,map,2.76756858826,-0.445777893066,0.0,0.0,0.0,-0.88877647034,0.458340905626
1565340128787376440,27733,1565340128726373202,map,2.76646900177,-0.454574584961,0.0,0.0,0.0,-0.893398066905,0.449265950245
1565340128852266805,27734,1565340128793087004,map,2.76438903809,-0.464351654053,0.0,0.0,0.0,-0.897782036732,0.440440023751
1565340128923364670,27735,1565340128860121067,map,2.76121234894,-0.47417640686,0.0,0.0,0.0,-0.901832237736,0.432086351301
1565340128987658263,27736,1565340128927535025,map,2.75975131989,-0.484357833862,0.0,0.0,0.0,-0.905855415626,0.423587022913
1565340129055744617,27737,1565340128993976275,map,2.75636386871,-0.493629455566,0.0,0.0,0.0,-0.909425509431,0.415866857054
1565340129122211857,27738,1565340129061021327,map,2.75324249268,-0.50366973877,0.0,0.0,0.0,-0.913061704043,0.407821437164
1565340129187799565,27739,1565340129127704660,map,2.75006198883,-0.512643814087,0.0,0.0,0.0,-0.916231900742,0.400648354623
1565340129253336596,27740,1565340129193506952,map,2.74726104736,-0.521057128906,0.0,0.0,0.0,-0.919111819538,0.393996780678
1565340129322411388,27741,1565340129259887993,map,2.74346733093,-0.52965927124,0.0,0.0,0.0,-0.921888726794,0.38745473982
1565340129388014044,27742,1565340129327200858,map,2.73907566071,-0.53840637207,0.0,0.0,0.0,-0.924607445534,0.38092134577
1565340129453090346,27743,1565340129393222525,map,2.73529338837,-0.547116279602,0.0,0.0,0.0,-0.927247905809,0.37444802199
1565340129523207273,27744,1565340129459889764,map,2.73091697693,-0.555801391602,0.0,0.0,0.0,-0.929809266902,0.368041746523
1565340129586819721,27745,1565340129526974243,map,2.72646617889,-0.564725875854,0.0,0.0,0.0,-0.93224750111,0.361821221979
1565340129653700503,27746,1565340129593768410,map,2.72284221649,-0.573323249817,0.0,0.0,0.0,-0.934474075718,0.356031180954
1565340129721665086,27747,1565340129659956691,map,2.71809673309,-0.582902908325,0.0,0.0,0.0,-0.936685437986,0.350171943858
1565340129786753575,27748,1565340129726457681,map,2.71328449249,-0.590850830078,0.0,0.0,0.0,-0.938763039358,0.344563428029
1565340129854097377,27749,1565340129793312004,map,2.70763111115,-0.600263595581,0.0,0.0,0.0,-0.941175199307,0.337918990602
1565340129920955659,27750,1565340129860010285,map,2.70226860046,-0.608817100525,0.0,0.0,0.0,-0.943777418153,0.330581585973
1565340129987448107,27751,1565340129926867160,map,2.6972284317,-0.616567611694,0.0,0.0,0.0,-0.94628617162,0.323330297684
1565340130053030138,27752,1565340129993088774,map,2.69187736511,-0.624387741089,0.0,0.0,0.0,-0.948901513949,0.315572363848
1565340130121443992,27753,1565340130059846951,map,2.68576049805,-0.632871627808,0.0,0.0,0.0,-0.951819717015,0.306658158708
1565340130189354304,27754,1565340130126439191,map,2.67948913574,-0.640403747559,0.0,0.0,0.0,-0.954762611428,0.297369056593
1565340130252951284,27755,1565340130193107108,map,2.67377281189,-0.648626327515,0.0,0.0,0.0,-0.957685973035,0.287815178635
1565340130319957690,27756,1565340130259825493,map,2.66799163818,-0.656221389771,0.0,0.0,0.0,-0.960621592013,0.277859959257
1565340130387742429,27757,1565340130327330701,map,2.6602935791,-0.663637161255,0.0,0.0,0.0,-0.963600763278,0.267345411425
1565340130453405294,27758,1565340130393947837,map,2.65525054932,-0.671068191528,0.0,0.0,0.0,-0.966398327132,0.257049165174
1565340130520689773,27759,1565340130460354972,map,2.64703369141,-0.678121566772,0.0,0.0,0.0,-0.969218472104,0.246202261022
1565340130586233836,27760,1565340130527002733,map,2.64138507843,-0.68413734436,0.0,0.0,0.0,-0.971983041233,0.235050989265
1565340130652523836,27761,1565340130593204712,map,2.63421344757,-0.690423965454,0.0,0.0,0.0,-0.974774479624,0.22319210083
1565340130719894981,27762,1565340130659817212,map,2.62684345245,-0.697225570679,0.0,0.0,0.0,-0.977480996144,0.21102346357
1565340130786577690,27763,1565340130726333774,map,2.61944293976,-0.703048706055,0.0,0.0,0.0,-0.980327896958,0.197375820319
1565340130853425710,27764,1565340130793008774,map,2.61109733582,-0.709468841553,0.0,0.0,0.0,-0.983032136653,0.183433416552
1565340130919430554,27765,1565340130859740753,map,2.60355091095,-0.715093612671,0.0,0.0,0.0,-0.985551182269,0.16937788264
1565340130986695033,27766,1565340130926829868,map,2.59493255615,-0.720960617065,0.0,0.0,0.0,-0.988010934615,0.15438391458
1565340131052449877,27767,1565340130993191743,map,2.58922100067,-0.726182937622,0.0,0.0,0.0,-0.990362357747,0.138500542804
1565340131120386492,27768,1565340131059969243,map,2.5839214325,-0.731610298157,0.0,0.0,0.0,-0.99241837738,0.122905509389
1565340131185770137,27769,1565340131126342732,map,2.57582569122,-0.736824989319,0.0,0.0,0.0,-0.994355414903,0.106100465848
1565340131252984460,27770,1565340131193142993,map,2.56703948975,-0.741428375244,0.0,0.0,0.0,-0.996032714759,0.0889878144965
1565340131320094877,27771,1565340131259894659,map,2.56073760986,-0.745253562927,0.0,0.0,0.0,-0.997368114164,0.0725041022923
1565340131386239877,27772,1565340131326635128,map,2.55346488953,-0.74969291687,0.0,0.0,0.0,-0.998412486406,0.0563250121078
1565340131452513002,27773,1565340131393094659,map,2.54636478424,-0.75382232666,0.0,0.0,0.0,-0.999137536977,0.0415232730328
1565340131520785085,27774,1565340131459915649,map,2.53847503662,-0.757883071899,0.0,0.0,0.0,-0.999635463512,0.026998890502
1565340131585540502,27775,1565340131526406118,map,2.52991580963,-0.762132644653,0.0,0.0,0.0,-0.999917226797,0.0128662175333
1565340131652663314,27776,1565340131593306951,map,2.52230930328,-0.766165733337,0.0,0.0,0.0,0.9999995758,0.000921086338727
1565340131719488939,27777,1565340131660128045,map,2.51444530487,-0.769627571106,0.0,0.0,0.0,0.999894501745,0.0145253358182
1565340131786304512,27778,1565340131726601847,map,2.50780296326,-0.773347854614,0.0,0.0,0.0,0.999599972827,0.028282403085
1565340131852905502,27779,1565340131793798722,map,2.49946689606,-0.777451515198,0.0,0.0,0.0,0.999058465844,0.0433841195149
1565340131919403783,27780,1565340131860351742,map,2.49067020416,-0.78019618988,0.0,0.0,0.0,0.998277717174,0.058665146338
1565340131988875970,27781,1565340131927300753,map,2.48537731171,-0.78254699707,0.0,0.0,0.0,0.997274055788,0.0737865682302
1565340132053364564,27782,1565340131993247159,map,2.47665977478,-0.784202575684,0.0,0.0,0.0,0.995938331796,0.0900379878709
1565340132118913262,27783,1565340132059942940,map,2.46905040741,-0.786285400391,0.0,0.0,0.0,0.994295774332,0.106657925846
1565340132185330345,27784,1565340132126341013,map,2.4621553421,-0.787088394165,0.0,0.0,0.0,0.992416091578,0.122923965024
1565340132252157324,27785,1565340132193073982,map,2.45324230194,-0.788290023804,0.0,0.0,0.0,0.990096705604,0.140387013471
1565340132319390137,27786,1565340132259870961,map,2.44410514832,-0.788988113403,0.0,0.0,0.0,0.987567275792,0.157196933127
1565340132386319043,27787,1565340132326292315,map,2.43551921844,-0.789759635925,0.0,0.0,0.0,0.984754354351,0.173950744713
1565340132452906335,27788,1565340132392971430,map,2.42907047272,-0.788834571838,0.0,0.0,0.0,0.981840618625,0.189707668842
1565340132520763366,27789,1565340132459860232,map,2.42247104645,-0.788954734802,0.0,0.0,0.0,0.97881781336,0.204733212377
1565340132585976699,27790,1565340132526513253,map,2.41429710388,-0.788423538208,0.0,0.0,0.0,0.975744610064,0.218911982154
1565340132652195918,27791,1565340132593043357,map,2.40804767609,-0.787671089172,0.0,0.0,0.0,0.972592374062,0.232516825019
1565340132718816595,27792,1565340132659794763,map,2.40122509003,-0.786915779114,0.0,0.0,0.0,0.969386975309,0.245537964684
1565340132785329043,27793,1565340132726335648,map,2.39460754395,-0.786406517029,0.0,0.0,0.0,0.966190069934,0.257830853004
1565340132854832376,27794,1565340132794731482,map,2.3896818161,-0.786597251892,0.0,0.0,0.0,0.963054971462,0.269304886593
1565340132918978366,27795,1565340132859866273,map,2.38098144531,-0.786076545715,0.0,0.0,0.0,0.959683758791,0.281081986461
1565340132985689460,27796,1565340132926774659,map,2.37552642822,-0.784810066223,0.0,0.0,0.0,0.956526373597,0.291645841071
1565340133052278991,27797,1565340132993011742,map,2.36741638184,-0.784161567688,0.0,0.0,0.0,0.953272483153,0.302111854887
1565340133118733210,27798,1565340133059776221,map,2.3610200882,-0.783210754395,0.0,0.0,0.0,0.950102250132,0.311938638668
1565340133185269616,27799,1565340133126431846,map,2.35541343689,-0.779962539673,0.0,0.0,0.0,0.947206741334,0.320623438276
1565340133253987949,27800,1565340133194056325,map,2.34949302673,-0.779068946838,0.0,0.0,0.0,0.944086950325,0.329696572968
1565340133319853470,27801,1565340133260488252,map,2.3423948288,-0.777229309082,0.0,0.0,0.0,0.94085472813,0.338810242696
1565340133385675293,27802,1565340133326781794,map,2.33518791199,-0.774900436401,0.0,0.0,0.0,0.937663609314,0.347544178154
1565340133453448782,27803,1565340133393117315,map,2.32911205292,-0.773463249207,0.0,0.0,0.0,0.934626315328,0.355631340992
1565340133520146803,27804,1565340133459825804,map,2.32185077667,-0.770872116089,0.0,0.0,0.0,0.931389450468,0.364024300778
1565340133586409147,27805,1565340133527087679,map,2.3143081665,-0.769501686096,0.0,0.0,0.0,0.928180527476,0.372130230449
1565340133653543834,27806,1565340133593410544,map,2.30753421783,-0.768335342407,0.0,0.0,0.0,0.924904051093,0.380200600041
1565340133720220241,27807,1565340133659952627,map,2.30024242401,-0.764459609985,0.0,0.0,0.0,0.921918330742,0.387384294263
1565340133785478001,27808,1565340133726477002,map,2.29447174072,-0.760667800903,0.0,0.0,0.0,0.919060334682,0.394116862382
1565340133852052011,27809,1565340133793005127,map,2.2872095108,-0.759016036987,0.0,0.0,0.0,0.915937780828,0.401320298082
1565340133920545605,27810,1565340133859756950,map,2.28018188477,-0.755524635315,0.0,0.0,0.0,0.912988035755,0.407986331349
1565340133985952220,27811,1565340133926717158,map,2.27355289459,-0.752416610718,0.0,0.0,0.0,0.910299682245,0.413949862308
1565340134052289563,27812,1565340133993167940,map,2.26701164246,-0.749064445496,0.0,0.0,0.0,0.907380168289,0.420310873278
1565340134119604928,27813,1565340134059764919,map,2.2592830658,-0.74538230896,0.0,0.0,0.0,0.904482161032,0.426511453979
1565340134185417272,27814,1565340134126327992,map,2.25330066681,-0.74160194397,0.0,0.0,0.0,0.901604083116,0.432562223626
1565340134252177584,27815,1565340134192970544,map,2.24752521515,-0.737908363342,0.0,0.0,0.0,0.898743869023,0.438474010511
1565340134320559042,27816,1565340134260004971,map,2.24119091034,-0.73281288147,0.0,0.0,0.0,0.896117320795,0.443817245463
1565340134386455345,27817,1565340134326431117,map,2.23616790771,-0.726967811584,0.0,0.0,0.0,0.893648359105,0.448767880166
1565340134453476282,27818,1565340134393144450,map,2.22936058044,-0.723320007324,0.0,0.0,0.0,0.890918711906,0.45416279986
1565340134522610969,27819,1565340134459925856,map,2.22308921814,-0.720028877258,0.0,0.0,0.0,0.888447098914,0.45897903267
1565340134585968990,27820,1565340134526678148,map,2.2165145874,-0.714821815491,0.0,0.0,0.0,0.885719789455,0.464220265142
1565340134652960292,27821,1565340134593622991,map,2.20899486542,-0.710859298706,0.0,0.0,0.0,0.882850058962,0.469654951417
1565340134720955084,27822,1565340134661316325,map,2.20190238953,-0.705290794373,0.0,0.0,0.0,0.880463915679,0.474113164958
1565340134786512636,27823,1565340134727105960,map,2.1952085495,-0.699613571167,0.0,0.0,0.0,0.878146293355,0.478392190014
1565340134852391490,27824,1565340134793050283,map,2.18864536285,-0.69407081604,0.0,0.0,0.0,0.875515020778,0.483190902638
1565340134921052636,27825,1565340134859781220,map,2.18065452576,-0.689138412476,0.0,0.0,0.0,0.872913713005,0.487874624928
1565340134986413938,27826,1565340134926811689,map,2.17446613312,-0.683038711548,0.0,0.0,0.0,0.870559188246,0.492063715142
1565340135053026073,27827,1565340134993306793,map,2.16717624664,-0.676956176758,0.0,0.0,0.0,0.867978561473,0.496601668164
1565340135120027011,27828,1565340135059788095,map,2.16112327576,-0.669254302979,0.0,0.0,0.0,0.865744424672,0.500486354608
1565340135186014459,27829,1565340135126301533,map,2.15599536896,-0.661455154419,0.0,0.0,0.0,0.863580550357,0.504210901354
1565340135252648365,27830,1565340135193086481,map,2.1507806778,-0.652501106262,0.0,0.0,0.0,0.861706029608,0.507407842407
1565340135321789407,27831,1565340135259951116,map,2.14444828033,-0.645824432373,0.0,0.0,0.0,0.859983425516,0.510321964878
1565340135386729511,27832,1565340135326848356,map,2.13878440857,-0.638731002808,0.0,0.0,0.0,0.858305780474,0.513138565307
1565340135453966021,27833,1565340135393284814,map,2.1330575943,-0.630722045898,0.0,0.0,0.0,0.856985822962,0.515339984129
1565340135521026646,27834,1565340135459736376,map,2.12647724152,-0.624258995056,0.0,0.0,0.0,0.855376168478,0.518007345894
1565340135588909771,27835,1565340135526376481,map,2.11977863312,-0.615907669067,0.0,0.0,0.0,0.854694931391,0.519130594604
1565340135653183782,27836,1565340135593108251,map,2.11368656158,-0.609563827515,0.0,0.0,0.0,0.853925877113,0.520394654466
1565340135719724927,27837,1565340135659876845,map,2.10669994354,-0.600503921509,0.0,0.0,0.0,0.853740025239,0.520699500004
1565340135786689094,27838,1565340135726989710,map,2.09988498688,-0.592866897583,0.0,0.0,0.0,0.853393784112,0.521266773581
1565340135853893365,27839,1565340135793808512,map,2.09341907501,-0.584052085876,0.0,0.0,0.0,0.853331576054,0.521368604069
1565340135921336542,27840,1565340135860425543,map,2.08727836609,-0.575342178345,0.0,0.0,0.0,0.853034102225,0.521855171902
1565340135986515969,27841,1565340135927045543,map,2.0806760788,-0.565791130066,0.0,0.0,0.0,0.852117744673,0.52335012106
1565340136053216750,27842,1565340135993688095,map,2.07518100739,-0.55686378479,0.0,0.0,0.0,0.851826197322,0.523824521721
1565340136121472167,27843,1565340136060284241,map,2.06819725037,-0.549844741821,0.0,0.0,0.0,0.851419550584,0.52448522275
1565340136187699354,27844,1565340136127082314,map,2.06349277496,-0.541222572327,0.0,0.0,0.0,0.851724583694,0.523989726552
1565340136252790604,27845,1565340136193097210,map,2.05693912506,-0.533279418945,0.0,0.0,0.0,0.852935173028,0.522016848973
1565340136323203260,27846,1565340136261462835,map,2.05043125153,-0.524087905884,0.0,0.0,0.0,0.854349175158,0.519699419768
1565340136386976646,27847,1565340136326338512,map,2.04348468781,-0.514972686768,0.0,0.0,0.0,0.856497843228,0.516150602582
1565340136454364667,27848,1565340136393083147,map,2.03726482391,-0.504739761353,0.0,0.0,0.0,0.859011734506,0.51195589652
1565340136521927740,27849,1565340136459970022,map,2.02958011627,-0.49608039856,0.0,0.0,0.0,0.860989966936,0.508621939003
1565340136586215969,27850,1565340136526267053,map,2.02263450623,-0.486701011658,0.0,0.0,0.0,0.862725498025,0.505672537378
1565340136653336281,27851,1565340136593273668,map,2.0153427124,-0.477624893188,0.0,0.0,0.0,0.864510189042,0.502615293284
1565340136720403156,27852,1565340136659677626,map,2.00886058807,-0.466490745544,0.0,0.0,0.0,0.866311140661,0.499504762306
1565340136786818573,27853,1565340136726468459,map,2.00102329254,-0.458292007446,0.0,0.0,0.0,0.867374796646,0.497655465301
1565340136853648469,27854,1565340136793206480,map,1.99363708496,-0.449594497681,0.0,0.0,0.0,0.868429599269,0.495812495924
1565340136920840187,27855,1565340136859690074,map,1.98649406433,-0.439826965332,0.0,0.0,0.0,0.869488258794,0.493953608975
1565340136987871854,27856,1565340136926711220,map,1.979347229,-0.430249214172,0.0,0.0,0.0,0.869958111205,0.493125627756
1565340137053852010,27857,1565340136993465543,map,1.97235679626,-0.422220230103,0.0,0.0,0.0,0.870370889215,0.492396705114
1565340137121118000,27858,1565340137059667001,map,1.96571350098,-0.412412643433,0.0,0.0,0.0,0.870964984985,0.491345087419
1565340137185673468,27859,1565340137126169345,map,1.95928287506,-0.402930259705,0.0,0.0,0.0,0.871514964839,0.490368908132
1565340137253291645,27860,1565340137193192782,map,1.95225334167,-0.392693519592,0.0,0.0,0.0,0.872037829679,0.489438477859
1565340137321838000,27861,1565340137259670334,map,1.94347667694,-0.383406639099,0.0,0.0,0.0,0.871863729583,0.489748544703
1565340137387822114,27862,1565340137326538980,map,1.93569469452,-0.373440742493,0.0,0.0,0.0,0.872147614175,0.489242822214
1565340137455552218,27863,1565340137393827001,map,1.92827415466,-0.362308502197,0.0,0.0,0.0,0.872503673738,0.488607551429
1565340137521385968,27864,1565340137460530594,map,1.92016410828,-0.352004051208,0.0,0.0,0.0,0.87288306139,0.487929463281
1565340137586836802,27865,1565340137526861740,map,1.91358280182,-0.343223571777,0.0,0.0,0.0,0.873579460528,0.486681544898
1565340137653244927,27866,1565340137593267157,map,1.90625,-0.33339881897,0.0,0.0,0.0,0.875453784051,0.483301843562
1565340137721137947,27867,1565340137660073146,map,1.8979845047,-0.324598312378,0.0,0.0,0.0,0.877179694997,0.48016224621
1565340137786485499,27868,1565340137726348719,map,1.88945102692,-0.314918518066,0.0,0.0,0.0,0.878415615085,0.477897486051
1565340137854670447,27869,1565340137794539709,map,1.88150119781,-0.304876327515,0.0,0.0,0.0,0.879545026647,0.475815663992
1565340137922032531,27870,1565340137859723615,map,1.87302207947,-0.293822288513,0.0,0.0,0.0,0.880656684625,0.473755004011
1565340137988232426,27871,1565340137927567521,map,1.86527347565,-0.282850265503,0.0,0.0,0.0,0.881774479371,0.47167124942
1565340138052745135,27872,1565340137993002209,map,1.85708427429,-0.271984100342,0.0,0.0,0.0,0.883087499848,0.46920834137
1565340138119658624,27873,1565340138059772469,map,1.84849643707,-0.262555122375,0.0,0.0,0.0,0.88415282509,0.46719779739
1565340138185851749,27874,1565340138126264448,map,1.83965015411,-0.250970840454,0.0,0.0,0.0,0.885158722383,0.465289196296
1565340138253018416,27875,1565340138193169865,map,1.83050060272,-0.242622375488,0.0,0.0,0.0,0.885655808735,0.464342318181
1565340138319430603,27876,1565340138259808146,map,1.82218170166,-0.232056617737,0.0,0.0,0.0,0.886146910448,0.463404416361
1565340138389077530,27877,1565340138326260230,map,1.81232452393,-0.222336769104,0.0,0.0,0.0,0.886587837743,0.462560272793
1565340138454866176,27878,1565340138392980542,map,1.80350971222,-0.213302612305,0.0,0.0,0.0,0.886977703401,0.461812249372
1565340138520384249,27879,1565340138459808459,map,1.79396057129,-0.202535629272,0.0,0.0,0.0,0.887614363827,0.46058738707
1565340138587397582,27880,1565340138526379188,map,1.78433227539,-0.19281578064,0.0,0.0,0.0,0.888295436387,0.459272487413
1565340138653606749,27881,1565340138593196948,map,1.77521324158,-0.182909011841,0.0,0.0,0.0,0.888678264574,0.458531287998
1565340138721645187,27882,1565340138660055907,map,1.76493644714,-0.172525405884,0.0,0.0,0.0,0.88884290141,0.458212065111
1565340138786540499,27883,1565340138726596844,map,1.75530719757,-0.161902427673,0.0,0.0,0.0,0.889330182274,0.457265597763
1565340138853901541,27884,1565340138793589344,map,1.74471378326,-0.151328086853,0.0,0.0,0.0,0.889707417495,0.456531172271
1565340138921221489,27885,1565340138860586688,map,1.73616504669,-0.141199111938,0.0,0.0,0.0,0.890288039881,0.455397854678
1565340138987893520,27886,1565340138927590802,map,1.72559070587,-0.131128311157,0.0,0.0,0.0,0.890949407491,0.454102580141
1565340139053693624,27887,1565340138993038927,map,1.71608257294,-0.121327400208,0.0,0.0,0.0,0.891299762913,0.453414526268
1565340139120235395,27888,1565340139059791219,map,1.70591831207,-0.111276626587,0.0,0.0,0.0,0.891839426016,0.452352117496
1565340139187461384,27889,1565340139126321844,map,1.6950378418,-0.10085105896,0.0,0.0,0.0,0.892281558108,0.451479369474
1565340139254880863,27890,1565340139193178406,map,1.68465518951,-0.0908260345459,0.0,0.0,0.0,0.892604951725,0.45083966125
1565340139320229197,27891,1565340139259829552,map,1.67415618896,-0.080228805542,0.0,0.0,0.0,0.893061427029,0.449934759218
1565340139386230499,27892,1565340139326342052,map,1.66321849823,-0.0697116851807,0.0,0.0,0.0,0.893515111461,0.449033123045
1565340139453576645,27893,1565340139393311948,map,1.65263462067,-0.0600109100342,0.0,0.0,0.0,0.893904572343,0.448257309528
1565340139521216384,27894,1565340139460571740,map,1.6416425705,-0.0499124526978,0.0,0.0,0.0,0.894423054414,0.447221868575
1565340139586221020,27895,1565340139526380646,map,1.63003826141,-0.0394821166992,0.0,0.0,0.0,0.895030900367,0.446004133824
1565340139652983259,27896,1565340139593065073,map,1.61979961395,-0.0305624008179,0.0,0.0,0.0,0.895346174343,0.445370888236
1565340139721523051,27897,1565340139661076635,map,1.6098279953,-0.0203876495361,0.0,0.0,0.0,0.895656970975,0.444745534373
1565340139786170030,27898,1565340139726366896,map,1.59794139862,-0.00998878479004,0.0,0.0,0.0,0.895930426307,0.444194407007
1565340139856399665,27899,1565340139793872833,map,1.58804798126,7.62939453125e-06,0.0,0.0,0.0,0.896306170985,0.443435731368
1565340139920324561,27900,1565340139859877052,map,1.57618904114,0.00995063781738,0.0,0.0,0.0,0.896778086875,0.442480579123
1565340139987404301,27901,1565340139927056583,map,1.56593513489,0.0199308395386,0.0,0.0,0.0,0.89705694438,0.441914967544
1565340140053572894,27902,1565340139993213198,map,1.5549621582,0.0309734344482,0.0,0.0,0.0,0.898041305924,0.439911141999
1565340140120693311,27903,1565340140060014448,map,1.5441865921,0.0404386520386,0.0,0.0,0.0,0.898999943956,0.437948742169
1565340140187654926,27904,1565340140127263875,map,1.53287982941,0.0508251190186,0.0,0.0,0.0,0.900645340653,0.434554910638
1565340140253808988,27905,1565340140193836114,map,1.52231884003,0.0602540969849,0.0,0.0,0.0,0.902212177184,0.431292461494
1565340140321544561,27906,1565340140260808562,map,1.51028633118,0.0701694488525,0.0,0.0,0.0,0.904469754682,0.426537762532
1565340140388035655,27907,1565340140327024656,map,1.4987821579,0.0792646408081,0.0,0.0,0.0,0.906719218223,0.421734821073
1565340140454343415,27908,1565340140393385802,map,1.48784160614,0.0895290374756,0.0,0.0,0.0,0.909195391063,0.416369716562
1565340140523575551,27909,1565340140460701010,map,1.47498512268,0.0989990234375,0.0,0.0,0.0,0.911828153106,0.41057206335
1565340140586395811,27910,1565340140526562625,map,1.46248149872,0.109001159668,0.0,0.0,0.0,0.914928901328,0.403615046195
1565340140653813155,27911,1565340140593342416,map,1.44946575165,0.118039131165,0.0,0.0,0.0,0.917802718813,0.397036735503
1565340140722054405,27912,1565340140660613927,map,1.43592643738,0.126886367798,0.0,0.0,0.0,0.92069969154,0.390271800157
1565340140787540186,27913,1565340140726935958,map,1.422955513,0.1360912323,0.0,0.0,0.0,0.924045546929,0.382282391958
1565340140853423571,27914,1565340140793432052,map,1.41030406952,0.14476776123,0.0,0.0,0.0,0.927179505416,0.374617357761
1565340140921489925,27915,1565340140860279760,map,1.39595794678,0.153637886047,0.0,0.0,0.0,0.930419193068,0.366497101176
1565340140987935967,27916,1565340140927860385,map,1.3829498291,0.161542892456,0.0,0.0,0.0,0.93373796654,0.357957273766
1565340141054601332,27917,1565340140993989083,map,1.36929130554,0.16962146759,0.0,0.0,0.0,0.93739755854,0.348261133695
1565340141121629769,27918,1565340141060112051,map,1.35494995117,0.177670478821,0.0,0.0,0.0,0.941060701095,0.338237722401
1565340141188399613,27919,1565340141127501062,map,1.34072685242,0.186445236206,0.0,0.0,0.0,0.944365035359,0.328899194269
1565340141253887634,27920,1565340141193354395,map,1.32603168488,0.193629264832,0.0,0.0,0.0,0.947611511492,0.319425145047
1565340141321380863,27921,1565340141260130020,map,1.31253242493,0.200938224792,0.0,0.0,0.0,0.950279733512,0.311397540253
1565340141387607581,27922,1565340141327265281,map,1.29782581329,0.20746421814,0.0,0.0,0.0,0.952843493728,0.303462149964
1565340141454234248,27923,1565340141393465801,map,1.28516578674,0.213373184204,0.0,0.0,0.0,0.955371949381,0.295405548926
1565340141520115654,27924,1565340141460074343,map,1.27232646942,0.219472885132,0.0,0.0,0.0,0.957738108882,0.287641643013
1565340141586904040,27925,1565340141526757312,map,1.25960063934,0.224533081055,0.0,0.0,0.0,0.959801721372,0.280678919144
1565340141656470133,27926,1565340141593967885,map,1.24783802032,0.229245185852,0.0,0.0,0.0,0.96217925675,0.272417102766
