%time,field.linear.x,field.linear.y,field.linear.z,field.angular.x,field.angular.y,field.angular.z
1565339540002179321,-0.0,-0.0,0.0,0.0,0.0,0.0
1565339540052390936,-0.0,-0.0,0.0,0.0,0.0,0.0
1565339540102762498,-0.0,-0.0,0.0,0.0,0.0,0.0
1565339540153278540,-0.0,-0.0,0.0,0.0,0.0,0.0
1565339540203100207,-0.0,-0.0,0.0,0.0,0.0,0.0
1565339540326548175,-0.0,-0.240346118808,0.0,0.0,0.0,0.0
1565339540438507915,-0.0,-0.240346118808,0.0,0.0,0.0,0.0
1565339540552804790,-0.0,-0.240346118808,0.0,0.0,0.0,0.0
1565339540604278852,-0.0,-0.240346118808,0.0,0.0,0.0,0.0
1565339540734411092,-0.0,-0.305462986231,0.0,0.0,0.0,0.0
1565339540839152394,-0.0,-0.316321134567,0.0,0.0,0.0,0.0
1565339540942773071,-0.0,-0.327179312706,0.0,0.0,0.0,0.0
1565339541058651977,-0.0,-0.978315770626,0.0,0.0,0.0,0.0
1565339541162204165,-0.0,-1.0,0.0,0.0,0.0,0.0
1565339541212175310,-0.0,-1.0,0.0,0.0,0.0,0.0
1565339541262958956,-0.0,-1.0,0.0,0.0,0.0,0.0
1565339541313633592,-0.0,-1.0,0.0,0.0,0.0,0.0
1565339541363191873,-0.0,-1.0,0.0,0.0,0.0,0.0
1565339541413400779,-0.0,-1.0,0.0,0.0,0.0,0.0
1565339541463758019,-0.0,-1.0,0.0,0.0,0.0,0.0
1565339541514592185,-0.0,-1.0,0.0,0.0,0.0,0.0
1565339541570676716,-0.0,-1.0,0.0,0.0,0.0,0.0
1565339541634655623,-0.0,-1.0,0.0,0.0,0.0,0.0
1565339541665542341,-0.0,-1.0,0.0,0.0,0.0,0.0
1565339541715193279,-0.0,-1.0,0.0,0.0,0.0,0.0
1565339541764714268,-0.0,-1.0,0.0,0.0,0.0,0.0
1565339541823251143,-0.0,-1.0,0.0,0.0,0.0,0.0
1565339541865669373,-0.0,-1.0,0.0,0.0,0.0,0.0
1565339541915664581,-0.0,-1.0,0.0,0.0,0.0,0.0
1565339541965533539,-0.0,-1.0,0.0,0.0,0.0,0.0
1565339542015782237,-0.0,-1.0,0.0,0.0,0.0,0.0
1565339542065571820,-0.0,-1.0,0.0,0.0,0.0,0.0
1565339542117952758,-0.0,-1.0,0.0,0.0,0.0,0.0
1565339542166392862,-0.0,-1.0,0.0,0.0,0.0,0.0
1565339542216608331,-0.0,-1.0,0.0,0.0,0.0,0.0
1565339542325699633,-0.0,-0.0,0.0,0.0,0.0,0.0
1565339542373311768,-0.0,-0.0,0.0,0.0,0.0,0.0
1565339542425286143,-0.0,-0.0,0.0,0.0,0.0,0.0
1565339542473530883,-0.0,-0.0,0.0,0.0,0.0,0.0
1565339542538312862,-0.0,-0.0,0.0,0.0,0.0,0.0
1565339542574212602,-0.0,-0.0,0.0,0.0,0.0,0.0
1565339542624204529,-0.0,-0.0,0.0,0.0,0.0,0.0
1565339542674931039,-0.0,-0.0,0.0,0.0,0.0,0.0
1565339542724439529,-0.0,-0.0,0.0,0.0,0.0,0.0
1565339542774680622,-0.0,-0.0,0.0,0.0,0.0,0.0
1565339542824912810,-0.0,-0.0,0.0,0.0,0.0,0.0
1565339542874555466,-0.0,-0.0,0.0,0.0,0.0,0.0
1565339542925329268,-0.0,-0.0,0.0,0.0,0.0,0.0
1565339542975605362,-0.0,-0.0,0.0,0.0,0.0,0.0
1565339543026653278,-0.0,-0.0,0.0,0.0,0.0,0.0
1565339543075999216,-0.0,-0.0,0.0,0.0,0.0,0.0
1565339543125818122,-0.0,-0.0,0.0,0.0,0.0,0.0
1565339543175659841,-0.0,-0.0,0.0,0.0,0.0,0.0
1565339543225650310,-0.0,-0.0,0.0,0.0,0.0,0.0
1565339543276127862,-0.0,-0.0,0.0,0.0,0.0,0.0
1565339543325900257,-0.0,-0.0,0.0,0.0,0.0,0.0
1565339543376870778,-0.0,-0.0,0.0,0.0,0.0,0.0
1565339543427172237,-0.0,-0.0,0.0,0.0,0.0,0.0
1565339543477251872,-0.0,-0.0,0.0,0.0,0.0,0.0
1565339543527204007,-0.0,-0.0,0.0,0.0,0.0,0.0
1565339543584499112,-0.0,-0.0,0.0,0.0,0.0,0.0
1565339543627826768,-0.0,-0.0,0.0,0.0,0.0,0.0
1565339543677759580,-0.0,-0.0,0.0,0.0,0.0,0.0
1565339543727715882,-0.0,-0.0,0.0,0.0,0.0,0.0
1565339543778012341,-0.0,-0.0,0.0,0.0,0.0,0.0
1565339543829713955,-0.0,-0.0,0.0,0.0,0.0,0.0
1565339543939550257,-0.0,0.891514718533,0.0,0.0,0.0,0.0
1565339544043755049,-0.0,-0.0,0.0,0.0,0.0,0.0
1565339544093076507,-0.0,-0.0,0.0,0.0,0.0,0.0
1565339544143571663,-0.0,-0.0,0.0,0.0,0.0,0.0
1565339544262558382,-0.0,-0.0,0.0,0.0,0.0,0.0
1565339544390817392,-0.0,1.0,0.0,0.0,0.0,0.0
1565339544511240622,-0.0,-0.0,0.0,0.0,0.0,0.0
1565339544654535205,-0.0,0.858972370625,0.0,0.0,0.0,0.0
1565339544759725778,-0.0,-0.0,0.0,0.0,0.0,0.0
1565339544809021871,-0.0,-0.0,0.0,0.0,0.0,0.0
1565339544922892549,-0.0,1.0,0.0,0.0,0.0,0.0
1565339545027328538,-0.0,-0.0,0.0,0.0,0.0,0.0
1565339545150767080,-0.0,1.0,0.0,0.0,0.0,0.0
1565339545271300205,-0.0,-0.0,0.0,0.0,0.0,0.0
1565339545320602861,-0.0,-0.0,0.0,0.0,0.0,0.0
1565339545371055569,-0.0,-0.0,0.0,0.0,0.0,0.0
1565339545421166455,-0.0,-0.0,0.0,0.0,0.0,0.0
1565339545471324007,-0.0,-0.0,0.0,0.0,0.0,0.0
1565339545522570777,-0.0,-0.0,0.0,0.0,0.0,0.0
1565339545575436923,-0.0,-0.0,0.0,0.0,0.0,0.0
1565339545633336767,-0.0,-0.0,0.0,0.0,0.0,0.0
1565339545672505934,-0.0,-0.0,0.0,0.0,0.0,0.0
1565339545722508486,-0.0,-0.0,0.0,0.0,0.0,0.0
1565339545772691402,-0.0,-0.0,0.0,0.0,0.0,0.0
1565339545824817340,-0.0,-0.0,0.0,0.0,0.0,0.0
1565339545884914215,-0.0,-0.0,0.0,0.0,0.0,0.0
1565339545926368434,-0.0,-0.0,0.0,0.0,0.0,0.0
1565339545976366142,-0.0,-0.0,0.0,0.0,0.0,0.0
1565339546023988954,-0.0,-0.0,0.0,0.0,0.0,0.0
1565339546073595725,-0.0,-0.0,0.0,0.0,0.0,0.0
1565339546123842444,-0.0,-0.0,0.0,0.0,0.0,0.0
1565339546239964163,-0.0,-0.0,0.0,0.0,0.0,-0.0930597707629
1565339546342935725,-0.0,-0.0,0.0,0.0,0.0,-0.353527218103
1565339546446858173,-0.0,-0.0,0.0,0.0,0.0,-0.39692774415
1565339546569561350,-0.0,-0.0,0.0,0.0,0.0,-0.391498655081
1565339546638230152,-0.0,-0.0,0.0,0.0,0.0,-0.391498655081
1565339546730739944,-0.0,-0.0,0.0,0.0,0.0,0.0
1565339546780688798,-0.0,-0.0,0.0,0.0,0.0,0.0
1565339546830708277,-0.0,-0.0,0.0,0.0,0.0,0.0
1565339546881034631,-0.0,-0.0,0.0,0.0,0.0,0.0
1565339546931166923,-0.0,-0.0,0.0,0.0,0.0,0.0
1565339546982643121,-0.0,-0.0,0.0,0.0,0.0,0.0
1565339547033375933,-0.0,-0.0,0.0,0.0,0.0,0.0
1565339547081847235,-0.0,-0.0,0.0,0.0,0.0,0.0
1565339547131756766,-0.0,-0.0,0.0,0.0,0.0,0.0
1565339547182257860,-0.0,-0.0,0.0,0.0,0.0,0.0
1565339547232382912,-0.0,-0.0,0.0,0.0,0.0,0.0
1565339547282407808,-0.0,-0.0,0.0,0.0,0.0,0.0
1565339547403230412,-0.0,0.555104374886,0.0,0.0,0.0,0.0
1565339547506700048,-0.0,0.652763605118,0.0,0.0,0.0,0.0
1565339547574666037,-0.0,0.652763605118,0.0,0.0,0.0,0.0
1565339547702814266,-0.0,0.598504900932,0.0,0.0,0.0,0.0
1565339547752998797,-0.0,0.598504900932,0.0,0.0,0.0,0.0
1565339547803323433,-0.0,0.598504900932,0.0,0.0,0.0,0.0
1565339547926708224,-0.0,0.598504900932,0.0,0.0,0.0,0.0
1565339547977052391,-0.0,0.598504900932,0.0,0.0,0.0,0.0
1565339548026992443,-0.0,0.598504900932,0.0,0.0,0.0,0.0
1565339548077060829,-0.0,0.598504900932,0.0,0.0,0.0,0.0
1565339548127049995,-0.0,0.598504900932,0.0,0.0,0.0,0.0
1565339548177886141,-0.0,0.598504900932,0.0,0.0,0.0,0.0
1565339548229902651,-0.0,0.598504900932,0.0,0.0,0.0,0.0
1565339548279395516,-0.0,0.598504900932,0.0,0.0,0.0,0.0
1565339548330082651,-0.0,0.598504900932,0.0,0.0,0.0,0.0
1565339548379183224,-0.0,0.598504900932,0.0,0.0,0.0,0.0
1565339548428611610,-0.0,0.598504900932,0.0,0.0,0.0,0.0
1565339548478760933,-0.0,0.598504900932,0.0,0.0,0.0,0.0
1565339548528833797,-0.0,0.598504900932,0.0,0.0,0.0,0.0
1565339548579425464,-0.0,0.598504900932,0.0,0.0,0.0,0.0
1565339548629379787,-0.0,0.598504900932,0.0,0.0,0.0,0.0
1565339548679623537,-0.0,0.598504900932,0.0,0.0,0.0,0.0
1565339548729501766,-0.0,0.598504900932,0.0,0.0,0.0,0.0
1565339548780102495,-0.0,0.598504900932,0.0,0.0,0.0,0.0
1565339548829909787,-0.0,0.598504900932,0.0,0.0,0.0,0.0
1565339548880866453,-0.0,0.598504900932,0.0,0.0,0.0,0.0
1565339548931017912,-0.0,0.598504900932,0.0,0.0,0.0,0.0
1565339548984233693,-0.0,0.598504900932,0.0,0.0,0.0,0.0
1565339549031650151,-0.0,0.598504900932,0.0,0.0,0.0,0.0
1565339549081671662,-0.0,0.598504900932,0.0,0.0,0.0,0.0
1565339549131834630,-0.0,0.598504900932,0.0,0.0,0.0,0.0
1565339549184922078,-0.0,0.598504900932,0.0,0.0,0.0,0.0
1565339549231806922,-0.0,0.598504900932,0.0,0.0,0.0,0.0
1565339549282046141,-0.0,0.598504900932,0.0,0.0,0.0,0.0
1565339549332667130,-0.0,0.598504900932,0.0,0.0,0.0,0.0
1565339549382438068,-0.0,0.598504900932,0.0,0.0,0.0,0.0
1565339549432693797,-0.0,0.598504900932,0.0,0.0,0.0,0.0
1565339549482721974,-0.0,0.598504900932,0.0,0.0,0.0,0.0
1565339549533228641,-0.0,0.598504900932,0.0,0.0,0.0,0.0
1565339549584041245,-0.0,0.598504900932,0.0,0.0,0.0,0.0
1565339549633902443,-0.0,0.598504900932,0.0,0.0,0.0,0.0
1565339549683463276,-0.0,0.598504900932,0.0,0.0,0.0,0.0
1565339549733973432,-0.0,0.598504900932,0.0,0.0,0.0,0.0
1565339549784664057,-0.0,0.598504900932,0.0,0.0,0.0,0.0
1565339549837362078,-0.0,0.598504900932,0.0,0.0,0.0,0.0
1565339549883677078,-0.0,0.598504900932,0.0,0.0,0.0,0.0
1565339549934441974,-0.0,0.598504900932,0.0,0.0,0.0,0.0
1565339549985054890,-0.0,0.598504900932,0.0,0.0,0.0,0.0
1565339550034748172,-0.0,0.598504900932,0.0,0.0,0.0,0.0
1565339550084878328,-0.0,0.598504900932,0.0,0.0,0.0,0.0
1565339550134580047,-0.0,0.598504900932,0.0,0.0,0.0,0.0
1565339550185847651,-0.0,0.598504900932,0.0,0.0,0.0,0.0
1565339550235512286,-0.0,0.598504900932,0.0,0.0,0.0,0.0
1565339550285543380,-0.0,0.598504900932,0.0,0.0,0.0,0.0
1565339550335643067,-0.0,0.598504900932,0.0,0.0,0.0,0.0
1565339550386656557,-0.0,0.598504900932,0.0,0.0,0.0,0.0
1565339550436367026,-0.0,0.598504900932,0.0,0.0,0.0,0.0
1565339550486982130,-0.0,0.598504900932,0.0,0.0,0.0,0.0
1565339550536960255,-0.0,0.598504900932,0.0,0.0,0.0,0.0
1565339550587542807,-0.0,0.598504900932,0.0,0.0,0.0,0.0
1565339550637743223,-0.0,0.598504900932,0.0,0.0,0.0,0.0
1565339550687790619,-0.0,0.598504900932,0.0,0.0,0.0,0.0
1565339550738063067,-0.0,0.598504900932,0.0,0.0,0.0,0.0
1565339550787675671,-0.0,0.598504900932,0.0,0.0,0.0,0.0
1565339550838767078,-0.0,0.598504900932,0.0,0.0,0.0,0.0
1565339550888418588,-0.0,0.598504900932,0.0,0.0,0.0,0.0
1565339550939858952,-0.0,0.598504900932,0.0,0.0,0.0,0.0
1565339550990647286,-0.0,0.598504900932,0.0,0.0,0.0,0.0
1565339551038683848,-0.0,0.598504900932,0.0,0.0,0.0,0.0
1565339551089593015,-0.0,0.598504900932,0.0,0.0,0.0,0.0
1565339551139066869,-0.0,0.598504900932,0.0,0.0,0.0,0.0
1565339551188912859,-0.0,0.598504900932,0.0,0.0,0.0,0.0
1565339551239425879,-0.0,0.598504900932,0.0,0.0,0.0,0.0
1565339551289028900,-0.0,0.598504900932,0.0,0.0,0.0,0.0
1565339551339635723,-0.0,0.598504900932,0.0,0.0,0.0,0.0
1565339551389650359,-0.0,0.598504900932,0.0,0.0,0.0,0.0
1565339551440369577,-0.0,0.598504900932,0.0,0.0,0.0,0.0
1565339551579348223,-0.0,0.598504900932,0.0,0.0,0.0,0.0
1565339551646459317,-0.0,0.598504900932,0.0,0.0,0.0,0.0
1565339551747276088,-0.0,0.598504900932,0.0,0.0,0.0,0.0
1565339551797388640,-0.0,0.598504900932,0.0,0.0,0.0,0.0
1565339551850728744,-0.0,0.598504900932,0.0,0.0,0.0,0.0
1565339551902881869,-0.0,0.598504900932,0.0,0.0,0.0,0.0
1565339551948689213,-0.0,0.598504900932,0.0,0.0,0.0,0.0
1565339552082850410,-0.0,0.598504900932,0.0,0.0,0.0,0.0
1565339552134555983,-0.0,0.598504900932,0.0,0.0,0.0,0.0
1565339552183597285,-0.0,0.598504900932,0.0,0.0,0.0,0.0
1565339552233541973,-0.0,0.598504900932,0.0,0.0,0.0,0.0
1565339552283880619,-0.0,0.598504900932,0.0,0.0,0.0,0.0
1565339552333883900,-0.0,0.598504900932,0.0,0.0,0.0,0.0
1565339552383548744,-0.0,0.598504900932,0.0,0.0,0.0,0.0
1565339552434547077,-0.0,0.598504900932,0.0,0.0,0.0,0.0
1565339552484237650,-0.0,0.598504900932,0.0,0.0,0.0,0.0
1565339552543877129,-0.0,0.598504900932,0.0,0.0,0.0,0.0
1565339552584613848,-0.0,0.598504900932,0.0,0.0,0.0,0.0
1565339552686714681,-0.0,0.598504900932,0.0,0.0,0.0,0.0
1565339552736861868,-0.0,0.598504900932,0.0,0.0,0.0,0.0
1565339552787207129,-0.0,0.598504900932,0.0,0.0,0.0,0.0
1565339552837750306,-0.0,0.598504900932,0.0,0.0,0.0,0.0
1565339552887059420,-0.0,0.598504900932,0.0,0.0,0.0,0.0
1565339552937826191,-0.0,0.598504900932,0.0,0.0,0.0,0.0
1565339552987690670,-0.0,0.598504900932,0.0,0.0,0.0,0.0
1565339553037906295,-0.0,0.598504900932,0.0,0.0,0.0,0.0
1565339553089026452,-0.0,0.598504900932,0.0,0.0,0.0,0.0
1565339553139952337,-0.0,0.598504900932,0.0,0.0,0.0,0.0
1565339553192387077,-0.0,0.598504900932,0.0,0.0,0.0,0.0
1565339553239917597,-0.0,0.598504900932,0.0,0.0,0.0,0.0
1565339553288821972,-0.0,0.598504900932,0.0,0.0,0.0,0.0
1565339553338654420,-0.0,0.598504900932,0.0,0.0,0.0,0.0
1565339553389372597,-0.0,0.598504900932,0.0,0.0,0.0,0.0
1565339553439657493,-0.0,0.598504900932,0.0,0.0,0.0,0.0
1565339553490528743,-0.0,0.598504900932,0.0,0.0,0.0,0.0
1565339553539979993,-0.0,0.598504900932,0.0,0.0,0.0,0.0
1565339553663036504,-0.0,0.598504900932,0.0,0.0,0.0,0.0
1565339553714014681,-0.0,0.598504900932,0.0,0.0,0.0,0.0
1565339553763243222,-0.0,0.598504900932,0.0,0.0,0.0,0.0
1565339553833974212,-0.0,0.598504900932,0.0,0.0,0.0,0.0
1565339553950642649,-0.0,0.511703848839,0.0,0.0,0.0,0.0
1565339554054792962,-0.0,-0.0,0.0,0.0,0.0,0.0
1565339554106314108,-0.0,-0.0,0.0,0.0,0.0,0.0
1565339554156359472,-0.0,-0.0,0.0,0.0,0.0,0.0
1565339554205056660,-0.0,-0.0,0.0,0.0,0.0,0.0
1565339554255155462,-0.0,-0.0,0.0,0.0,0.0,0.0
1565339554305875045,-0.0,-0.0,0.0,0.0,0.0,0.0
1565339554355635462,-0.0,-0.0,0.0,0.0,0.0,0.0
1565339554406565930,-0.0,-0.0,0.0,0.0,0.0,0.0
1565339554455819941,-0.0,-0.0,0.0,0.0,0.0,0.0
1565339554508641243,-0.0,-0.0,0.0,0.0,0.0,0.0
1565339554555788847,-0.0,-0.0,0.0,0.0,0.0,0.0
1565339554606283170,-0.0,-0.0,0.0,0.0,0.0,0.0
1565339554656269576,-0.0,-0.0,0.0,0.0,0.0,0.0
1565339554707393274,-0.0,-0.0,0.0,0.0,0.0,0.0
1565339554757507180,-0.0,-0.0,0.0,0.0,0.0,0.0
1565339554807558847,-0.0,-0.0,0.0,0.0,0.0,0.0
1565339554857380045,-0.0,-0.0,0.0,0.0,0.0,0.0
1565339554908531399,-0.0,-0.0,0.0,0.0,0.0,0.0
1565339554957663430,-0.0,-0.0,0.0,0.0,0.0,0.0
1565339555008163691,-0.0,-0.0,0.0,0.0,0.0,0.0
1565339555058677909,-0.0,-0.0,0.0,0.0,0.0,0.0
1565339555123549420,-0.0,-0.0,0.0,0.0,0.0,0.0
1565339555158423638,-0.0,-0.0,0.0,0.0,0.0,0.0
1565339555209194472,-0.0,-0.0,0.0,0.0,0.0,0.0
1565339555259689159,-0.0,-0.0,0.0,0.0,0.0,0.0
1565339555308981190,-0.0,-0.0,0.0,0.0,0.0,0.0
1565339555359381295,-0.0,-0.0,0.0,0.0,0.0,0.0
1565339555409403274,-0.0,-0.0,0.0,0.0,0.0,0.0
1565339555459569576,-0.0,-0.0,0.0,0.0,0.0,0.0
1565339555509833274,-0.0,-0.0,0.0,0.0,0.0,0.0
1565339555576136503,-0.0,-0.0,0.0,0.0,0.0,0.0
1565339555609709472,-0.0,-0.0,0.0,0.0,0.0,0.0
1565339555661716034,-0.0,-0.0,0.0,0.0,0.0,0.0
1565339555710966607,-0.0,-0.0,0.0,0.0,0.0,0.0
1565339555761628274,-0.0,-0.0,0.0,0.0,0.0,0.0
1565339555817374628,-0.0,-0.0,0.0,0.0,0.0,0.0
1565339555864846086,-0.0,-0.0,0.0,0.0,0.0,0.0
1565339555911688690,-0.0,-0.0,0.0,0.0,0.0,0.0
1565339555961897753,-0.0,-0.0,0.0,0.0,0.0,0.0
1565339556012069523,-0.0,-0.0,0.0,0.0,0.0,0.0
1565339556061949471,-0.0,-0.0,0.0,0.0,0.0,0.0
1565339556117875148,-0.0,-0.0,0.0,0.0,0.0,0.0
1565339556164078273,-0.0,-0.0,0.0,0.0,0.0,0.0
1565339556219916867,-0.0,-0.0,0.0,0.0,0.0,0.0
1565339556264876503,-0.0,-0.0,0.0,0.0,0.0,0.0
1565339556313058378,-0.0,-0.0,0.0,0.0,0.0,0.0
1565339556364467857,-0.0,-0.0,0.0,0.0,0.0,0.0
1565339556414627284,-0.0,-0.0,0.0,0.0,0.0,0.0
1565339556466585513,-0.0,-0.0,0.0,0.0,0.0,0.0
1565339556514898377,-0.0,-0.0,0.0,0.0,0.0,0.0
1565339556578720565,-0.0,-0.0,0.0,0.0,0.0,0.0
1565339556627643846,-0.0,-0.0,0.0,0.0,0.0,0.0
1565339556663958377,-0.0,-0.0,0.0,0.0,0.0,0.0
1565339556714410461,-0.0,-0.0,0.0,0.0,0.0,0.0
1565339556764666919,-0.0,-0.0,0.0,0.0,0.0,0.0
1565339556814785200,-0.0,-0.0,0.0,0.0,0.0,0.0
1565339556864656919,-0.0,-0.0,0.0,0.0,0.0,0.0
1565339556916822961,-0.0,-0.0,0.0,0.0,0.0,0.0
1565339557039376190,-0.0,-0.0450276508927,0.0,0.0,0.0,0.0
1565339557142965408,-0.0,-0.142686888576,0.0,0.0,0.0,0.0
1565339557251642700,-0.0,-0.229520067573,0.0,0.0,0.0,0.0
1565339557358716710,-0.0,-0.305462986231,0.0,0.0,0.0,0.0
1565339557477891554,-0.0,-0.370579838753,0.0,0.0,0.0,0.0
1565339557603084002,-0.0,-0.316321134567,0.0,0.0,0.0,0.0
1565339557711475460,-0.0,-0.283778756857,0.0,0.0,0.0,0.0
1565339557853036606,-0.0,-0.305462986231,0.0,0.0,0.0,0.0
1565339557959266346,-0.0,-0.305462986231,0.0,0.0,0.0,0.0
1565339558075175408,-0.0,-0.359721660614,0.0,0.0,0.0,0.0
1565339558187031762,-0.0,-0.403154343367,0.0,0.0,0.0,0.0
1565339558291369523,-0.0,-0.522529900074,0.0,0.0,0.0,0.0
1565339558402882595,-0.0,-0.511671721935,0.0,0.0,0.0,0.0
1565339558506975773,-0.0,-0.522529900074,0.0,0.0,0.0,0.0
1565339558556440616,-0.0,-0.522529900074,0.0,0.0,0.0,0.0
1565339558679715200,-0.0,-0.511671721935,0.0,0.0,0.0,0.0
1565339558728920356,-0.0,-0.511671721935,0.0,0.0,0.0,0.0
1565339558781118533,-0.0,-0.511671721935,0.0,0.0,0.0,0.0
1565339558921670720,-0.0,-0.761281013489,0.0,0.0,0.0,0.0
1565339558969747752,-0.0,-0.761281013489,0.0,0.0,0.0,0.0
1565339559019657283,-0.0,-0.761281013489,0.0,0.0,0.0,0.0
1565339559070035356,-0.0,-0.761281013489,0.0,0.0,0.0,0.0
1565339559202906814,-0.0,-0.739564657211,0.0,0.0,0.0,0.0
1565339559334893428,-0.0,-0.728706538677,0.0,0.0,0.0,0.0
1565339559450840720,-0.0,-0.728706538677,0.0,0.0,0.0,0.0
1565339559583684105,-0.0,-0.728706538677,0.0,0.0,0.0,0.0
1565339559727169678,-0.0,-0.641905426979,0.0,0.0,0.0,0.0
1565339559849781189,-0.0,-0.620189130306,0.0,0.0,0.0,0.0
1565339559897296970,-0.0,-0.620189130306,0.0,0.0,0.0,0.0
1565339559947261814,-0.0,-0.620189130306,0.0,0.0,0.0,0.0
1565339560075117543,-0.0,-0.555072247982,0.0,0.0,0.0,0.0
1565339560125568636,-0.0,-0.555072247982,0.0,0.0,0.0,0.0
1565339560176326657,-0.0,-0.555072247982,0.0,0.0,0.0,0.0
1565339560240240407,-0.0,-0.555072247982,0.0,0.0,0.0,0.0
1565339560276594470,-0.0,-0.555072247982,0.0,0.0,0.0,0.0
1565339560326157699,-0.0,-0.555072247982,0.0,0.0,0.0,0.0
1565339560376298220,-0.0,-0.555072247982,0.0,0.0,0.0,0.0
1565339560426134782,-0.0,-0.555072247982,0.0,0.0,0.0,0.0
1565339560476670824,-0.0,-0.555072247982,0.0,0.0,0.0,0.0
1565339560526524313,-0.0,-0.555072247982,0.0,0.0,0.0,0.0
1565339560576985668,-0.0,-0.555072247982,0.0,0.0,0.0,0.0
1565339560627190772,-0.0,-0.555072247982,0.0,0.0,0.0,0.0
1565339560676950251,-0.0,-0.555072247982,0.0,0.0,0.0,0.0
1565339560727197699,-0.0,-0.555072247982,0.0,0.0,0.0,0.0
1565339560777258792,-0.0,-0.555072247982,0.0,0.0,0.0,0.0
1565339560828075459,-0.0,-0.555072247982,0.0,0.0,0.0,0.0
1565339560878727542,-0.0,-0.555072247982,0.0,0.0,0.0,0.0
1565339560928717751,-0.0,-0.555072247982,0.0,0.0,0.0,0.0
1565339560979373792,-0.0,-0.555072247982,0.0,0.0,0.0,0.0
1565339561029282178,-0.0,-0.555072247982,0.0,0.0,0.0,0.0
1565339561079401553,-0.0,-0.555072247982,0.0,0.0,0.0,0.0
1565339561129625042,-0.0,-0.555072247982,0.0,0.0,0.0,0.0
1565339561179961553,-0.0,-0.555072247982,0.0,0.0,0.0,0.0
1565339561229408480,-0.0,-0.555072247982,0.0,0.0,0.0,0.0
1565339561279609313,-0.0,-0.555072247982,0.0,0.0,0.0,0.0
1565339561422742959,-0.0,-0.555072247982,0.0,0.0,0.0,0.0
1565339561472960251,-0.0,-0.555072247982,0.0,0.0,0.0,0.0
1565339561523399105,-0.0,-0.555072247982,0.0,0.0,0.0,0.0
1565339561574472334,-0.0,-0.555072247982,0.0,0.0,0.0,0.0
1565339561641601032,-0.0,-0.555072247982,0.0,0.0,0.0,0.0
1565339561674212594,-0.0,-0.555072247982,0.0,0.0,0.0,0.0
1565339561724111657,-0.0,-0.555072247982,0.0,0.0,0.0,0.0
1565339561872999157,-0.0,-0.555072247982,0.0,0.0,0.0,0.0
1565339561918222438,-0.0,-0.555072247982,0.0,0.0,0.0,0.0
1565339561967679417,-0.0,-0.555072247982,0.0,0.0,0.0,0.0
1565339562018114938,-0.0,-0.555072247982,0.0,0.0,0.0,0.0
1565339562067958115,-0.0,-0.555072247982,0.0,0.0,0.0,0.0
1565339562118689261,-0.0,-0.555072247982,0.0,0.0,0.0,0.0
1565339562168717282,-0.0,-0.555072247982,0.0,0.0,0.0,0.0
1565339562218411917,-0.0,-0.555072247982,0.0,0.0,0.0,0.0
1565339562268484573,-0.0,-0.555072247982,0.0,0.0,0.0,0.0
1565339562318913896,-0.0,-0.555072247982,0.0,0.0,0.0,0.0
1565339562368771292,-0.0,-0.555072247982,0.0,0.0,0.0,0.0
1565339562419009209,-0.0,-0.555072247982,0.0,0.0,0.0,0.0
1565339562469051604,-0.0,-0.555072247982,0.0,0.0,0.0,0.0
1565339562520082281,-0.0,-0.555072247982,0.0,0.0,0.0,0.0
1565339562569216136,-0.0,-0.555072247982,0.0,0.0,0.0,0.0
1565339562619935927,-0.0,-0.555072247982,0.0,0.0,0.0,0.0
1565339562669685302,-0.0,-0.555072247982,0.0,0.0,0.0,0.0
1565339562720345615,-0.0,-0.555072247982,0.0,0.0,0.0,0.0
1565339562770988375,-0.0,-0.555072247982,0.0,0.0,0.0,0.0
1565339562820352906,-0.0,-0.555072247982,0.0,0.0,0.0,0.0
1565339562870565146,-0.0,-0.555072247982,0.0,0.0,0.0,0.0
1565339562990999312,-0.0,-0.555072247982,0.0,0.0,0.0,0.0
1565339563041313531,-0.0,-0.555072247982,0.0,0.0,0.0,0.0
1565339563175213427,-0.0,-0.565930426121,0.0,0.0,0.0,0.0
1565339563280006031,-0.0,-0.565930426121,0.0,0.0,0.0,0.0
1565339563329423323,-0.0,-0.565930426121,0.0,0.0,0.0,0.0
1565339563463115719,-0.0,-0.555072247982,0.0,0.0,0.0,0.0
1565339563566780094,-0.0,-0.0,0.0,0.0,0.0,0.0
1565339563617160406,-0.0,-0.0,0.0,0.0,0.0,0.0
1565339563667632541,-0.0,-0.0,0.0,0.0,0.0,0.0
1565339563718109729,-0.0,-0.0,0.0,0.0,0.0,0.0
1565339563767849052,-0.0,-0.0,0.0,0.0,0.0,0.0
1565339563821533010,-0.0,-0.0,0.0,0.0,0.0,0.0
1565339563868495458,-0.0,-0.0,0.0,0.0,0.0,0.0
1565339563917754208,-0.0,-0.0,0.0,0.0,0.0,0.0
1565339563968480510,-0.0,-0.0,0.0,0.0,0.0,0.0
1565339564018869104,-0.0,-0.0,0.0,0.0,0.0,0.0
1565339564068711291,-0.0,-0.0,0.0,0.0,0.0,0.0
1565339564125566552,-0.0,-0.0,0.0,0.0,0.0,0.0
1565339564169267177,-0.0,-0.0,0.0,0.0,0.0,0.0
1565339564219103479,-0.0,-0.0,0.0,0.0,0.0,0.0
1565339564269563635,-0.0,-0.0,0.0,0.0,0.0,0.0
1565339564320575406,-0.0,-0.0,0.0,0.0,0.0,0.0
1565339564370025041,-0.0,-0.0,0.0,0.0,0.0,0.0
1565339564420129260,-0.0,-0.0,0.0,0.0,0.0,0.0
1565339564470709729,-0.0,-0.0,0.0,0.0,0.0,0.0
1565339564520823166,-0.0,-0.0,0.0,0.0,0.0,0.0
1565339564570867489,-0.0,-0.0,0.0,0.0,0.0,0.0
1565339564620818635,-0.0,-0.0,0.0,0.0,0.0,0.0
1565339564670948062,-0.0,-0.0,0.0,0.0,0.0,0.0
1565339564720876916,-0.0,-0.0,0.0,0.0,0.0,0.0
1565339564770986812,-0.0,-0.0,0.0,0.0,0.0,0.0
1565339564821713895,-0.0,-0.0,0.0,0.0,0.0,0.0
1565339564871745353,-0.0,-0.0,0.0,0.0,0.0,0.0
1565339564921350405,-0.0,-0.0,0.0,0.0,0.0,0.0
1565339564972063947,-0.0,-0.0,0.0,0.0,0.0,0.0
1565339565023832437,-0.0,-0.0,0.0,0.0,0.0,0.0
1565339565072384624,-0.0,-0.0,0.0,0.0,0.0,0.0
1565339565122658635,-0.0,-0.0,0.0,0.0,0.0,0.0
1565339565172950510,-0.0,-0.0,0.0,0.0,0.0,0.0
1565339565222963635,-0.0,-0.0,0.0,0.0,0.0,0.0
1565339565273104937,-0.0,-0.0,0.0,0.0,0.0,0.0
1565339565407169155,-0.0,-0.175261378288,0.0,0.0,0.0,0.0
1565339565523913739,-0.0,-0.175261378288,0.0,0.0,0.0,0.0
1565339565678179936,-0.0,-0.370579838753,0.0,0.0,0.0,0.0
1565339565795444311,-0.0,-0.555072247982,0.0,0.0,0.0,0.0
1565339565899940405,-0.0,-0.75042283535,0.0,0.0,0.0,0.0
1565339566050345822,-0.0,-0.761281013489,0.0,0.0,0.0,0.0
1565339566189710926,-0.0,-0.761281013489,0.0,0.0,0.0,0.0
1565339566335477853,-0.0,-0.761281013489,0.0,0.0,0.0,0.0
1565339566438790197,-0.0,-0.728706538677,0.0,0.0,0.0,0.0
1565339566570918374,-0.0,-0.717848360538,0.0,0.0,0.0,0.0
1565339566687447176,-0.0,-0.728706538677,0.0,0.0,0.0,0.0
1565339566796670144,-0.0,-0.0,0.0,0.0,0.0,0.0
1565339566845414155,-0.0,-0.0,0.0,0.0,0.0,0.0
1565339566895724519,-0.0,-0.0,0.0,0.0,0.0,0.0
1565339566945693582,-0.0,-0.0,0.0,0.0,0.0,0.0
1565339566995718009,-0.0,-0.0,0.0,0.0,0.0,0.0
1565339567047597748,-0.0,-0.0,0.0,0.0,0.0,0.0
1565339567096384311,-0.0,-0.0,0.0,0.0,0.0,0.0
1565339567146707332,-0.0,-0.0,0.0,0.0,0.0,0.0
1565339567196665040,-0.0,-0.0,0.0,0.0,0.0,0.0
1565339567247395873,-0.0,-0.0,0.0,0.0,0.0,0.0
1565339567297501603,-0.0,-0.0,0.0,0.0,0.0,0.0
1565339567348566186,-0.0,-0.0,0.0,0.0,0.0,0.0
1565339567398178061,-0.0,-0.0,0.0,0.0,0.0,0.0
1565339567448526394,-0.0,-0.0,0.0,0.0,0.0,0.0
1565339567498366082,-0.0,-0.0,0.0,0.0,0.0,0.0
1565339567548107748,-0.0,-0.0,0.0,0.0,0.0,0.0
1565339567598306602,-0.0,-0.0,0.0,0.0,0.0,0.0
1565339567648542123,-0.0,-0.0,0.0,0.0,0.0,0.0
1565339567699072800,-0.0,-0.0,0.0,0.0,0.0,0.0
1565339567748813946,-0.0,-0.0,0.0,0.0,0.0,0.0
1565339567798994623,-0.0,-0.0,0.0,0.0,0.0,0.0
1565339567857446394,-0.0,-0.0,0.0,0.0,0.0,0.0
1565339567932171186,-0.0,-0.0,0.0,0.0,0.0,0.0
1565339567949366602,-0.0,-0.0,0.0,0.0,0.0,0.0
1565339567999610404,-0.0,-0.0,0.0,0.0,0.0,0.0
1565339568050435040,-0.0,-0.0,0.0,0.0,0.0,0.0
1565339568100181290,-0.0,-0.0,0.0,0.0,0.0,0.0
1565339568150033217,-0.0,-0.0,0.0,0.0,0.0,0.0
1565339568311048633,-0.0,-0.0,0.0,0.0,0.0,0.0
1565339568314171081,-0.0,-0.0,0.0,0.0,0.0,0.0
1565339568314256238,-0.0,-0.0,0.0,0.0,0.0,0.0
1565339568350765092,-0.0,-0.0,0.0,0.0,0.0,0.0
1565339568401254779,-0.0,-0.0,0.0,0.0,0.0,0.0
1565339568516870560,-0.0,-0.0,0.0,0.0,0.0,0.0
1565339568522257852,-0.0,-0.0,0.0,0.0,0.0,0.0
1565339568551383790,-0.0,-0.0,0.0,0.0,0.0,0.0
1565339568601788946,-0.0,-0.0,0.0,0.0,0.0,0.0
1565339568667666237,-0.0,-0.0,0.0,0.0,0.0,0.0
1565339568702157383,-0.0,-0.0,0.0,0.0,0.0,0.0
1565339568953884154,-0.0,-0.0,0.0,0.0,0.0,0.0
1565339568961917019,-0.0,-0.0,0.0,0.0,0.0,0.0
1565339568961989206,-0.0,-0.0,0.0,0.0,0.0,0.0
1565339568962031914,-0.0,-0.0,0.0,0.0,0.0,0.0
1565339568962067331,-0.0,-0.0,0.0,0.0,0.0,0.0
1565339569003212644,-0.0,-0.0,0.0,0.0,0.0,0.0
1565339569057178112,-0.0,-0.0,0.0,0.0,0.0,0.0
1565339569104714675,-0.0,-0.0,0.0,0.0,0.0,0.0
1565339569288779154,-0.0,-0.0,0.0,0.0,0.0,0.0
1565339569293884987,-0.0,-0.0,0.0,0.0,0.0,0.0
1565339569294072904,-0.0,-0.0,0.0,0.0,0.0,0.0
1565339569304352695,-0.0,-0.0,0.0,0.0,0.0,0.0
1565339569356598112,-0.0,-0.0,0.0,0.0,0.0,0.0
1565339569483683060,-0.0,-0.0,0.0,0.0,0.0,0.0
1565339569488418320,-0.0,-0.0,0.0,0.0,0.0,0.0
1565339569505210039,-0.0,-0.0,0.0,0.0,0.0,0.0
1565339569556328685,-0.0,-0.0,0.0,0.0,0.0,0.0
1565339569683788320,-0.0,-0.0,0.0,0.0,0.0,0.0
1565339569724207070,-0.0,-0.0,0.0,0.0,0.0,0.0
1565339569724281758,-0.0,-0.0,0.0,0.0,0.0,0.0
1565339569755979987,-0.0,-0.0,0.0,0.0,0.0,0.0
1565339569879721914,-0.0,-0.0,0.0,0.0,0.0,0.0
1565339569886953581,-0.0,-0.0,0.0,0.0,0.0,0.0
1565339569907730924,-0.0,-0.0,0.0,0.0,0.0,0.0
1565339569967191706,-0.0,-0.0,0.0,0.0,0.0,0.0
1565339570164063685,-0.0,-0.0,0.0,0.0,0.0,0.0
1565339570168180768,-0.0,-0.0,0.0,0.0,0.0,0.0
1565339570168250456,-0.0,-0.0,0.0,0.0,0.0,0.0
1565339570168396028,-0.0,-0.0,0.0,0.0,0.0,0.0
1565339570207405924,-0.0,-0.0,0.0,0.0,0.0,0.0
1565339570257466706,-0.0,-0.0,0.0,0.0,0.0,0.0
1565339570399228789,-0.0,-0.0,0.0,0.0,0.0,0.0
1565339570556289674,-0.0,-0.0,0.0,0.0,0.0,0.0
1565339570559799205,-0.0,-0.0,0.0,0.0,0.0,0.0
1565339570751570976,-0.0,-0.0,0.0,0.0,0.0,0.0
1565339570753300768,-0.0,-0.0,0.0,0.0,0.0,0.0
1565339570946118059,-0.0,0.164435341954,0.0,0.0,0.0,0.0
1565339570951708528,-0.0,0.164435341954,0.0,0.0,0.0,0.0
1565339571027936601,-0.0,0.316353261471,0.0,0.0,0.0,0.0
1565339571142056705,-0.0,0.392328292131,0.0,0.0,0.0,0.0
1565339571235857226,-0.0,0.457445144653,0.0,0.0,0.0,0.0
1565339571336495716,-0.0,0.457445144653,0.0,0.0,0.0,0.0
1565339571435632278,-0.0,0.544246196747,0.0,0.0,0.0,0.0
1565339571547059986,-0.0,0.631079435349,0.0,0.0,0.0,0.0
1565339571597659518,-0.0,0.631079435349,0.0,0.0,0.0,0.0
1565339571748414465,-0.0,0.631079435349,0.0,0.0,0.0,0.0
1565339571751391340,-0.0,0.631079435349,0.0,0.0,0.0,0.0
1565339571923323528,-0.0,0.663621783257,0.0,0.0,0.0,0.0
1565339571954469986,-0.0,0.674479961395,0.0,0.0,0.0,0.0
1565339572209178476,-0.0,0.674479961395,0.0,0.0,0.0,0.0
1565339572216042382,-0.0,0.674479961395,0.0,0.0,0.0,0.0
1565339572216107746,-0.0,0.674479961395,0.0,0.0,0.0,0.0
1565339572216183163,-0.0,0.674479961395,0.0,0.0,0.0,0.0
1565339572236455299,-0.0,0.674479961395,0.0,0.0,0.0,0.0
1565339572286724153,-0.0,0.674479961395,0.0,0.0,0.0,0.0
1565339572403759309,-0.0,0.674479961395,0.0,0.0,0.0,0.0
1565339572408536861,-0.0,0.674479961395,0.0,0.0,0.0,0.0
1565339572437871757,-0.0,0.674479961395,0.0,0.0,0.0,0.0
1565339572486808736,-0.0,0.674479961395,0.0,0.0,0.0,0.0
1565339572598859361,-0.0,0.674479961395,0.0,0.0,0.0,0.0
1565339572602781913,-0.0,0.674479961395,0.0,0.0,0.0,0.0
1565339572637490038,-0.0,0.674479961395,0.0,0.0,0.0,0.0
1565339572687741080,-0.0,0.674479961395,0.0,0.0,0.0,0.0
1565339572793696340,-0.0,0.674479961395,0.0,0.0,0.0,0.0
1565339572797398475,-0.0,0.674479961395,0.0,0.0,0.0,0.0
1565339572841116236,-0.0,0.674479961395,0.0,0.0,0.0,0.0
1565339572955034934,-0.0,0.674479961395,0.0,0.0,0.0,0.0
1565339573005378475,-0.0,0.674479961395,0.0,0.0,0.0,0.0
1565339573151252694,-0.0,0.674479961395,0.0,0.0,0.0,0.0
1565339573201784204,-0.0,0.674479961395,0.0,0.0,0.0,0.0
1565339573251774309,-0.0,0.674479961395,0.0,0.0,0.0,0.0
1565339573302162381,-0.0,0.674479961395,0.0,0.0,0.0,0.0
1565339573353756548,-0.0,0.674479961395,0.0,0.0,0.0,0.0
1565339573402356652,-0.0,0.674479961395,0.0,0.0,0.0,0.0
1565339573455707538,-0.0,0.674479961395,0.0,0.0,0.0,0.0
1565339573571577277,-0.0,0.674479961395,0.0,0.0,0.0,-0.125618204474
1565339573675458735,-0.0,0.674479961395,0.0,0.0,0.0,-0.125618204474
1565339573787512329,-0.0,0.674479961395,0.0,0.0,0.0,-0.125618204474
1565339573899671027,-0.0,0.674479961395,0.0,0.0,0.0,-0.125618204474
1565339574011303267,-0.0,0.674479961395,0.0,0.0,0.0,-0.125618204474
1565339574062211965,-0.0,0.674479961395,0.0,0.0,0.0,-0.125618204474
1565339574172753162,-0.0,0.674479961395,0.0,0.0,0.0,-0.14190544188
1565339574274480506,-0.0,0.674479961395,0.0,0.0,0.0,0.0
1565339574323199256,-0.0,0.674479961395,0.0,0.0,0.0,0.0
1565339574377566079,-0.0,0.674479961395,0.0,0.0,0.0,0.0
1565339574427480975,-0.0,0.674479961395,0.0,0.0,0.0,0.0
1565339574472120610,-0.0,0.674479961395,0.0,0.0,0.0,0.0
1565339574522188735,-0.0,0.674479961395,0.0,0.0,0.0,0.0
1565339574639655714,-0.0,-0.0,0.0,0.0,0.0,0.0
1565339574689659204,-0.0,-0.0,0.0,0.0,0.0,0.0
1565339574740279100,-0.0,-0.0,0.0,0.0,0.0,0.0
1565339574790175298,-0.0,-0.0,0.0,0.0,0.0,0.0
1565339574840634725,-0.0,-0.0,0.0,0.0,0.0,0.0
1565339574890181495,-0.0,-0.0,0.0,0.0,0.0,0.0
1565339574940127173,-0.0,-0.0,0.0,0.0,0.0,0.0
1565339574992177277,-0.0,-0.0,0.0,0.0,0.0,0.0
1565339575041034725,-0.0,-0.0,0.0,0.0,0.0,0.0
1565339575093331079,-0.0,-0.0,0.0,0.0,0.0,0.0
1565339575141929881,-0.0,-0.0,0.0,0.0,0.0,0.0
1565339575196469099,-0.0,-0.0,0.0,0.0,0.0,0.0
1565339575244398943,-0.0,-0.0,0.0,0.0,0.0,0.0
1565339575292192797,-0.0,-0.0,0.0,0.0,0.0,0.0
1565339575342521912,-0.0,-0.0,0.0,0.0,0.0,0.0
1565339575393563943,-0.0,-0.0,0.0,0.0,0.0,0.0
1565339575444152537,-0.0,-0.0,0.0,0.0,0.0,0.0
1565339575492461547,-0.0,-0.0,0.0,0.0,0.0,0.0
1565339575671053266,-0.0,-0.0,0.0,0.0,0.0,-0.337239980698
1565339575743829620,-0.0,-0.0,0.0,0.0,0.0,-0.391498655081
1565339575875235297,-0.0,-0.0,0.0,0.0,0.0,-0.386069595814
1565339575979666912,-0.0,-0.0,0.0,0.0,0.0,-0.0767885819077
1565339576083571130,-0.0,-0.0,0.0,0.0,0.0,0.0
1565339576133388682,-0.0,-0.0,0.0,0.0,0.0,0.0
1565339576183751755,-0.0,-0.0,0.0,0.0,0.0,0.0
1565339576234075557,-0.0,-0.0,0.0,0.0,0.0,0.0
1565339576284205870,-0.0,-0.0,0.0,0.0,0.0,0.0
1565339576334634620,-0.0,-0.0,0.0,0.0,0.0,0.0
1565339576384668162,-0.0,-0.0,0.0,0.0,0.0,0.0
1565339576434716807,-0.0,-0.0,0.0,0.0,0.0,0.0
1565339576484818526,-0.0,-0.0,0.0,0.0,0.0,0.0
1565339576534848005,-0.0,-0.0,0.0,0.0,0.0,0.0
1565339576584998995,-0.0,-0.0,0.0,0.0,0.0,0.0
1565339576648749672,-0.0,-0.0,0.0,0.0,0.0,0.0
1565339576763541703,-0.0,0.468303322792,0.0,0.0,0.0,0.0
1565339576867268682,-0.0,0.631079435349,0.0,0.0,0.0,0.0
1565339576999410974,-0.0,0.631079435349,0.0,0.0,0.0,0.0
1565339577127310661,-0.0,0.631079435349,0.0,0.0,0.0,0.0
1565339577177660817,-0.0,0.631079435349,0.0,0.0,0.0,0.0
1565339577227833109,-0.0,0.631079435349,0.0,0.0,0.0,0.0
1565339577278010349,-0.0,0.631079435349,0.0,0.0,0.0,0.0
1565339577387330192,-0.0,0.631079435349,0.0,0.0,0.0,0.0
1565339577512324828,-0.0,0.641937553883,0.0,0.0,0.0,0.0
1565339577642714151,-0.0,0.641937553883,0.0,0.0,0.0,0.0
1565339577735297901,-0.0,0.652763605118,0.0,0.0,0.0,0.0
1565339577848250505,-0.0,0.663621783257,0.0,0.0,0.0,0.0
1565339577893930817,-0.0,0.663621783257,0.0,0.0,0.0,0.0
1565339577939420505,-0.0,0.663621783257,0.0,0.0,0.0,0.0
1565339577989598734,-0.0,0.663621783257,0.0,0.0,0.0,0.0
1565339578120040661,-0.0,0.674479961395,0.0,0.0,0.0,0.0
1565339578266682796,-0.0,0.685338079929,0.0,0.0,0.0,0.0
1565339578314957900,-0.0,0.685338079929,0.0,0.0,0.0,0.0
1565339578451752588,-0.0,0.696196258068,0.0,0.0,0.0,0.0
1565339578569846338,-0.0,0.696196258068,0.0,0.0,0.0,0.0
1565339578672414098,-0.0,0.707054436207,0.0,0.0,0.0,0.0
1565339578723266442,-0.0,0.707054436207,0.0,0.0,0.0,0.0
1565339578863397744,-0.0,0.728738665581,0.0,0.0,0.0,0.0
1565339578915529411,-0.0,0.728738665581,0.0,0.0,0.0,0.0
1565339578964615036,-0.0,0.728738665581,0.0,0.0,0.0,0.0
1565339579087798213,-0.0,0.728738665581,0.0,0.0,0.0,0.0
1565339579137969358,-0.0,0.728738665581,0.0,0.0,0.0,0.0
1565339579244315765,-0.0,0.750454962254,0.0,0.0,0.0,0.0
1565339579348076650,-0.0,0.772139191628,0.0,0.0,0.0,0.0
1565339579397765765,-0.0,0.772139191628,0.0,0.0,0.0,0.0
1565339579511776546,-0.0,-0.0,0.0,0.0,0.0,0.0
1565339579562097119,-0.0,-0.0,0.0,0.0,0.0,0.0
1565339579611700764,-0.0,-0.0,0.0,0.0,0.0,0.0
1565339579662085348,-0.0,-0.0,0.0,0.0,0.0,0.0
1565339579712611181,-0.0,-0.0,0.0,0.0,0.0,0.0
1565339579762450191,-0.0,-0.0,0.0,0.0,0.0,0.0
1565339579813203316,-0.0,-0.0,0.0,0.0,0.0,0.0
1565339579864470660,-0.0,-0.0,0.0,0.0,0.0,0.0
1565339579914687900,-0.0,-0.0,0.0,0.0,0.0,0.0
1565339579962413837,-0.0,-0.0,0.0,0.0,0.0,0.0
1565339580012978993,-0.0,-0.0,0.0,0.0,0.0,0.0
1565339580063631285,-0.0,-0.0,0.0,0.0,0.0,0.0
1565339580114187952,-0.0,-0.0,0.0,0.0,0.0,0.0
1565339580163798577,-0.0,-0.0,0.0,0.0,0.0,0.0
1565339580213795191,-0.0,-0.0,0.0,0.0,0.0,0.0
1565339580264142066,-0.0,-0.0,0.0,0.0,0.0,0.0
1565339580316158577,-0.0,-0.0,0.0,0.0,0.0,0.0
1565339580364260243,-0.0,-0.0,0.0,0.0,0.0,0.0
1565339580417463681,-0.0,-0.0,0.0,0.0,0.0,0.0
1565339580465715347,-0.0,-0.0,0.0,0.0,0.0,0.0
1565339580515944775,-0.0,-0.0,0.0,0.0,0.0,0.0
1565339580565811910,-0.0,-0.0,0.0,0.0,0.0,0.0
1565339580617225660,-0.0,-0.0,0.0,0.0,0.0,0.0
1565339580679695399,-0.0,-0.0,0.0,0.0,0.0,0.0
1565339580716476441,-0.0,-0.0,0.0,0.0,0.0,0.0
1565339580766016285,-0.0,-0.0,0.0,0.0,0.0,0.0
1565339580816147743,-0.0,-0.0,0.0,0.0,0.0,0.0
1565339580866539774,-0.0,-0.0,0.0,0.0,0.0,0.0
1565339580917042795,-0.0,-0.0,0.0,0.0,0.0,0.0
1565339580966793264,-0.0,-0.0,0.0,0.0,0.0,0.0
1565339581016670139,-0.0,-0.0,0.0,0.0,0.0,0.0
1565339581066714514,-0.0,-0.0,0.0,0.0,0.0,0.0
1565339581117179566,-0.0,-0.0,0.0,0.0,0.0,0.0
1565339581167091024,-0.0,-0.0,0.0,0.0,0.0,0.0
1565339581217145035,-0.0,-0.0,0.0,0.0,0.0,0.0
1565339581267732326,-0.0,-0.0,0.0,0.0,0.0,0.0
1565339581318963785,-0.0,-0.0,0.0,0.0,0.0,0.0
1565339581443681389,-0.0,-0.0,0.0,0.0,0.0,0.0
1565339581556908889,-0.0667118579149,-0.0,0.0,0.0,0.0,0.0
1565339581685418472,-0.121002674103,-0.0,0.0,0.0,0.0,0.0
1565339581771573472,-0.207803741097,-0.0,0.0,0.0,0.0,0.0
1565339581883465139,-0.218661904335,-0.0,0.0,0.0,0.0,0.0
1565339581997679097,-0.207803741097,-0.0,0.0,0.0,0.0,0.0
1565339582107687170,-0.218661904335,-0.0,0.0,0.0,0.0,0.0
1565339582157748628,-0.218661904335,-0.0,0.0,0.0,0.0,0.0
1565339582275686024,-0.207803741097,-0.0,0.0,0.0,0.0,0.0
1565339582325679513,-0.207803741097,-0.0,0.0,0.0,0.0,0.0
1565339582476042013,-0.0,-0.0,0.0,0.0,0.0,0.0
1565339582580090763,-0.0,-0.0,0.0,0.0,0.0,0.0
1565339582630060295,-0.0,-0.0,0.0,0.0,0.0,0.0
1565339582679942065,-0.0,-0.0,0.0,0.0,0.0,0.0
1565339582730101857,-0.0,-0.0,0.0,0.0,0.0,0.0
1565339582780867170,-0.0,-0.0,0.0,0.0,0.0,0.0
1565339582830412847,-0.0,-0.0,0.0,0.0,0.0,0.0
1565339582880548419,-0.0,-0.0,0.0,0.0,0.0,0.0
1565339582930715607,-0.0,-0.0,0.0,0.0,0.0,0.0
1565339582982058315,-0.0,-0.0,0.0,0.0,0.0,0.0
1565339583031281128,-0.0,-0.0,0.0,0.0,0.0,0.0
1565339583081249826,-0.0,-0.0,0.0,0.0,0.0,0.0
1565339583131431076,-0.0,-0.0,0.0,0.0,0.0,0.0
1565339583182107430,-0.0,-0.0,0.0,0.0,0.0,0.0
1565339583287992846,-0.587646722794,-0.0,0.0,0.0,0.0,0.0
1565339583392321909,-1.0,-0.0,0.0,0.0,0.0,0.0
1565339583442416753,-1.0,-0.0,0.0,0.0,0.0,0.0
1565339583492363732,-1.0,-0.0,0.0,0.0,0.0,0.0
1565339583542649513,-1.0,-0.0,0.0,0.0,0.0,0.0
1565339583592693367,-1.0,-0.0,0.0,0.0,0.0,0.0
1565339583643364565,-1.0,-0.0,0.0,0.0,0.0,0.0
1565339583693520815,-1.0,-0.0,0.0,0.0,0.0,0.0
1565339583821508680,-0.913198947906,-0.0,0.0,0.0,0.0,0.0
1565339583871609200,-0.913198947906,-0.0,0.0,0.0,0.0,0.0
1565339584003850554,-0.338037461042,-0.0,0.0,0.0,0.0,0.0
1565339584107850763,-0.0,-0.0,0.0,0.0,0.0,0.0
1565339584157948159,-0.0,-0.0,0.0,0.0,0.0,0.0
1565339584207642429,-0.0,-0.0,0.0,0.0,0.0,0.0
1565339584258439773,-0.0,-0.0,0.0,0.0,0.0,0.0
1565339584308884148,-0.0,-0.0,0.0,0.0,0.0,0.0
1565339584358879773,-0.0,-0.0,0.0,0.0,0.0,0.0
1565339584410149148,-0.0,-0.0,0.0,0.0,0.0,0.0
1565339584459304981,-0.0,-0.0,0.0,0.0,0.0,0.0
1565339584509482846,-0.0,-0.0,0.0,0.0,0.0,0.0
1565339584559149825,-0.0,-0.0,0.0,0.0,0.0,0.0
1565339584609400398,-0.0,-0.0,0.0,0.0,0.0,0.0
1565339584659661440,-0.0,-0.0,0.0,0.0,0.0,0.0
1565339584710341127,-0.0,-0.0,0.0,0.0,0.0,0.0
1565339584761146700,-0.0,-0.0,0.0,0.0,0.0,0.0
1565339584813089356,-0.0,-0.0,0.0,0.0,0.0,0.0
1565339584860149877,-0.0,-0.0,0.0,0.0,0.0,0.0
1565339584910556387,-0.0,-0.0,0.0,0.0,0.0,0.0
1565339584960726335,-0.0,-0.0,0.0,0.0,0.0,0.0
1565339585011162585,-0.0,-0.0,0.0,0.0,0.0,0.0
1565339585127051960,-0.0,-0.0,0.0,0.0,0.0,0.120173059404
1565339585260215085,-0.0,-0.0,0.0,0.0,0.0,0.174447819591
1565339585372262950,-0.0,-0.0,0.0,0.0,0.0,0.174447819591
1565339585477691335,-0.0,-0.0,0.0,0.0,0.0,0.239548608661
1565339585592019043,-0.0,-0.0,0.0,0.0,0.0,0.234135597944
1565339585668461075,-0.0,-0.0,0.0,0.0,0.0,0.234135597944
1565339585691879825,-0.0,-0.0,0.0,0.0,0.0,0.234135597944
1565339585741863314,-0.0,-0.0,0.0,0.0,0.0,0.234135597944
1565339585803419512,-0.0,-0.0,0.0,0.0,0.0,0.234135597944
1565339585858695762,-0.0,-0.0,0.0,0.0,0.0,0.234135597944
1565339585976088679,-0.0,-0.0,0.0,0.0,0.0,0.239548608661
1565339586107679199,-0.0,-0.0,0.0,0.0,0.0,0.0
1565339586157638731,-0.0,-0.0,0.0,0.0,0.0,0.0
1565339586208028679,-0.0,-0.0,0.0,0.0,0.0,0.0
1565339586258314408,-0.0,-0.0,0.0,0.0,0.0,0.0
1565339586308650189,-0.0,-0.0,0.0,0.0,0.0,0.0
1565339586358547897,-0.0,-0.0,0.0,0.0,0.0,0.0
1565339586408826126,-0.0,-0.0,0.0,0.0,0.0,0.0
1565339586458833626,-0.0,-0.0,0.0,0.0,0.0,0.0
1565339586509215293,-0.0,-0.0,0.0,0.0,0.0,0.0
1565339586560343574,-0.0,-0.0,0.0,0.0,0.0,0.0
1565339586609629981,-0.0,-0.0,0.0,0.0,0.0,0.0
1565339586660217897,-0.0,-0.0,0.0,0.0,0.0,0.0
1565339586710451543,-0.0,-0.0,0.0,0.0,0.0,0.0
1565339586759836387,-0.0,-0.0,0.0,0.0,0.0,0.0
1565339586809766699,-0.0,-0.0,0.0,0.0,0.0,0.0
1565339586859809251,-0.0,-0.0,0.0,0.0,0.0,0.0
1565339586923265189,-0.0,-0.0,0.0,0.0,0.0,0.0
1565339586961221387,-0.0,-0.0,0.0,0.0,0.0,0.0
1565339587012153574,-0.0,-0.0,0.0,0.0,0.0,0.0
1565339587064088418,-0.0,-0.0,0.0,0.0,0.0,0.0
1565339587111289147,-0.0,-0.0,0.0,0.0,0.0,0.0
1565339587161268418,-0.0,-0.0,0.0,0.0,0.0,0.0
1565339587211406491,-0.0,-0.0,0.0,0.0,0.0,0.0
1565339587261401439,-0.0,-0.0,0.0,0.0,0.0,0.0
1565339587312821855,-0.0,-0.0,0.0,0.0,0.0,0.0
1565339587361868366,-0.0,-0.0,0.0,0.0,0.0,0.0
1565339587412366855,-0.0,-0.0,0.0,0.0,0.0,0.0
1565339587462601751,-0.0,-0.0,0.0,0.0,0.0,0.0
1565339587576831647,-0.0,-0.262062430382,0.0,0.0,0.0,0.0
1565339587678225449,-0.0,-0.272920608521,0.0,0.0,0.0,0.0
1565339587725606907,-0.0,-0.272920608521,0.0,0.0,0.0,0.0
1565339587775697949,-0.0,-0.272920608521,0.0,0.0,0.0,0.0
1565339587836547220,-0.0,-0.272920608521,0.0,0.0,0.0,0.0
1565339587876151282,-0.0,-0.272920608521,0.0,0.0,0.0,0.0
1565339587926279199,-0.0,-0.272920608521,0.0,0.0,0.0,0.0
1565339587976869251,-0.0,-0.272920608521,0.0,0.0,0.0,0.0
1565339588026657793,-0.0,-0.272920608521,0.0,0.0,0.0,0.0
1565339588076984303,-0.0,-0.272920608521,0.0,0.0,0.0,0.0
1565339588189959355,-0.0,-0.392296165228,0.0,0.0,0.0,0.0
1565339588292027740,-0.0,-0.381437987089,0.0,0.0,0.0,0.0
1565339588343471022,-0.0,-0.381437987089,0.0,0.0,0.0,0.0
1565339588475802011,-0.0,-0.598472774029,0.0,0.0,0.0,0.0
1565339588599586021,-0.0,-0.555072247982,0.0,0.0,0.0,0.0
1565339588723436907,-0.0,-0.446554869413,0.0,0.0,0.0,0.0
1565339588827237115,-0.0,-0.479097217321,0.0,0.0,0.0,0.0
1565339588951575813,-0.0,-0.479097217321,0.0,0.0,0.0,0.0
1565339589080595865,-0.0,-0.674447834492,0.0,0.0,0.0,0.0
1565339589130368313,-0.0,-0.674447834492,0.0,0.0,0.0,0.0
1565339589235982480,-0.0,-0.685305953026,0.0,0.0,0.0,0.0
1565339589285859355,-0.0,-0.685305953026,0.0,0.0,0.0,0.0
1565339589392450032,-0.0,-0.674447834492,0.0,0.0,0.0,0.0
1565339589442662219,-0.0,-0.674447834492,0.0,0.0,0.0,0.0
1565339589584707792,-0.0,-0.696164131165,0.0,0.0,0.0,0.0
1565339589695922167,-0.0,-0.717848360538,0.0,0.0,0.0,0.0
1565339589746245396,-0.0,-0.717848360538,0.0,0.0,0.0,0.0
1565339589798354250,-0.0,-0.717848360538,0.0,0.0,0.0,0.0
1565339589855095552,-0.0,-0.717848360538,0.0,0.0,0.0,0.0
1565339589947267219,-0.0,-0.717848360538,0.0,0.0,0.0,0.0
1565339589997725031,-0.0,-0.717848360538,0.0,0.0,0.0,0.0
1565339590047951229,-0.0,-0.717848360538,0.0,0.0,0.0,0.0
1565339590152103365,-0.0,-0.728706538677,0.0,0.0,0.0,0.0
1565339590201969458,-0.0,-0.728706538677,0.0,0.0,0.0,0.0
1565339590307937896,-0.0,-0.717848360538,0.0,0.0,0.0,0.0
1565339590448862427,-0.0,-0.717848360538,0.0,0.0,0.0,0.0
1565339590555363729,-0.0,-0.728706538677,0.0,0.0,0.0,0.0
1565339590605826542,-0.0,-0.728706538677,0.0,0.0,0.0,0.0
1565339590656118417,-0.0,-0.728706538677,0.0,0.0,0.0,0.0
1565339590706963729,-0.0,-0.728706538677,0.0,0.0,0.0,0.0
1565339590852534094,-0.0,-0.728706538677,0.0,0.0,0.0,0.0
1565339590980363781,-0.0,-0.728706538677,0.0,0.0,0.0,0.0
1565339591108824146,-0.0,-0.772107064724,0.0,0.0,0.0,0.0
1565339591158598989,-0.0,-0.772107064724,0.0,0.0,0.0,0.0
1565339591208588312,-0.0,-0.772107064724,0.0,0.0,0.0,0.0
1565339591259971698,-0.0,-0.772107064724,0.0,0.0,0.0,0.0
1565339591363952947,-0.0,-0.0,0.0,0.0,0.0,0.0
1565339591414714822,-0.0,-0.0,0.0,0.0,0.0,0.0
1565339591465395031,-0.0,-0.0,0.0,0.0,0.0,0.0
1565339591516362322,-0.0,-0.0,0.0,0.0,0.0,0.0
1565339591576032895,-0.0,-0.0,0.0,0.0,0.0,0.0
1565339591647921072,-0.0,-0.0,0.0,0.0,0.0,0.0
1565339591674996697,-0.0,-0.0,0.0,0.0,0.0,0.0
1565339591716473833,-0.0,-0.0,0.0,0.0,0.0,0.0
1565339591765208416,-0.0,-0.0,0.0,0.0,0.0,0.0
1565339591816554354,-0.0,-0.0,0.0,0.0,0.0,0.0
1565339591868156072,-0.0,-0.0,0.0,0.0,0.0,0.0
1565339591915948051,-0.0,-0.0,0.0,0.0,0.0,0.0
1565339591965899145,-0.0,-0.0,0.0,0.0,0.0,0.0
1565339592016476228,-0.0,-0.0,0.0,0.0,0.0,0.0
1565339592066320083,-0.0,-0.0,0.0,0.0,0.0,0.0
1565339592117174666,-0.0,-0.0,0.0,0.0,0.0,0.0
1565339592188556749,-0.0,-0.0,0.0,0.0,0.0,0.0
1565339592226872895,-0.0,-0.0,0.0,0.0,0.0,0.0
1565339592267641020,-0.0,-0.0,0.0,0.0,0.0,0.0
1565339592317559718,-0.0,-0.0,0.0,0.0,0.0,0.0
1565339592366999145,-0.0,-0.0,0.0,0.0,0.0,0.0
1565339592417610760,-0.0,-0.0,0.0,0.0,0.0,0.0
1565339592468286801,-0.0,-0.0,0.0,0.0,0.0,0.0
1565339592518896437,-0.0,-0.0,0.0,0.0,0.0,0.0
1565339592568018989,-0.0,-0.0,0.0,0.0,0.0,0.0
1565339592618736853,-0.0,-0.0,0.0,0.0,0.0,0.0
1565339592668359509,-0.0,-0.0,0.0,0.0,0.0,0.0
1565339592718380447,-0.0,-0.0,0.0,0.0,0.0,0.0
1565339592768968416,-0.0,-0.0,0.0,0.0,0.0,0.0
1565339592819439405,-0.0,-0.0,0.0,0.0,0.0,0.0
1565339592928065395,-0.0,-0.218661904335,0.0,0.0,0.0,0.0
1565339593050007218,-0.0,-0.229520067573,0.0,0.0,0.0,0.0
1565339593156004613,-0.0,-0.229520067573,0.0,0.0,0.0,0.0
1565339593260155291,-0.0,-0.479097217321,0.0,0.0,0.0,0.0
1565339593364795603,-0.0,-0.858940243721,0.0,0.0,0.0,0.0
1565339593468267582,-0.0,-1.0,0.0,0.0,0.0,0.0
1565339593539680551,-0.0,-1.0,0.0,0.0,0.0,0.0
1565339593582090030,-0.0,-1.0,0.0,0.0,0.0,0.0
1565339593619431280,-0.0,-1.0,0.0,0.0,0.0,0.0
1565339593678708676,-0.0,-1.0,0.0,0.0,0.0,0.0
1565339593719091332,-0.0,-1.0,0.0,0.0,0.0,0.0
1565339593839552947,0.00165924313478,-1.0,0.0,0.0,0.0,0.0
1565339593881702790,0.00165924313478,-1.0,0.0,0.0,0.0,0.0
1565339593933281905,0.00165924313478,-1.0,0.0,0.0,0.0,0.0
1565339593983752217,0.00165924313478,-1.0,0.0,0.0,0.0,0.0
1565339594036116124,0.00165924313478,-1.0,0.0,0.0,0.0,0.0
1565339594082637113,0.00165924313478,-1.0,0.0,0.0,0.0,0.0
1565339594133761540,0.00165924313478,-1.0,0.0,0.0,0.0,0.0
1565339594252576280,0.00165924313478,-1.0,0.0,0.0,0.0,0.0
1565339594355697790,0.00165924313478,-1.0,0.0,0.0,0.0,0.0
1565339594405891384,0.00165924313478,-1.0,0.0,0.0,0.0,0.0
1565339594456636853,0.00165924313478,-1.0,0.0,0.0,0.0,0.0
1565339594506801488,0.00165924313478,-1.0,0.0,0.0,0.0,0.0
1565339594632328727,0.00165924313478,-1.0,0.0,0.0,0.0,0.0
1565339594682303519,0.00165924313478,-1.0,0.0,0.0,0.0,0.0
1565339594732704977,0.00165924313478,-1.0,0.0,0.0,0.0,0.0
1565339594852016852,0.00165924313478,-1.0,0.0,0.0,0.0,0.0
1565339594957257009,0.00165924313478,-1.0,0.0,0.0,0.0,0.0
1565339595083759561,-0.0,-0.0,0.0,0.0,0.0,0.0
1565339595134362061,-0.0,-0.0,0.0,0.0,0.0,0.0
1565339595185350654,-0.0,-0.0,0.0,0.0,0.0,0.0
1565339595234569248,-0.0,-0.0,0.0,0.0,0.0,0.0
1565339595285834613,-0.0,-0.0,0.0,0.0,0.0,0.0
1565339595334764665,-0.0,-0.0,0.0,0.0,0.0,0.0
1565339595385576696,-0.0,-0.0,0.0,0.0,0.0,0.0
1565339595434880238,-0.0,-0.0,0.0,0.0,0.0,0.0
1565339595485111435,-0.0,-0.0,0.0,0.0,0.0,0.0
1565339595535426123,-0.0,-0.0,0.0,0.0,0.0,0.0
1565339595585856227,-0.0,-0.0,0.0,0.0,0.0,0.0
1565339595676189144,-0.0,-0.0,0.0,0.0,0.0,0.0
1565339595688178102,-0.0,-0.0,0.0,0.0,0.0,0.0
1565339595735853154,-0.0,-0.0,0.0,0.0,0.0,0.0
1565339595786718258,-0.0,-0.0,0.0,0.0,0.0,0.0
1565339595840784092,-0.0,-0.0,0.0,0.0,0.0,0.0
1565339595886784404,-0.0,-0.0,0.0,0.0,0.0,0.0
1565339595937044977,-0.0,-0.0,0.0,0.0,0.0,0.0
1565339595988165758,-0.0,-0.0,0.0,0.0,0.0,0.0
1565339596037832529,-0.0,-0.0,0.0,0.0,0.0,0.0
1565339596088097060,-0.0,-0.0,0.0,0.0,0.0,0.0
1565339596137512842,-0.0,-0.0,0.0,0.0,0.0,0.0
1565339596188602529,-0.0,-0.0,0.0,0.0,0.0,0.0
1565339596238167216,-0.0,-0.0,0.0,0.0,0.0,0.0
1565339596288812477,-0.0,-0.0,0.0,0.0,0.0,0.0
1565339596412702581,-0.0,0.641937553883,0.0,0.0,0.0,0.0
1565339596517399039,-0.0,1.0,0.0,0.0,0.0,0.0
1565339596576025237,-0.0,1.0,0.0,0.0,0.0,0.0
1565339596651131123,-0.0,1.0,0.0,0.0,0.0,0.0
1565339596667441643,-0.0,1.0,0.0,0.0,0.0,0.0
1565339596717239664,-0.0,1.0,0.0,0.0,0.0,0.0
1565339596767191904,-0.0,1.0,0.0,0.0,0.0,0.0
1565339596916780289,-0.0,-0.0,0.0,0.0,0.0,0.0
1565339596965913570,-0.0,-0.0,0.0,0.0,0.0,0.0
1565339597015730081,-0.0,-0.0,0.0,0.0,0.0,0.0
1565339597066286852,-0.0,-0.0,0.0,0.0,0.0,0.0
1565339597116915185,-0.0,-0.0,0.0,0.0,0.0,0.0
1565339597166458622,-0.0,-0.0,0.0,0.0,0.0,0.0
1565339597216892893,-0.0,-0.0,0.0,0.0,0.0,0.0
1565339597266953883,-0.0,-0.0,0.0,0.0,0.0,0.0
1565339597317060497,-0.0,-0.0,0.0,0.0,0.0,0.0
1565339597367399508,-0.0,-0.0,0.0,0.0,0.0,0.0
1565339597417091018,-0.0,-0.0,0.0,0.0,0.0,0.0
1565339597467460810,-0.0,-0.0,0.0,0.0,0.0,0.0
1565339597518380601,-0.0,-0.0,0.0,0.0,0.0,0.0
1565339597569824247,-0.0,-0.0,0.0,0.0,0.0,0.0
1565339597642743101,-0.0,-0.0,0.0,0.0,0.0,0.0
1565339597668785653,-0.0,-0.0,0.0,0.0,0.0,0.0
1565339597719189351,-0.0,-0.0,0.0,0.0,0.0,0.0
1565339597768803726,-0.0,-0.0,0.0,0.0,0.0,0.0
1565339597822512164,-0.0,-0.0,0.0,0.0,0.0,0.0
1565339597879609403,-0.0,-0.0,0.0,0.0,0.0,0.0
1565339597919720549,-0.0,-0.0,0.0,0.0,0.0,0.0
1565339597969583310,-0.0,-0.0,0.0,0.0,0.0,0.0
1565339598019721903,-0.0,-0.0,0.0,0.0,0.0,0.0
1565339598069886591,-0.0,-0.0,0.0,0.0,0.0,0.0
1565339598120797580,-0.0,-0.0,0.0,0.0,0.0,0.0
1565339598170730184,-0.0,-0.0,0.0,0.0,0.0,0.0
1565339598220850289,-0.0,-0.0,0.0,0.0,0.0,0.0
1565339598270898153,-0.0,-0.0,0.0,0.0,0.0,0.0
1565339598321454924,-0.0,-0.0,0.0,0.0,0.0,0.0
1565339598440521018,-0.0,0.0667439773679,0.0,0.0,0.0,0.0
1565339598545382059,-0.0,0.403186440468,0.0,0.0,0.0,0.0
1565339598648988205,-0.0,0.728738665581,0.0,0.0,0.0,0.0
1565339598768120653,-0.0,0.7938554883,0.0,0.0,0.0,0.0
1565339598892080340,-0.0,0.782997310162,0.0,0.0,0.0,0.0
1565339598996362111,-0.0,0.815571844578,0.0,0.0,0.0,0.0
1565339599046650601,-0.0,0.815571844578,0.0,0.0,0.0,0.0
1565339599096273205,-0.0,0.815571844578,0.0,0.0,0.0,0.0
1565339599244409194,-0.0,0.934947371483,0.0,0.0,0.0,0.0
1565339599364128934,-0.0,1.0,0.0,0.0,0.0,0.0
1565339599414008465,-0.0,1.0,0.0,0.0,0.0,0.0
1565339599464262840,-0.0,1.0,0.0,0.0,0.0,0.0
1565339599514640705,-0.0,1.0,0.0,0.0,0.0,0.0
1565339599565588413,-0.0,1.0,0.0,0.0,0.0,0.0
1565339599616181069,-0.0,1.0,0.0,0.0,0.0,0.0
1565339599667753517,-0.0,1.0,0.0,0.0,0.0,0.0
1565339599718174871,-0.0,1.0,0.0,0.0,0.0,0.0
1565339599766403882,-0.0,1.0,0.0,0.0,0.0,0.0
1565339599821022371,-0.0,1.0,0.0,0.0,0.0,0.0
1565339599869579611,-0.0,1.0,0.0,0.0,0.0,0.0
1565339599918078673,-0.0,1.0,0.0,0.0,0.0,0.0
1565339599966550757,-0.0,1.0,0.0,0.0,0.0,0.0
1565339600016457580,-0.0,1.0,0.0,0.0,0.0,0.0
1565339600066825809,-0.0,1.0,0.0,0.0,0.0,0.0
1565339600117825548,-0.0,1.0,0.0,0.0,0.0,0.0
1565339600167314507,-0.0,1.0,0.0,0.0,0.0,0.0
1565339600217152007,-0.0,1.0,0.0,0.0,0.0,0.0
1565339600267401902,-0.0,1.0,0.0,0.0,0.0,0.0
1565339600318273048,-0.0,1.0,0.0,0.0,0.0,0.0
1565339600368005079,-0.0,1.0,0.0,0.0,0.0,0.0
1565339600418242423,-0.0,1.0,0.0,0.0,0.0,0.0
1565339600469811382,-0.0,1.0,0.0,0.0,0.0,0.0
1565339600520726538,-0.0,1.0,0.0,0.0,0.0,0.0
1565339600568470756,-0.0,1.0,0.0,0.0,0.0,0.0
1565339600618617892,-0.0,1.0,0.0,0.0,0.0,0.0
1565339600668841486,-0.0,1.0,0.0,0.0,0.0,0.0
1565339600719078725,-0.0,1.0,0.0,0.0,0.0,0.0
1565339600768949246,-0.0,1.0,0.0,0.0,0.0,0.0
1565339600820006954,-0.0,1.0,0.0,0.0,0.0,0.0
1565339600869612631,-0.0,1.0,0.0,0.0,0.0,0.0
1565339600919851746,-0.0,1.0,0.0,0.0,0.0,0.0
1565339600970288673,-0.0,1.0,0.0,0.0,0.0,0.0
1565339601019829871,-0.0,1.0,0.0,0.0,0.0,0.0
1565339601070368517,-0.0,1.0,0.0,0.0,0.0,0.0
1565339601120657944,-0.0,1.0,0.0,0.0,0.0,0.0
1565339601173067475,-0.0,1.0,0.0,0.0,0.0,0.0
1565339601221179767,-0.0,1.0,0.0,0.0,0.0,0.0
1565339601278933777,-0.0,1.0,0.0,0.0,0.0,0.0
1565339601323615756,-0.0,1.0,0.0,0.0,0.0,0.0
1565339601371707996,-0.0,1.0,0.0,0.0,0.0,0.0
1565339601421104246,-0.0,1.0,0.0,0.0,0.0,0.0
1565339601471441798,-0.0,1.0,0.0,0.0,0.0,0.0
1565339601522745392,-0.0,1.0,0.0,0.0,0.0,0.0
1565339601580262162,-0.0,1.0,0.0,0.0,0.0,0.0
1565339601646930235,-0.0,1.0,0.0,0.0,0.0,0.0
1565339601672934402,-0.0,1.0,0.0,0.0,0.0,0.0
1565339601722889975,-0.0,1.0,0.0,0.0,0.0,0.0
1565339601773524975,-0.0,1.0,0.0,0.0,0.0,0.0
1565339601824981798,-0.0,1.0,0.0,0.0,0.0,0.0
1565339601875516641,-0.0,1.0,0.0,0.0,0.0,0.0
1565339601923815496,-0.0,1.0,0.0,0.0,0.0,0.0
1565339601974088777,-0.0,1.0,0.0,0.0,0.0,0.0
1565339602125176016,-0.0,-0.0,0.0,0.0,0.0,0.0
1565339602174091120,-0.0,-0.0,0.0,0.0,0.0,0.0
1565339602224655287,-0.0,-0.0,0.0,0.0,0.0,0.0
1565339602274327110,-0.0,-0.0,0.0,0.0,0.0,0.0
1565339602324373516,-0.0,-0.0,0.0,0.0,0.0,0.0
1565339602374588881,-0.0,-0.0,0.0,0.0,0.0,0.0
1565339602425027579,-0.0,-0.0,0.0,0.0,0.0,0.0
1565339602475488412,-0.0,-0.0,0.0,0.0,0.0,0.0
1565339602525272058,-0.0,-0.0,0.0,0.0,0.0,0.0
1565339602575699089,-0.0,-0.0,0.0,0.0,0.0,0.0
1565339602625933516,-0.0,-0.0,0.0,0.0,0.0,0.0
1565339602675966797,-0.0,-0.0,0.0,0.0,0.0,0.0
1565339602747369870,-0.0,-0.0,0.0,0.0,0.0,0.0
1565339602776380287,-0.0,-0.0,0.0,0.0,0.0,0.0
1565339602826572683,-0.0,-0.0,0.0,0.0,0.0,0.0
1565339602876654089,-0.0,-0.0,0.0,0.0,0.0,0.0
1565339602926846797,-0.0,-0.0,0.0,0.0,0.0,0.0
1565339602977057006,-0.0,-0.0,0.0,0.0,0.0,0.0
1565339603027741172,-0.0,-0.0,0.0,0.0,0.0,0.0
1565339603078755287,-0.0,-0.0,0.0,0.0,0.0,0.0
1565339603130087474,-0.0,-0.0,0.0,0.0,0.0,0.0
1565339603177728360,-0.0,-0.0,0.0,0.0,0.0,0.0
1565339603227960130,-0.0,-0.0,0.0,0.0,0.0,0.0
1565339603278311172,-0.0,-0.0,0.0,0.0,0.0,0.0
1565339603327965443,-0.0,-0.0,0.0,0.0,0.0,0.0
1565339603378958412,-0.0,-0.0,0.0,0.0,0.0,0.0
1565339603428473464,-0.0,-0.0,0.0,0.0,0.0,0.0
1565339603478626745,-0.0,-0.0,0.0,0.0,0.0,0.0
1565339603528847474,-0.0,-0.0,0.0,0.0,0.0,0.0
1565339603579752891,-0.0,-0.0,0.0,0.0,0.0,0.0
1565339603629470078,-0.0,-0.0,0.0,0.0,0.0,0.0
1565339603679503724,-0.0,-0.0,0.0,0.0,0.0,0.0
1565339603730085130,-0.0,-0.0,0.0,0.0,0.0,0.0
1565339603780034089,-0.0,-0.0,0.0,0.0,0.0,0.0
1565339603838636432,-0.0,-0.0,0.0,0.0,0.0,0.0
1565339603882914193,-0.0,-0.0,0.0,0.0,0.0,0.0
1565339603930550964,-0.0,-0.0,0.0,0.0,0.0,0.0
1565339603980591797,-0.0,-0.0,0.0,0.0,0.0,0.0
1565339604032315286,-0.0,-0.0,0.0,0.0,0.0,0.0
1565339604081177266,-0.0,-0.0,0.0,0.0,0.0,0.0
1565339604131528463,-0.0,-0.0,0.0,0.0,0.0,0.0
1565339604182822578,-0.0,-0.0,0.0,0.0,0.0,0.0
1565339604231270703,-0.0,-0.0,0.0,0.0,0.0,0.0
1565339604281554713,-0.0,-0.0,0.0,0.0,0.0,0.0
1565339604332309818,-0.0,-0.0,0.0,0.0,0.0,0.0
1565339604440369609,-0.0,0.381470113993,0.0,0.0,0.0,0.0
1565339604543952370,-0.0,0.544246196747,0.0,0.0,0.0,0.0
1565339604649596484,-0.0,0.707054436207,0.0,0.0,0.0,0.0
1565339604787458359,-0.0,0.880688667297,0.0,0.0,0.0,0.0
1565339604890313307,-0.0,1.0,0.0,0.0,0.0,0.0
1565339604938097994,-0.0,1.0,0.0,0.0,0.0,0.0
1565339604988643099,-0.0,1.0,0.0,0.0,0.0,0.0
1565339605038982786,-0.0,1.0,0.0,0.0,0.0,0.0
1565339605088549349,-0.0,1.0,0.0,0.0,0.0,0.0
1565339605228082005,-0.0,-0.0,0.0,0.0,0.0,0.0
1565339605279581640,-0.0,-0.0,0.0,0.0,0.0,0.0
1565339605330037265,-0.0,-0.0,0.0,0.0,0.0,0.0
1565339605382390182,-0.0,-0.0,0.0,0.0,0.0,0.0
1565339605429460338,-0.0,-0.0,0.0,0.0,0.0,0.0
1565339605479195911,-0.0,-0.0,0.0,0.0,0.0,0.0
1565339605529372161,-0.0,-0.0,0.0,0.0,0.0,0.0
1565339605581641848,-0.0,-0.0,0.0,0.0,0.0,0.0
1565339605637876848,-0.0,-0.0,0.0,0.0,0.0,0.0
1565339605680767525,-0.0,-0.0,0.0,0.0,0.0,0.0
1565339605730723202,-0.0,-0.0,0.0,0.0,0.0,0.0
1565339605780878567,-0.0,-0.0,0.0,0.0,0.0,0.0
1565339605841842213,-0.0,-0.0,0.0,0.0,0.0,0.0
1565339605883259557,-0.0,-0.0,0.0,0.0,0.0,0.0
1565339605930908567,-0.0,-0.0,0.0,0.0,0.0,0.0
1565339605981617994,-0.0,-0.0,0.0,0.0,0.0,0.0
1565339606033098567,-0.0,-0.0,0.0,0.0,0.0,0.0
1565339606081947786,-0.0,-0.0,0.0,0.0,0.0,0.0
1565339606131512734,-0.0,-0.0,0.0,0.0,0.0,0.0
1565339606182469296,-0.0,-0.0,0.0,0.0,0.0,0.0
1565339606231708306,-0.0,-0.0,0.0,0.0,0.0,0.0
1565339606281894713,-0.0,-0.0,0.0,0.0,0.0,0.0
1565339606331907629,-0.0,-0.0,0.0,0.0,0.0,0.0
1565339606382808463,-0.0,-0.0,0.0,0.0,0.0,0.0
1565339606432444817,-0.0,-0.0,0.0,0.0,0.0,0.0
1565339606536169140,-0.0,-0.0,0.0,0.0,0.0,0.0
1565339606671486327,-0.0,-0.0,0.0,0.0,0.0,0.0
1565339606706623567,-0.0,-0.0,0.0,0.0,0.0,0.0
1565339606756930285,-0.0,-0.0,0.0,0.0,0.0,0.0
1565339606807082629,-0.0,-0.0,0.0,0.0,0.0,0.0
1565339606856775494,-0.0,-0.0,0.0,0.0,0.0,0.0
1565339606906899139,-0.0,-0.0,0.0,0.0,0.0,0.0
1565339606956790181,-0.0,-0.0,0.0,0.0,0.0,0.0
1565339607007376119,-0.0,-0.0,0.0,0.0,0.0,0.0
1565339607057632889,-0.0,-0.0,0.0,0.0,0.0,0.0
1565339607181296327,-0.0,-0.555072247982,0.0,0.0,0.0,0.0
1565339607288428879,-0.0,-0.576788604259,0.0,0.0,0.0,0.0
1565339607338156379,-0.0,-0.576788604259,0.0,0.0,0.0,0.0
1565339607456569816,-0.0,-0.598472774029,0.0,0.0,0.0,0.0
1565339607589827889,-0.0,-0.598472774029,0.0,0.0,0.0,0.0
1565339607664791848,-0.0,-0.587646722794,0.0,0.0,0.0,0.0
1565339607772749556,-0.0,-0.598472774029,0.0,0.0,0.0,0.0
1565339607884040545,-0.0,-0.598472774029,0.0,0.0,0.0,0.0
1565339607991281847,-0.0,-0.945741295815,0.0,0.0,0.0,0.0
1565339608093086795,-0.0,-1.0,0.0,0.0,0.0,0.0
1565339608211939972,-0.0,-1.0,0.0,0.0,0.0,0.0
1565339608262147837,-0.0,-1.0,0.0,0.0,0.0,0.0
1565339608312515129,-0.0,-1.0,0.0,0.0,0.0,0.0
1565339608362819451,-0.0,-1.0,0.0,0.0,0.0,0.0
1565339608412964816,-0.0,-1.0,0.0,0.0,0.0,0.0
1565339608463396743,-0.0,-1.0,0.0,0.0,0.0,0.0
1565339608513754868,-0.0,-1.0,0.0,0.0,0.0,0.0
1565339608563701639,-0.0,-1.0,0.0,0.0,0.0,0.0
1565339608613332472,-0.0,-1.0,0.0,0.0,0.0,0.0
1565339608663759451,-0.0,-1.0,0.0,0.0,0.0,0.0
1565339608714165233,-0.0,-1.0,0.0,0.0,0.0,0.0
1565339608763840285,-0.0,-1.0,0.0,0.0,0.0,0.0
1565339608814957941,-0.0,-1.0,0.0,0.0,0.0,0.0
1565339608883897003,-0.0,-1.0,0.0,0.0,0.0,0.0
1565339608916618826,-0.0,-1.0,0.0,0.0,0.0,0.0
1565339608965829503,-0.0,-1.0,0.0,0.0,0.0,0.0
1565339609016194607,-0.0,-1.0,0.0,0.0,0.0,0.0
1565339609066502107,-0.0,-1.0,0.0,0.0,0.0,0.0
1565339609116917680,-0.0,-1.0,0.0,0.0,0.0,0.0
1565339609168103878,-0.0,-1.0,0.0,0.0,0.0,0.0
1565339609216451795,-0.0,-1.0,0.0,0.0,0.0,0.0
1565339609266441534,-0.0,-1.0,0.0,0.0,0.0,0.0
1565339609317091951,-0.0,-1.0,0.0,0.0,0.0,0.0
1565339609366377211,-0.0,-1.0,0.0,0.0,0.0,0.0
1565339609416379086,-0.0,-1.0,0.0,0.0,0.0,0.0
1565339609467118930,-0.0,-1.0,0.0,0.0,0.0,0.0
1565339609516909451,-0.0,-1.0,0.0,0.0,0.0,0.0
1565339609567061013,-0.0,-1.0,0.0,0.0,0.0,0.0
1565339609617259659,-0.0,-1.0,0.0,0.0,0.0,0.0
1565339609667611222,-0.0,-1.0,0.0,0.0,0.0,0.0
1565339609717465076,-0.0,-1.0,0.0,0.0,0.0,0.0
1565339609768068461,-0.0,-1.0,0.0,0.0,0.0,0.0
1565339609828452628,-0.0,-1.0,0.0,0.0,0.0,0.0
1565339609868518878,-0.0,-1.0,0.0,0.0,0.0,0.0
1565339609918980857,-0.0,-1.0,0.0,0.0,0.0,0.0
1565339609968100492,-0.0,-1.0,0.0,0.0,0.0,0.0
1565339610018490909,-0.0,-1.0,0.0,0.0,0.0,0.0
1565339610148554815,-0.0,-0.0,0.0,0.0,0.0,0.0
1565339610199407472,-0.0,-0.0,0.0,0.0,0.0,0.0
1565339610249607576,-0.0,-0.0,0.0,0.0,0.0,0.0
1565339610373024919,-0.0,-0.0,0.0,0.0,0.0,0.201577171683
1565339610476439867,-0.0,-0.0,0.0,0.0,0.0,0.348082065582
1565339610604963096,-0.0,-0.0,0.0,0.0,0.0,0.212419271469
1565339610720920180,-0.0,-0.0,0.0,0.0,0.0,0.0
1565339610771115232,-0.0,-0.0,0.0,0.0,0.0,0.0
1565339610821341742,-0.0,-0.0,0.0,0.0,0.0,0.0
1565339610872195128,-0.0,-0.0,0.0,0.0,0.0,0.0
1565339610921687003,-0.0,-0.0,0.0,0.0,0.0,0.0
1565339610972034503,-0.0,-0.0,0.0,0.0,0.0,0.0
1565339611072554711,-0.0,-0.0,0.0,0.0,0.0,0.158160567284
1565339611216212315,-0.0,-0.0,0.0,0.0,0.0,0.152731493115
1565339611266747940,-0.0,-0.0,0.0,0.0,0.0,0.152731493115
1565339611372851169,-0.0,-0.0,0.0,0.0,0.0,0.190718993545
1565339611476564919,-0.0,-0.0,0.0,0.0,0.0,0.228706508875
1565339611582394971,-0.0,-0.0,0.0,0.0,0.0,0.0
1565339611641036221,-0.0,-0.0,0.0,0.0,0.0,0.0
1565339611687230179,-0.0,-0.0,0.0,0.0,0.0,0.0
1565339611731286794,-0.0,-0.0,0.0,0.0,0.0,0.0
1565339611781580804,-0.0,-0.0,0.0,0.0,0.0,0.0
1565339611844463877,-0.0,-0.0,0.0,0.0,0.0,0.0
1565339611888008304,-0.0,-0.0,0.0,0.0,0.0,0.0
1565339611932090492,-0.0,-0.0,0.0,0.0,0.0,0.0
1565339611982793565,-0.0,-0.0,0.0,0.0,0.0,0.0
1565339612034026065,-0.0,-0.0,0.0,0.0,0.0,0.0
1565339612084183252,-0.0,-0.0,0.0,0.0,0.0,0.0
1565339612135975440,-0.0,-0.0,0.0,0.0,0.0,0.0
1565339612182891794,-0.0,-0.0,0.0,0.0,0.0,0.0
1565339612233592940,-0.0,-0.0,0.0,0.0,0.0,0.0
1565339612283673565,-0.0,-0.0,0.0,0.0,0.0,0.0
1565339612333420908,-0.0,-0.0,0.0,0.0,0.0,0.0
1565339612383810908,-0.0,-0.0,0.0,0.0,0.0,0.0
1565339612433575648,-0.0,-0.0,0.0,0.0,0.0,0.0
1565339612484082158,-0.0,-0.0,0.0,0.0,0.0,0.0
1565339612534174919,-0.0,-0.0,0.0,0.0,0.0,0.0
1565339612583885856,-0.0,-0.0,0.0,0.0,0.0,0.0
1565339612709415023,-0.0,-0.0,0.0,0.0,0.0,0.304665476084
1565339612812242314,-0.0,-0.0,0.0,0.0,0.0,0.358924180269
1565339612917658043,-0.0,-0.0,0.0,0.0,0.0,0.103901870549
1565339613020159970,-0.0,-0.0,0.0,0.0,0.0,0.0
1565339613070744606,-0.0,-0.0,0.0,0.0,0.0,0.0
1565339613120636898,-0.0,-0.0,0.0,0.0,0.0,0.0
1565339613171213043,-0.0,-0.0,0.0,0.0,0.0,0.0
1565339613220709554,-0.0,-0.0,0.0,0.0,0.0,0.0
1565339613271074970,-0.0,-0.0,0.0,0.0,0.0,0.0
1565339613321068616,-0.0,-0.0,0.0,0.0,0.0,0.0
1565339613371617627,-0.0,-0.0,0.0,0.0,0.0,0.0
1565339613421267991,-0.0,-0.0,0.0,0.0,0.0,0.0
1565339613471455752,-0.0,-0.0,0.0,0.0,0.0,0.0
1565339613522030127,-0.0,-0.0,0.0,0.0,0.0,0.0
1565339613572079762,-0.0,-0.0,0.0,0.0,0.0,0.0
1565339613622929606,-0.0,-0.0,0.0,0.0,0.0,0.0
1565339613672337314,-0.0,-0.0,0.0,0.0,0.0,0.0
1565339613722878460,-0.0,-0.0,0.0,0.0,0.0,0.0
1565339613834144970,-0.0,-0.110144510865,0.0,0.0,0.0,0.0
1565339613946593303,-0.0,-0.446554869413,0.0,0.0,0.0,0.0
1565339614037661012,-0.0,-0.685305953026,0.0,0.0,0.0,0.0
1565339614086618668,-0.0,-0.685305953026,0.0,0.0,0.0,0.0
1565339614137777783,-0.0,-0.685305953026,0.0,0.0,0.0,0.0
1565339614187527522,-0.0,-0.685305953026,0.0,0.0,0.0,0.0
1565339614237644085,-0.0,-0.685305953026,0.0,0.0,0.0,0.0
1565339614287336845,-0.0,-0.685305953026,0.0,0.0,0.0,0.0
1565339614337770751,-0.0,-0.685305953026,0.0,0.0,0.0,0.0
1565339614464126480,-0.0,-0.685305953026,0.0,0.0,0.0,0.0
1565339614576496428,-0.0,-0.685305953026,0.0,0.0,0.0,0.0
1565339614683878459,-0.0,-0.696164131165,0.0,0.0,0.0,0.0
1565339614734251584,-0.0,-0.696164131165,0.0,0.0,0.0,0.0
1565339614860348668,-0.0,-0.772107064724,0.0,0.0,0.0,0.0
1565339614964373095,-0.0,-0.772107064724,0.0,0.0,0.0,0.0
1565339615104361480,-0.0,-1.0,0.0,0.0,0.0,0.0
1565339615235917313,-0.0,-1.0,0.0,0.0,0.0,0.0
1565339615286929345,-0.0,-1.0,0.0,0.0,0.0,0.0
1565339615337195490,-0.0,-1.0,0.0,0.0,0.0,0.0
1565339615387350647,-0.0,-1.0,0.0,0.0,0.0,0.0
1565339615438069813,-0.0,-1.0,0.0,0.0,0.0,0.0
1565339615548514761,-0.0,-1.0,0.0,0.0,0.0,0.0
1565339615598920959,-0.0,-1.0,0.0,0.0,0.0,0.0
1565339615720527574,-0.0,-1.0,0.0,0.0,0.0,0.0
1565339615771076167,-0.0,-1.0,0.0,0.0,0.0,0.0
1565339615825325126,-0.0,-1.0,0.0,0.0,0.0,0.0
1565339615874949969,-0.0,-1.0,0.0,0.0,0.0,0.0
1565339616016713042,-0.0,-1.0,0.0,0.0,0.0,0.0
1565339616121195230,-0.0,-1.0,0.0,0.0,0.0,0.0
1565339616240292000,-0.0,-0.0,0.0,0.0,0.0,0.0
