%time,field.header.seq,field.header.stamp,field.header.frame_id,field.pose.position.x,field.pose.position.y,field.pose.position.z,field.pose.orientation.x,field.pose.orientation.y,field.pose.orientation.z,field.pose.orientation.w
1565339540043515415,18902,1565339539988396499,map,1.51124763489,0.186917304993,0.0,0.0,0.0,-0.531373745186,0.847137499422
1565339540110375467,18903,1565339540054966552,map,1.50932884216,0.186894416809,0.0,0.0,0.0,-0.534744090493,0.845014057684
1565339540176909373,18904,1565339540121909937,map,1.50788593292,0.187417984009,0.0,0.0,0.0,-0.538642398046,0.842534490111
1565339540243458332,18905,1565339540188394051,map,1.50721168518,0.187662124634,0.0,0.0,0.0,-0.542164446493,0.840272404021
1565339540310249321,18906,1565339540255026239,map,1.50535583496,0.188639640808,0.0,0.0,0.0,-0.545872977923,0.837867944233
1565339540383364477,18907,1565339540323570718,map,1.50287342072,0.188341140747,0.0,0.0,0.0,-0.549147106411,0.835725705911
1565339540450808904,18908,1565339540390998114,map,1.50153636932,0.188535690308,0.0,0.0,0.0,-0.552915337764,0.833237438708
1565339540516884686,18909,1565339540456859208,map,1.49967193604,0.188257217407,0.0,0.0,0.0,-0.556086288856,0.831124563075
1565339540583187238,18910,1565339540523543947,map,1.49766540527,0.188081741333,0.0,0.0,0.0,-0.559436720535,0.828873063694
1565339540649641821,18911,1565339540590250874,map,1.49509429932,0.187829971313,0.0,0.0,0.0,-0.562889577823,0.826532106563
1565339540716744998,18912,1565339540656898114,map,1.49200725555,0.188672065735,0.0,0.0,0.0,-0.565943311758,0.824444156918
1565339540783594269,18913,1565339540723490718,map,1.49019432068,0.187397956848,0.0,0.0,0.0,-0.569724307003,0.821835880216
1565339540850008436,18914,1565339540790270978,map,1.48633098602,0.185745239258,0.0,0.0,0.0,-0.572737755083,0.819738655854
1565339540917729685,18915,1565339540856928166,map,1.48313426971,0.185574531555,0.0,0.0,0.0,-0.576033904799,0.817425801233
1565339540983451404,18916,1565339540923889989,map,1.47939014435,0.184788703918,0.0,0.0,0.0,-0.579255999408,0.815145684617
1565339541051894685,18917,1565339540990538478,map,1.47544384003,0.183626174927,0.0,0.0,0.0,-0.58236518759,0.812927295816
1565339541117270623,18918,1565339541056893478,map,1.470911026,0.183123588562,0.0,0.0,0.0,-0.585627068367,0.810580617086
1565339541184938279,18919,1565339541124378530,map,1.46603965759,0.181495666504,0.0,0.0,0.0,-0.58905675827,0.808091662831
1565339541251420415,18920,1565339541190863999,map,1.46011066437,0.180509567261,0.0,0.0,0.0,-0.592142967079,0.805832927187
1565339541321202185,18921,1565339541257532593,map,1.45349597931,0.178289413452,0.0,0.0,0.0,-0.594849544448,0.803837060274
1565339541383068331,18922,1565339541323544832,map,1.4460144043,0.177537918091,0.0,0.0,0.0,-0.597878541883,0.801586707197
1565339541451031821,18923,1565339541390294936,map,1.43789482117,0.17539024353,0.0,0.0,0.0,-0.600924753345,0.799305599141
1565339541518704217,18924,1565339541456876134,map,1.42787742615,0.172983169556,0.0,0.0,0.0,-0.603702088473,0.79721000268
1565339541583873644,18925,1565339541523594728,map,1.41697120667,0.171252250671,0.0,0.0,0.0,-0.607198854416,0.794549904786
1565339541650323019,18926,1565339541590480666,map,1.40472602844,0.168243408203,0.0,0.0,0.0,-0.610353261521,0.792129343069
1565339541717423435,18927,1565339541656843270,map,1.39089679718,0.164594650269,0.0,0.0,0.0,-0.613627734748,0.789595468039
1565339541783530362,18928,1565339541723808999,map,1.37558555603,0.162149429321,0.0,0.0,0.0,-0.617350568083,0.786688169536
1565339541850941664,18929,1565339541790341082,map,1.35957813263,0.159993171692,0.0,0.0,0.0,-0.620790880621,0.783976200237
1565339541917894737,18930,1565339541857005457,map,1.34420776367,0.156913757324,0.0,0.0,0.0,-0.624511298684,0.78101577309
1565339541985019998,18931,1565339541923967540,map,1.32643127441,0.154264450073,0.0,0.0,0.0,-0.628128184777,0.778109878802
1565339542050918539,18932,1565339541990291082,map,1.30854606628,0.151761054993,0.0,0.0,0.0,-0.631332071954,0.77551261429
1565339542120296820,18933,1565339542056829155,map,1.29070281982,0.149004936218,0.0,0.0,0.0,-0.634881354443,0.772609646445
1565339542184425466,18934,1565339542123524988,map,1.27108192444,0.14706993103,0.0,0.0,0.0,-0.638103252634,0.76995080296
1565339542250219060,18935,1565339542190198426,map,1.25368976593,0.145805358887,0.0,0.0,0.0,-0.641626230162,0.767017457929
1565339542318033539,18936,1565339542257433842,map,1.23325157166,0.144085884094,0.0,0.0,0.0,-0.645102203814,0.764096294085
1565339542384635727,18937,1565339542323996915,map,1.21326160431,0.142641067505,0.0,0.0,0.0,-0.648267755096,0.761412449138
1565339542450646143,18938,1565339542390507384,map,1.19271373749,0.140472412109,0.0,0.0,0.0,-0.651373117727,0.758757577558
1565339542517837081,18939,1565339542456909884,map,1.17207813263,0.138425827026,0.0,0.0,0.0,-0.654420557216,0.75613076534
1565339542587639841,18940,1565339542524146759,map,1.15305042267,0.137637138367,0.0,0.0,0.0,-0.657825061495,0.753170756515
1565339542652024424,18941,1565339542591074832,map,1.13367176056,0.134776115417,0.0,0.0,0.0,-0.660754771257,0.750601846694
1565339542717817029,18942,1565339542657595457,map,1.11304473877,0.129511833191,0.0,0.0,0.0,-0.662993620568,0.748625045724
1565339542784185154,18943,1565339542723550196,map,1.09577655792,0.126910209656,0.0,0.0,0.0,-0.666155269446,0.745813084486
1565339542850086039,18944,1565339542790362071,map,1.07859611511,0.125135421753,0.0,0.0,0.0,-0.669032325321,0.743233306355
1565339542917078799,18945,1565339542856981707,map,1.06304645538,0.124969482422,0.0,0.0,0.0,-0.671677749101,0.740843439171
1565339542983726716,18946,1565339542923914363,map,1.04838752747,0.124285697937,0.0,0.0,0.0,-0.674429594264,0.73833916487
1565339543051844685,18947,1565339542990791967,map,1.03356933594,0.124063491821,0.0,0.0,0.0,-0.677366284747,0.73564591774
1565339543117516560,18948,1565339543056833946,map,1.02079296112,0.126757621765,0.0,0.0,0.0,-0.679939852175,0.733267889263
1565339543184074216,18949,1565339543123716655,map,1.0082950592,0.128160476685,0.0,0.0,0.0,-0.682727912264,0.730672702252
1565339543250048539,18950,1565339543190261498,map,0.995142936707,0.128816604614,0.0,0.0,0.0,-0.685742800398,0.727843947356
1565339543318229424,18951,1565339543257677071,map,0.982292175293,0.127911567688,0.0,0.0,0.0,-0.68848681591,0.72524885682
1565339543385052341,18952,1565339543324269779,map,0.969975471497,0.126948356628,0.0,0.0,0.0,-0.691151918668,0.72270950272
1565339543451127497,18953,1565339543390811811,map,0.957028388977,0.12576007843,0.0,0.0,0.0,-0.693761638651,0.720204685305
1565339543517718226,18954,1565339543457771498,map,0.944894790649,0.12523651123,0.0,0.0,0.0,-0.696285790485,0.717764653608
1565339543584588018,18955,1565339543524094988,map,0.932619094849,0.123997688293,0.0,0.0,0.0,-0.698883387872,0.715235632612
1565339543651287132,18956,1565339543591088581,map,0.920573234558,0.122738838196,0.0,0.0,0.0,-0.701520225166,0.712649544785
1565339543716929997,18957,1565339543657182852,map,0.90914440155,0.120242118835,0.0,0.0,0.0,-0.70448396261,0.709719907023
1565339543783885101,18958,1565339543723463477,map,0.897682189941,0.119402885437,0.0,0.0,0.0,-0.706897717378,0.707315783201
1565339543850819111,18959,1565339543790193581,map,0.88751411438,0.117777824402,0.0,0.0,0.0,-0.709751178062,0.704452457756
1565339543917009684,18960,1565339543856798061,map,0.876710891724,0.118021965027,0.0,0.0,0.0,-0.712617461657,0.701552815789
1565339543984347705,18961,1565339543924334363,map,0.867594718933,0.118777275085,0.0,0.0,0.0,-0.715521035171,0.698591188198
1565339544052369684,18962,1565339543991014258,map,0.857930183411,0.11856842041,0.0,0.0,0.0,-0.718427558165,0.695601785269
1565339544118953226,18963,1565339544057673633,map,0.848754882812,0.118469238281,0.0,0.0,0.0,-0.721107385216,0.692823310078
1565339544184364788,18964,1565339544123530196,map,0.839319229126,0.118026733398,0.0,0.0,0.0,-0.723934877597,0.689868315694
1565339544249765934,18965,1565339544190237019,map,0.830551147461,0.117639541626,0.0,0.0,0.0,-0.726772533291,0.686878216901
1565339544316959320,18966,1565339544256844258,map,0.822744369507,0.117978096008,0.0,0.0,0.0,-0.729522995163,0.683956284808
1565339544384522809,18967,1565339544323685456,map,0.81433391571,0.118069648743,0.0,0.0,0.0,-0.732163956275,0.681128432186
1565339544450420830,18968,1565339544390211498,map,0.806474685669,0.117449760437,0.0,0.0,0.0,-0.735241751745,0.677804961985
1565339544517478747,18969,1565339544456878581,map,0.798919677734,0.117955207825,0.0,0.0,0.0,-0.737847282344,0.674967693995
1565339544584695569,18970,1565339544523543529,map,0.791753768921,0.116455078125,0.0,0.0,0.0,-0.739981464076,0.672627261434
1565339544649684684,18971,1565339544590236654,map,0.785098075867,0.114196777344,0.0,0.0,0.0,-0.74259320233,0.669742738559
1565339544716843434,18972,1565339544656807071,map,0.777384757996,0.113146781921,0.0,0.0,0.0,-0.745473928216,0.666534787052
1565339544783024267,18973,1565339544723527227,map,0.772407531738,0.111808776855,0.0,0.0,0.0,-0.747589120548,0.664161506591
1565339544850312653,18974,1565339544790910560,map,0.767178535461,0.111598014832,0.0,0.0,0.0,-0.750334317598,0.661058554014
1565339544917876819,18975,1565339544856845508,map,0.762484550476,0.110290527344,0.0,0.0,0.0,-0.752509334128,0.658581583443
1565339544984807184,18976,1565339544923927279,map,0.75772857666,0.110433578491,0.0,0.0,0.0,-0.75462251725,0.656159170064
1565339545053767080,18977,1565339544990378998,map,0.752998352051,0.109937667847,0.0,0.0,0.0,-0.756727902383,0.653729976179
1565339545118351871,18978,1565339545057017383,map,0.748812675476,0.109521865845,0.0,0.0,0.0,-0.759198482485,0.650859173856
1565339545184276559,18979,1565339545123518841,map,0.744348526001,0.109420776367,0.0,0.0,0.0,-0.761498096557,0.648167145835
1565339545251142132,18980,1565339545190262695,map,0.740692138672,0.108076095581,0.0,0.0,0.0,-0.763683816772,0.645590449125
1565339545317806871,18981,1565339545256855039,map,0.736676216125,0.10715007782,0.0,0.0,0.0,-0.765905581315,0.642953062447
1565339545383802340,18982,1565339545324039883,map,0.733200073242,0.10525226593,0.0,0.0,0.0,-0.768076254157,0.640358390123
1565339545450300882,18983,1565339545390786550,map,0.730847358704,0.102444648743,0.0,0.0,0.0,-0.770988288791,0.636849321698
1565339545519147444,18984,1565339545457465664,map,0.728551864624,0.0996189117432,0.0,0.0,0.0,-0.773454527623,0.633851791588
1565339545584093746,18985,1565339545524478997,map,0.726762771606,0.0980911254883,0.0,0.0,0.0,-0.77585180487,0.630915189927
1565339545651225673,18986,1565339545591084258,map,0.725567817688,0.0965938568115,0.0,0.0,0.0,-0.77817324969,0.628049674362
1565339545717435465,18987,1565339545656990820,map,0.724108695984,0.0966739654541,0.0,0.0,0.0,-0.780678141159,0.624933308375
1565339545784218642,18988,1565339545724197643,map,0.723501205444,0.096287727356,0.0,0.0,0.0,-0.783163139964,0.621816288144
1565339545850042236,18989,1565339545790424935,map,0.722261428833,0.0949268341064,0.0,0.0,0.0,-0.785471638055,0.618897653745
1565339545918527131,18990,1565339545856923997,map,0.720804214478,0.0942897796631,0.0,0.0,0.0,-0.787690095859,0.616071678367
1565339545984781611,18991,1565339545924077018,map,0.71893787384,0.0939636230469,0.0,0.0,0.0,-0.789985517962,0.613125502169
1565339546050955100,18992,1565339545990523424,map,0.716547966003,0.0913524627686,0.0,0.0,0.0,-0.792136209117,0.610344350515
1565339546118139631,18993,1565339546056890403,map,0.714811325073,0.0916118621826,0.0,0.0,0.0,-0.794220178708,0.607630074743
1565339546183081298,18994,1565339546123523424,map,0.710939407349,0.0903186798096,0.0,0.0,0.0,-0.796626437443,0.604471934143
1565339546250335986,18995,1565339546190464101,map,0.70827293396,0.087290763855,0.0,0.0,0.0,-0.798593291484,0.601871044989
1565339546317319111,18996,1565339546257182226,map,0.70534992218,0.0852603912354,0.0,0.0,0.0,-0.80070721853,0.599055882364
1565339546384085829,18997,1565339546323606966,map,0.703473091125,0.0837078094482,0.0,0.0,0.0,-0.80296045734,0.596032301095
1565339546449714267,18998,1565339546390353268,map,0.70122718811,0.0811338424683,0.0,0.0,0.0,-0.804571400283,0.593855926843
1565339546518451715,18999,1565339546457060716,map,0.698641777039,0.080304145813,0.0,0.0,0.0,-0.805588646804,0.592475258673
1565339546584604006,19000,1565339546524111757,map,0.696970939636,0.0799922943115,0.0,0.0,0.0,-0.805683137563,0.592346758113
1565339546650272235,19001,1565339546590451393,map,0.695439338684,0.0796232223511,0.0,0.0,0.0,-0.804793068323,0.593555487869
1565339546716969475,19002,1565339546656994205,map,0.692675590515,0.0768918991089,0.0,0.0,0.0,-0.803131092734,0.595802356394
1565339546785406975,19003,1565339546724161445,map,0.691299438477,0.0787677764893,0.0,0.0,0.0,-0.800555797346,0.599258220917
1565339546850775308,19004,1565339546791311341,map,0.68758392334,0.0746049880981,0.0,0.0,0.0,-0.796871803601,0.604148432611
1565339546918850256,19005,1565339546858311705,map,0.685404777527,0.0742282867432,0.0,0.0,0.0,-0.79335464393,0.60875973007
1565339546983734944,19006,1565339546924017695,map,0.683504104614,0.0718860626221,0.0,0.0,0.0,-0.790063571952,0.613024919782
1565339547051406975,19007,1565339546990520507,map,0.680868148804,0.0695114135742,0.0,0.0,0.0,-0.786759724529,0.617259374866
1565339547116368641,19008,1565339547056840247,map,0.677688598633,0.066499710083,0.0,0.0,0.0,-0.783422810111,0.621489099339
1565339547183391350,19009,1565339547123579205,map,0.675382614136,0.0654735565186,0.0,0.0,0.0,-0.779917536881,0.62588228579
1565339547249736662,19010,1565339547190364309,map,0.672238349915,0.063985824585,0.0,0.0,0.0,-0.776873203358,0.629657070082
1565339547317397704,19011,1565339547257174726,map,0.670059204102,0.0624828338623,0.0,0.0,0.0,-0.773630403895,0.63363711868
1565339547383552964,19012,1565339547323501601,map,0.666997909546,0.0641250610352,0.0,0.0,0.0,-0.770492308386,0.637449294233
1565339547449594162,19013,1565339547390234726,map,0.664995193481,0.0621671676636,0.0,0.0,0.0,-0.767486457057,0.641065159118
1565339547516393433,19014,1565339547456836601,map,0.661787033081,0.0614652633667,0.0,0.0,0.0,-0.764486230405,0.644640057336
1565339547583192183,19015,1565339547523554934,map,0.659754753113,0.0597629547119,0.0,0.0,0.0,-0.761602552387,0.648044406038
1565339547649680985,19016,1565339547590295455,map,0.656921386719,0.0587825775146,0.0,0.0,0.0,-0.758590634207,0.651567532718
1565339547717455047,19017,1565339547656935299,map,0.65576171875,0.0592708587646,0.0,0.0,0.0,-0.756347472609,0.654170085434
1565339547783263954,19018,1565339547723771705,map,0.656002998352,0.0559358596802,0.0,0.0,0.0,-0.753246062437,0.657738830709
1565339547850061089,19019,1565339547790426288,map,0.65621471405,0.0519046783447,0.0,0.0,0.0,-0.750660161052,0.660688521626
1565339547918802183,19020,1565339547857112694,map,0.657335281372,0.0506114959717,0.0,0.0,0.0,-0.747949569771,0.663755558229
1565339547984381818,19021,1565339547923970194,map,0.660066604614,0.0468521118164,0.0,0.0,0.0,-0.745389856634,0.666628803478
1565339548052048068,19022,1565339547990501965,map,0.663736343384,0.0455799102783,0.0,0.0,0.0,-0.74310491658,0.669174927022
1565339548117749631,19023,1565339548056835923,map,0.668086051941,0.0456523895264,0.0,0.0,0.0,-0.741018476883,0.671484636398
1565339548184922287,19024,1565339548124025246,map,0.67293548584,0.0444965362549,0.0,0.0,0.0,-0.738758408962,0.67397033554
1565339548250563381,19025,1565339548190764673,map,0.677988052368,0.0439023971558,0.0,0.0,0.0,-0.736358224972,0.676591874409
1565339548317977703,19026,1565339548257638736,map,0.68429851532,0.0438327789307,0.0,0.0,0.0,-0.734708239957,0.678383226606
1565339548383368068,19027,1565339548323552955,map,0.690035820007,0.0428829193115,0.0,0.0,0.0,-0.732744572118,0.680503778117
1565339548451148693,19028,1565339548390288788,map,0.696304321289,0.0409421920776,0.0,0.0,0.0,-0.730746790426,0.682648612598
1565339548517543328,19029,1565339548456891653,map,0.703166007996,0.0389604568481,0.0,0.0,0.0,-0.72896734547,0.684548471065
1565339548584499578,19030,1565339548523517798,map,0.709889411926,0.0366716384888,0.0,0.0,0.0,-0.727600325623,0.686001287283
1565339548650849162,19031,1565339548590235038,map,0.717414855957,0.0351285934448,0.0,0.0,0.0,-0.726167469252,0.687517859113
1565339548717897912,19032,1565339548656813111,map,0.725355148315,0.0313034057617,0.0,0.0,0.0,-0.724972567384,0.688777741032
1565339548784704735,19033,1565339548723799882,map,0.732763290405,0.0275068283081,0.0,0.0,0.0,-0.723607979733,0.690211193525
1565339548850255932,19034,1565339548790547434,map,0.742128372192,0.0257701873779,0.0,0.0,0.0,-0.722634717011,0.691230110579
1565339548919498589,19035,1565339548856977329,map,0.750768661499,0.022970199585,0.0,0.0,0.0,-0.721703754952,0.692202058714
1565339548985106609,19036,1565339548923932381,map,0.760485649109,0.0209732055664,0.0,0.0,0.0,-0.721057993981,0.692874714012
1565339549050806089,19037,1565339548990651027,map,0.770120620728,0.0187654495239,0.0,0.0,0.0,-0.720398873656,0.693559992239
1565339549117390620,19038,1565339549056837850,map,0.780331611633,0.0176239013672,0.0,0.0,0.0,-0.720162370441,0.693805563685
1565339549184098068,19039,1565339549123573527,map,0.790616035461,0.0169620513916,0.0,0.0,0.0,-0.71967802209,0.694307960865
1565339549251298120,19040,1565339549190301183,map,0.801058769226,0.0139894485474,0.0,0.0,0.0,-0.719783294659,0.69419882507
1565339549317810984,19041,1565339549256982486,map,0.811754226685,0.0124378204346,0.0,0.0,0.0,-0.719749860825,0.694233489427
1565339549383971870,19042,1565339549323596183,map,0.822728157043,0.00757598876953,0.0,0.0,0.0,-0.719554520913,0.694435952002
1565339549449660932,19043,1565339549390262642,map,0.834118843079,0.00525951385498,0.0,0.0,0.0,-0.719724867117,0.69425940084
1565339549517122234,19044,1565339549457105090,map,0.845808029175,0.00229358673096,0.0,0.0,0.0,-0.719971618427,0.694003507671
1565339549583671974,19045,1565339549524041808,map,0.858253479004,-0.000140190124512,0.0,0.0,0.0,-0.720393747551,0.693565316671
1565339549651474890,19046,1565339549591034621,map,0.86993598938,-0.00308895111084,0.0,0.0,0.0,-0.720591156835,0.693360212798
1565339549718808953,19047,1565339549657435194,map,0.882501602173,-0.00630664825439,0.0,0.0,0.0,-0.720948791658,0.692988340311
1565339549783502286,19048,1565339549723692329,map,0.894792556763,-0.00761127471924,0.0,0.0,0.0,-0.721243150929,0.692681974097
1565339549850682078,19049,1565339549790202485,map,0.907472610474,-0.0105724334717,0.0,0.0,0.0,-0.721419505878,0.692498300747
1565339549917601297,19050,1565339549856864881,map,0.919713020325,-0.0120840072632,0.0,0.0,0.0,-0.7221188502,0.691769012161
1565339549986004734,19051,1565339549923915298,map,0.932252883911,-0.0144863128662,0.0,0.0,0.0,-0.722499070971,0.691371891564
1565339550050688692,19052,1565339549990240767,map,0.944378852844,-0.0177335739136,0.0,0.0,0.0,-0.723172741538,0.690667203431
1565339550118097547,19053,1565339550056811339,map,0.958433151245,-0.0210618972778,0.0,0.0,0.0,-0.723597447862,0.690222234826
1565339550184021401,19054,1565339550123538787,map,0.971316337585,-0.0233726501465,0.0,0.0,0.0,-0.724358763622,0.689423223836
1565339550250992859,19055,1565339550190477016,map,0.984655380249,-0.0266456604004,0.0,0.0,0.0,-0.724807508076,0.688951432422
1565339550318314421,19056,1565339550256892641,map,0.997636795044,-0.0313510894775,0.0,0.0,0.0,-0.725507697106,0.68821405205
1565339550384240828,19057,1565339550323547746,map,1.01140022278,-0.0335378646851,0.0,0.0,0.0,-0.725705223164,0.688005762383
1565339550450814005,19058,1565339550390267329,map,1.02568626404,-0.0365133285522,0.0,0.0,0.0,-0.726160912538,0.687524784355
1565339550518283588,19059,1565339550457117016,map,1.039894104,-0.0394878387451,0.0,0.0,0.0,-0.726695068048,0.686960172117
1565339550583767911,19060,1565339550523562433,map,1.05411815643,-0.0407695770264,0.0,0.0,0.0,-0.727373107206,0.686242204264
1565339550651088744,19061,1565339550590377381,map,1.06819629669,-0.043062210083,0.0,0.0,0.0,-0.727802775575,0.68578649729
1565339550719971921,19062,1565339550657000610,map,1.08309173584,-0.0460214614868,0.0,0.0,0.0,-0.727891388797,0.685692442801
1565339550783765775,19063,1565339550723563162,map,1.09721946716,-0.0489978790283,0.0,0.0,0.0,-0.728049456369,0.685524608662
1565339550850808536,19064,1565339550790442016,map,1.11189556122,-0.0526094436646,0.0,0.0,0.0,-0.728263039454,0.685297705647
1565339550920654682,19065,1565339550856973631,map,1.12580299377,-0.0564641952515,0.0,0.0,0.0,-0.728213040878,0.685350835043
1565339550985464890,19066,1565339550924988631,map,1.14029121399,-0.059024810791,0.0,0.0,0.0,-0.727996172142,0.68558119384
1565339551050711348,19067,1565339550991130714,map,1.15490150452,-0.0603790283203,0.0,0.0,0.0,-0.727720037132,0.685874294282
1565339551118263588,19068,1565339551057594464,map,1.1696805954,-0.0639896392822,0.0,0.0,0.0,-0.727620933281,0.685979429321
1565339551182922442,19069,1565339551123496808,map,1.18527698517,-0.0663967132568,0.0,0.0,0.0,-0.727423988816,0.686188268987
1565339551251268015,19070,1565339551190467068,map,1.20064353943,-0.0680112838745,0.0,0.0,0.0,-0.727338256722,0.686279141682
1565339551316864629,19071,1565339551256833110,map,1.21639728546,-0.071195602417,0.0,0.0,0.0,-0.727145809019,0.686483045986
1565339551382993327,19072,1565339551323491026,map,1.23257732391,-0.0740995407104,0.0,0.0,0.0,-0.726686878793,0.686968834948
1565339551449659838,19073,1565339551390278110,map,1.24812889099,-0.076943397522,0.0,0.0,0.0,-0.726522580525,0.687142590725
1565339551517365723,19074,1565339551456917485,map,1.26485729218,-0.0795993804932,0.0,0.0,0.0,-0.725740653407,0.687968388804
1565339551583118952,19075,1565339551523607745,map,1.28081035614,-0.0831432342529,0.0,0.0,0.0,-0.725276463204,0.688457734304
1565339551649754056,19076,1565339551590289620,map,1.29678058624,-0.0852975845337,0.0,0.0,0.0,-0.724478250679,0.689297660153
1565339551718099004,19077,1565339551657126287,map,1.31324195862,-0.0900325775146,0.0,0.0,0.0,-0.723720034991,0.690093697227
1565339551783135046,19078,1565339551723579828,map,1.32925415039,-0.0912084579468,0.0,0.0,0.0,-0.72292025736,0.690931473808
1565339551851028431,19079,1565339551790237537,map,1.34518623352,-0.0926876068115,0.0,0.0,0.0,-0.72220295946,0.691681202106
1565339551916694213,19080,1565339551856771860,map,1.36166381836,-0.095365524292,0.0,0.0,0.0,-0.721652922586,0.692255053664
1565339551984391817,19081,1565339551924103474,map,1.37790870667,-0.0989608764648,0.0,0.0,0.0,-0.720616283475,0.69333409839
1565339552050730567,19082,1565339551990303891,map,1.39456176758,-0.101754188538,0.0,0.0,0.0,-0.720106457449,0.693863596063
1565339552117443223,19083,1565339552056776755,map,1.41151618958,-0.106313705444,0.0,0.0,0.0,-0.719213367289,0.694789271875
1565339552183597390,19084,1565339552123473839,map,1.42853546143,-0.110353469849,0.0,0.0,0.0,-0.718719712577,0.695299917124
1565339552250149317,19085,1565339552190251703,map,1.4454164505,-0.114691734314,0.0,0.0,0.0,-0.718121173931,0.695918083938
1565339552317289785,19086,1565339552256919516,map,1.4622926712,-0.117246627808,0.0,0.0,0.0,-0.717579228258,0.69647688488
1565339552386771035,19087,1565339552324073995,map,1.47913837433,-0.120834350586,0.0,0.0,0.0,-0.717166792871,0.696901564931
1565339552451844056,19088,1565339552391238005,map,1.4965801239,-0.123995780945,0.0,0.0,0.0,-0.716685439162,0.697396573904
1565339552520168952,19089,1565339552458036234,map,1.51376533508,-0.12583732605,0.0,0.0,0.0,-0.716931809968,0.697143299369
1565339552588308327,19090,1565339552523612276,map,1.53052043915,-0.12885761261,0.0,0.0,0.0,-0.71691967639,0.697155777144
1565339552650813744,19091,1565339552590278891,map,1.54753684998,-0.130832672119,0.0,0.0,0.0,-0.716222878393,0.697871613169
1565339552717437025,19092,1565339552657327745,map,1.56458568573,-0.134474754333,0.0,0.0,0.0,-0.716065958711,0.698032623002
1565339552783159316,19093,1565339552723612849,map,1.58135223389,-0.136089324951,0.0,0.0,0.0,-0.716043823966,0.698055328867
1565339552850111348,19094,1565339552790413995,map,1.59917259216,-0.139213562012,0.0,0.0,0.0,-0.716057803889,0.698040988403
1565339552916922545,19095,1565339552856875922,map,1.61644077301,-0.142016410828,0.0,0.0,0.0,-0.716008540027,0.698091520224
1565339552983700827,19096,1565339552924192849,map,1.63390922546,-0.146226882935,0.0,0.0,0.0,-0.715792302745,0.698313238691
1565339553050876608,19097,1565339552990506078,map,1.65068149567,-0.150511741638,0.0,0.0,0.0,-0.715341129765,0.698775406026
1565339553118217962,19098,1565339553056972328,map,1.66836071014,-0.153900146484,0.0,0.0,0.0,-0.715233663636,0.69888540291
1565339553184330202,19099,1565339553123796755,map,1.68594646454,-0.157685279846,0.0,0.0,0.0,-0.714787957009,0.699341244683
1565339553250846452,19100,1565339553190479307,map,1.70355510712,-0.160804748535,0.0,0.0,0.0,-0.714819802833,0.699308693981
1565339553316592597,19101,1565339553256896755,map,1.72191143036,-0.163465499878,0.0,0.0,0.0,-0.714426044359,0.699710959713
1565339553383333014,19102,1565339553323553161,map,1.7400894165,-0.165238380432,0.0,0.0,0.0,-0.714390343073,0.699747409944
1565339553450433639,19103,1565339553390851078,map,1.7579908371,-0.167890548706,0.0,0.0,0.0,-0.71433745504,0.699801400632
1565339553517572649,19104,1565339553456915192,map,1.77689647675,-0.168836593628,0.0,0.0,0.0,-0.714627705004,0.699504998724
1565339553583817493,19105,1565339553523607744,map,1.79532337189,-0.171014785767,0.0,0.0,0.0,-0.714263872158,0.699876504056
1565339553651875879,19106,1565339553591007119,map,1.81468200684,-0.172647476196,0.0,0.0,0.0,-0.714163579825,0.699978843431
1565339553718659941,19107,1565339553657115713,map,1.83257770538,-0.175199508667,0.0,0.0,0.0,-0.714239676515,0.699901196236
1565339553784846712,19108,1565339553724137640,map,1.85099029541,-0.177350997925,0.0,0.0,0.0,-0.714029889546,0.700115216829
1565339553854127597,19109,1565339553792943317,map,1.86939525604,-0.179666519165,0.0,0.0,0.0,-0.713845751574,0.700302965123
1565339553918910462,19110,1565339553857813421,map,1.88800144196,-0.182812690735,0.0,0.0,0.0,-0.713684277219,0.700467524194
1565339553983615878,19111,1565339553924038109,map,1.90627098083,-0.185075759888,0.0,0.0,0.0,-0.713312424773,0.700846191875
1565339554050716295,19112,1565339553990677223,map,1.92468261719,-0.188008308411,0.0,0.0,0.0,-0.71320647855,0.700954006304
1565339554120407701,19113,1565339554056900244,map,1.94318199158,-0.190877914429,0.0,0.0,0.0,-0.712921813629,0.70124352949
1565339554185010462,19114,1565339554123775557,map,1.96092700958,-0.192925453186,0.0,0.0,0.0,-0.712528137319,0.701643537367
1565339554252026347,19115,1565339554190406963,map,1.97972202301,-0.193811416626,0.0,0.0,0.0,-0.71192045909,0.702260108457
1565339554318530722,19116,1565339554257079515,map,1.99754047394,-0.195276260376,0.0,0.0,0.0,-0.711534086124,0.702651581001
1565339554384291920,19117,1565339554324166859,map,2.0138092041,-0.196941375732,0.0,0.0,0.0,-0.710906588414,0.703286444168
1565339554450541920,19118,1565339554390666494,map,2.03100299835,-0.198227882385,0.0,0.0,0.0,-0.710491465195,0.703705817714
1565339554517391399,19119,1565339554456955765,map,2.04699230194,-0.200311660767,0.0,0.0,0.0,-0.709946481922,0.704255630298
1565339554583236607,19120,1565339554523710088,map,2.0623216629,-0.202035903931,0.0,0.0,0.0,-0.709573123571,0.704631806198
1565339554649818378,19121,1565339554590367223,map,2.07649517059,-0.203008651733,0.0,0.0,0.0,-0.708944699756,0.705264073016
1565339554716814264,19122,1565339554656994358,map,2.09048461914,-0.204900741577,0.0,0.0,0.0,-0.708152948923,0.706059063345
1565339554783948482,19123,1565339554723625348,map,2.10437011719,-0.206945419312,0.0,0.0,0.0,-0.707581547803,0.706631695588
1565339554849925930,19124,1565339554790296754,map,2.11647510529,-0.209348678589,0.0,0.0,0.0,-0.706887599073,0.707325895382
1565339554916980201,19125,1565339554857181910,map,2.12991142273,-0.210355758667,0.0,0.0,0.0,-0.706076484278,0.708135579073
1565339554983673378,19126,1565339554923993629,map,2.14243412018,-0.212902069092,0.0,0.0,0.0,-0.704841583924,0.709364745086
1565339555051323222,19127,1565339554990316754,map,2.1545381546,-0.214399337769,0.0,0.0,0.0,-0.703979707146,0.710220086964
1565339555117311086,19128,1565339555056955244,map,2.16728305817,-0.215794563293,0.0,0.0,0.0,-0.703536773282,0.710658855317
1565339555184511347,19129,1565339555124313212,map,2.17943668365,-0.21787071228,0.0,0.0,0.0,-0.702943508442,0.711245684654
1565339555251388586,19130,1565339555190858108,map,2.19118309021,-0.218293190002,0.0,0.0,0.0,-0.702541335756,0.711642938245
1565339555318546347,19131,1565339555257571025,map,2.20298099518,-0.219717025757,0.0,0.0,0.0,-0.70163456482,0.71253697269
1565339555383420305,19132,1565339555323525348,map,2.21500968933,-0.221436500549,0.0,0.0,0.0,-0.70131987487,0.712846710809
1565339555450664836,19133,1565339555390272796,map,2.22628307343,-0.222952842712,0.0,0.0,0.0,-0.700824114017,0.713334116114
1565339555519914472,19134,1565339555457734410,map,2.23775291443,-0.224328041077,0.0,0.0,0.0,-0.700453602499,0.713697940831
1565339555584232649,19135,1565339555523611233,map,2.24903202057,-0.226335525513,0.0,0.0,0.0,-0.700073027796,0.714071253974
1565339555650237909,19136,1565339555590505973,map,2.25954532623,-0.227310180664,0.0,0.0,0.0,-0.699520534424,0.714612497735
1565339555717069003,19137,1565339555657057171,map,2.26903057098,-0.228766441345,0.0,0.0,0.0,-0.699117993296,0.715006315671
1565339555783789992,19138,1565339555723962639,map,2.2794418335,-0.23043346405,0.0,0.0,0.0,-0.698721370756,0.715393909709
1565339555852678951,19139,1565339555790460868,map,2.29000091553,-0.231337547302,0.0,0.0,0.0,-0.69830678494,0.715798598844
1565339555919173117,19140,1565339555857183108,map,2.29948425293,-0.232553482056,0.0,0.0,0.0,-0.698045287727,0.716053612715
1565339555983573065,19141,1565339555923978212,map,2.308634758,-0.234440803528,0.0,0.0,0.0,-0.697516546987,0.716568675481
1565339556049954367,19142,1565339555990494098,map,2.31929111481,-0.235223770142,0.0,0.0,0.0,-0.697344316813,0.716736286097
1565339556119298169,19143,1565339556057022431,map,2.32887077332,-0.237259864807,0.0,0.0,0.0,-0.697149996942,0.716925297199
1565339556183551294,19144,1565339556123635295,map,2.33731365204,-0.237854003906,0.0,0.0,0.0,-0.696960413078,0.717109602921
1565339556252341711,19145,1565339556190305660,map,2.34645175934,-0.240025520325,0.0,0.0,0.0,-0.696770438458,0.717294190756
1565339556319506190,19146,1565339556257488160,map,2.35532951355,-0.240362167358,0.0,0.0,0.0,-0.696284592585,0.717765815659
1565339556383454315,19147,1565339556323827222,map,2.36314105988,-0.241879463196,0.0,0.0,0.0,-0.696112074743,0.71793313017
1565339556450801086,19148,1565339556390296597,map,2.37127494812,-0.24250793457,0.0,0.0,0.0,-0.69575955474,0.718274767751
1565339556518218586,19149,1565339556457275712,map,2.37948608398,-0.243944168091,0.0,0.0,0.0,-0.695835414631,0.718201278017
1565339556584111502,19150,1565339556524131858,map,2.38785266876,-0.245626449585,0.0,0.0,0.0,-0.696164279325,0.717882508627
1565339556651190252,19151,1565339556591102743,map,2.39555835724,-0.246477127075,0.0,0.0,0.0,-0.696364847595,0.717687953803
1565339556719503429,19152,1565339556657846962,map,2.40301513672,-0.247352600098,0.0,0.0,0.0,-0.696382985048,0.717670354784
1565339556784084471,19153,1565339556723683993,map,2.41021728516,-0.248539924622,0.0,0.0,0.0,-0.69626645272,0.717783412191
1565339556850552023,19154,1565339556790450816,map,2.41859149933,-0.249586105347,0.0,0.0,0.0,-0.697330304254,0.716749919267
1565339556920360356,19155,1565339556857227691,map,2.42603874207,-0.250820159912,0.0,0.0,0.0,-0.697604355198,0.716483191435
1565339556984584367,19156,1565339556924029670,map,2.43315124512,-0.253390312195,0.0,0.0,0.0,-0.69788240233,0.716212365517
1565339557052482544,19157,1565339556990589566,map,2.44010448456,-0.254111289978,0.0,0.0,0.0,-0.698455755718,0.715653238171
1565339557118056346,19158,1565339557057830868,map,2.44743347168,-0.25465965271,0.0,0.0,0.0,-0.698913229219,0.715206472302
1565339557184942804,19159,1565339557123676545,map,2.45409870148,-0.255820274353,0.0,0.0,0.0,-0.699257595544,0.714869788895
1565339557251178794,19160,1565339557190385295,map,2.46192455292,-0.256768226624,0.0,0.0,0.0,-0.699845881755,0.71429387635
1565339557318349263,19161,1565339557257081441,map,2.46772766113,-0.257444381714,0.0,0.0,0.0,-0.700401361856,0.713749208273
1565339557383776085,19162,1565339557323831962,map,2.47453784943,-0.258058547974,0.0,0.0,0.0,-0.700719001848,0.713437369675
1565339557450328169,19163,1565339557390360816,map,2.48046684265,-0.259588241577,0.0,0.0,0.0,-0.701287922457,0.712878145139
1565339557517329262,19164,1565339557456977274,map,2.48771190643,-0.260195732117,0.0,0.0,0.0,-0.702126885257,0.712051849937
1565339557583502075,19165,1565339557523620451,map,2.49206352234,-0.260692596436,0.0,0.0,0.0,-0.702196146622,0.71198354733
1565339557649977127,19166,1565339557590428524,map,2.49596405029,-0.261773109436,0.0,0.0,0.0,-0.702658737071,0.711527019316
1565339557717040512,19167,1565339557657029097,map,2.50062847137,-0.262735366821,0.0,0.0,0.0,-0.703286305749,0.710906725349
1565339557783570721,19168,1565339557723794357,map,2.50278949738,-0.263681411743,0.0,0.0,0.0,-0.703312915716,0.710880399637
1565339557850968064,19169,1565339557790953472,map,2.50639820099,-0.264420509338,0.0,0.0,0.0,-0.704111094916,0.71008982954
1565339557917954783,19170,1565339557857069670,map,2.50825977325,-0.265230178833,0.0,0.0,0.0,-0.704441320315,0.709762232183
1565339557984367752,19171,1565339557924609982,map,2.51076984406,-0.265913009644,0.0,0.0,0.0,-0.705066316639,0.70914137458
1565339558050905200,19172,1565339557991103263,map,2.51277160645,-0.267204284668,0.0,0.0,0.0,-0.705378356137,0.708830991629
1565339558117764523,19173,1565339558057854826,map,2.51396656036,-0.266954421997,0.0,0.0,0.0,-0.705619645077,0.708590796215
1565339558183319887,19174,1565339558123690868,map,2.51458835602,-0.267656326294,0.0,0.0,0.0,-0.705658838359,0.708551765114
1565339558251102231,19175,1565339558190477482,map,2.51632499695,-0.268539428711,0.0,0.0,0.0,-0.706050314731,0.708161671561
1565339558318257491,19176,1565339558257019097,map,2.51790618896,-0.269486427307,0.0,0.0,0.0,-0.706062977536,0.708149046284
1565339558384207439,19177,1565339558323857951,map,2.51820468903,-0.269323348999,0.0,0.0,0.0,-0.706025832669,0.708186079787
1565339558451360043,19178,1565339558390586076,map,2.51841449738,-0.270643234253,0.0,0.0,0.0,-0.705977710294,0.70823405211
1565339558518728793,19179,1565339558457666961,map,2.51784324646,-0.269910812378,0.0,0.0,0.0,-0.705622517072,0.708587936251
1565339558585550825,19180,1565339558524328211,map,2.51689243317,-0.271127700806,0.0,0.0,0.0,-0.705484141328,0.708725705993
1565339558650945252,19181,1565339558590405034,map,2.51540660858,-0.271914482117,0.0,0.0,0.0,-0.70523300262,0.70897560749
1565339558719722022,19182,1565339558656953003,map,2.51319599152,-0.272108078003,0.0,0.0,0.0,-0.704588696183,0.709615930776
1565339558783643116,19183,1565339558723744409,map,2.51054191589,-0.273021697998,0.0,0.0,0.0,-0.703848972721,0.710349648834
1565339558850341033,19184,1565339558790895971,map,2.50711631775,-0.272142410278,0.0,0.0,0.0,-0.703139848556,0.711051582779
1565339558917590252,19185,1565339558856934930,map,2.50328159332,-0.273324012756,0.0,0.0,0.0,-0.702854476489,0.711333666348
1565339558983744158,19186,1565339558924109982,map,2.49885368347,-0.274091720581,0.0,0.0,0.0,-0.702130450342,0.712048334526
1565339559052416970,19187,1565339558990569826,map,2.49421787262,-0.273542404175,0.0,0.0,0.0,-0.701526002046,0.712643858076
1565339559117492126,19188,1565339559057100242,map,2.48874950409,-0.273621559143,0.0,0.0,0.0,-0.700699780664,0.713456247696
1565339559185216345,19189,1565339559124294253,map,2.4840221405,-0.27402305603,0.0,0.0,0.0,-0.699584252602,0.714550119664
1565339559250054991,19190,1565339559190502117,map,2.4779586792,-0.273149490356,0.0,0.0,0.0,-0.698458826962,0.715650240717
1565339559318685147,19191,1565339559256907065,map,2.4710893631,-0.272826194763,0.0,0.0,0.0,-0.697407370033,0.716674933442
1565339559383761606,19192,1565339559324179253,map,2.46366691589,-0.273344039917,0.0,0.0,0.0,-0.696329426947,0.717722320377
1565339559451984887,19193,1565339559390970346,map,2.45580863953,-0.274079322815,0.0,0.0,0.0,-0.69543582152,0.718588211806
1565339559517693012,19194,1565339559457573367,map,2.44704437256,-0.274377822876,0.0,0.0,0.0,-0.694451251708,0.719539754983
1565339559584040460,19195,1565339559523888888,map,2.43880558014,-0.275311470032,0.0,0.0,0.0,-0.694093309104,0.719885045169
1565339559649979522,19196,1565339559590388836,map,2.42828369141,-0.27500629425,0.0,0.0,0.0,-0.693371926762,0.720579885355
1565339559718713741,19197,1565339559657000763,map,2.41872215271,-0.275728225708,0.0,0.0,0.0,-0.692891420965,0.721041939663
1565339559783986553,19198,1565339559723723419,map,2.4077911377,-0.276676177979,0.0,0.0,0.0,-0.692693870615,0.721231725323
1565339559852130460,19199,1565339559790588732,map,2.39639091492,-0.276711463928,0.0,0.0,0.0,-0.691990933728,0.721906190331
1565339559918974314,19200,1565339559856983106,map,2.38503360748,-0.276787757874,0.0,0.0,0.0,-0.691590313672,0.722289995802
1565339559984990876,19201,1565339559924357325,map,2.37418460846,-0.277309417725,0.0,0.0,0.0,-0.691408268539,0.722464259459
1565339560051521866,19202,1565339559990674669,map,2.36350345612,-0.277635574341,0.0,0.0,0.0,-0.691235310834,0.722629742714
1565339560119240616,19203,1565339560057019200,map,2.35116291046,-0.278120040894,0.0,0.0,0.0,-0.690901686953,0.722948724991
1565339560184597074,19204,1565339560124356648,map,2.33981132507,-0.277860641479,0.0,0.0,0.0,-0.69095356686,0.722899141266
1565339560250790980,19205,1565339560190928575,map,2.32723808289,-0.279505729675,0.0,0.0,0.0,-0.690758610968,0.723085431588
1565339560317437126,19206,1565339560257240919,map,2.3153181076,-0.278298377991,0.0,0.0,0.0,-0.690591712276,0.723244831946
1565339560384415824,19207,1565339560323661492,map,2.30410861969,-0.279695510864,0.0,0.0,0.0,-0.691042495566,0.722814131933
1565339560449931084,19208,1565339560390426648,map,2.29048633575,-0.280312538147,0.0,0.0,0.0,-0.691209811727,0.722654133159
1565339560517805720,19209,1565339560456949356,map,2.27896404266,-0.280164718628,0.0,0.0,0.0,-0.691130724564,0.722729770775
1565339560583541293,19210,1565339560523960190,map,2.26656913757,-0.281489372253,0.0,0.0,0.0,-0.69203602673,0.721862963247
1565339560651612751,19211,1565339560590540190,map,2.25295257568,-0.280733108521,0.0,0.0,0.0,-0.691662981675,0.722220409419
1565339560718536605,19212,1565339560657164408,map,2.24127197266,-0.280812263489,0.0,0.0,0.0,-0.692165783126,0.721738545922
1565339560784582490,19213,1565339560724341439,map,2.22887420654,-0.282208442688,0.0,0.0,0.0,-0.692969292061,0.720967100678
1565339560850626188,19214,1565339560791023314,map,2.21568870544,-0.281499862671,0.0,0.0,0.0,-0.69313188422,0.720810787292
1565339560917620772,19215,1565339560857609408,map,2.20273399353,-0.282786369324,0.0,0.0,0.0,-0.693730901898,0.720234292263
1565339560984239105,19216,1565339560924107637,map,2.19059753418,-0.282503128052,0.0,0.0,0.0,-0.694290490488,0.719694876193
1565339561050905824,19217,1565339560990594512,map,2.17740726471,-0.283350944519,0.0,0.0,0.0,-0.694823082889,0.719180702942
1565339561118244574,19218,1565339561056964408,map,2.16489219666,-0.283348083496,0.0,0.0,0.0,-0.69549184261,0.718533991446
1565339561184999782,19219,1565339561123668835,map,2.15205383301,-0.283121109009,0.0,0.0,0.0,-0.695933010746,0.718106708333
1565339561250587386,19220,1565339561190616960,map,2.13956737518,-0.283453941345,0.0,0.0,0.0,-0.696317790809,0.717733609498
1565339561318295094,19221,1565339561257185710,map,2.12606906891,-0.283171653748,0.0,0.0,0.0,-0.696842774793,0.717223917071
1565339561386287230,19222,1565339561323913835,map,2.11191082001,-0.282760620117,0.0,0.0,0.0,-0.697051706612,0.717020863231
1565339561451151969,19223,1565339561390452168,map,2.09765911102,-0.28374671936,0.0,0.0,0.0,-0.697632027988,0.716456246763
1565339561517910980,19224,1565339561457070606,map,2.08501911163,-0.283414840698,0.0,0.0,0.0,-0.698153687235,0.715947923386
1565339561585788896,19225,1565339561524438210,map,2.07105731964,-0.28334236145,0.0,0.0,0.0,-0.698666447347,0.715447548987
1565339561653735250,19226,1565339561590870918,map,2.05626964569,-0.283467292786,0.0,0.0,0.0,-0.699517638011,0.714615332967
1565339561718065355,19227,1565339561657185918,map,2.04250335693,-0.284422874451,0.0,0.0,0.0,-0.699287251196,0.714840779695
1565339561783427959,19228,1565339561723853262,map,2.02812957764,-0.283727645874,0.0,0.0,0.0,-0.700448667875,0.713702783848
1565339561850216605,19229,1565339561790438418,map,2.01355075836,-0.283776283264,0.0,0.0,0.0,-0.700792479916,0.713365194057
1565339561917946605,19230,1565339561857257429,map,2.00014305115,-0.284085273743,0.0,0.0,0.0,-0.702004643112,0.712172367513
1565339561984062021,19231,1565339561924064824,map,1.98583316803,-0.284147262573,0.0,0.0,0.0,-0.70274372233,0.711443083265
1565339562051060250,19232,1565339561990813418,map,1.97115039825,-0.283517837524,0.0,0.0,0.0,-0.703535078937,0.710660532677
1565339562117375354,19233,1565339562056974512,map,1.95723819733,-0.282964706421,0.0,0.0,0.0,-0.704296452895,0.709905984226
1565339562187401136,19234,1565339562124203991,map,1.94225120544,-0.283205032349,0.0,0.0,0.0,-0.705253455314,0.708955262176
1565339562252195875,19235,1565339562190963366,map,1.9278345108,-0.283778190613,0.0,0.0,0.0,-0.70606399055,0.708148036252
1565339562318600198,19236,1565339562257727168,map,1.91216278076,-0.284288406372,0.0,0.0,0.0,-0.7071484365,0.707065123419
1565339562384486292,19237,1565339562323672741,map,1.89716434479,-0.284104347229,0.0,0.0,0.0,-0.707912858584,0.706299783839
1565339562450929625,19238,1565339562390597324,map,1.88227081299,-0.284913063049,0.0,0.0,0.0,-0.709134008921,0.705073724792
1565339562518299469,19239,1565339562457203678,map,1.8676071167,-0.284376144409,0.0,0.0,0.0,-0.709822890979,0.704380198077
1565339562584414365,19240,1565339562523735605,map,1.85232067108,-0.285360336304,0.0,0.0,0.0,-0.710817881862,0.70337610055
1565339562650772073,19241,1565339562590552272,map,1.83702373505,-0.284340858459,0.0,0.0,0.0,-0.711164091926,0.703026055246
1565339562718573635,19242,1565339562657051230,map,1.82128143311,-0.285563468933,0.0,0.0,0.0,-0.712035140417,0.702143830573
1565339562783840875,19243,1565339562723936439,map,1.80528259277,-0.284653663635,0.0,0.0,0.0,-0.713041510913,0.701121818028
1565339562850294156,19244,1565339562790737272,map,1.78997898102,-0.284274101257,0.0,0.0,0.0,-0.713738050556,0.70041273203
1565339562917505198,19245,1565339562857059668,map,1.77404594421,-0.28419303894,0.0,0.0,0.0,-0.714229497403,0.69991158373
1565339562983922021,19246,1565339562924228314,map,1.75786685944,-0.284353256226,0.0,0.0,0.0,-0.71503084815,0.699092902405
1565339563051643271,19247,1565339562991200918,map,1.74168872833,-0.283143997192,0.0,0.0,0.0,-0.715617298391,0.698492578517
1565339563117240510,19248,1565339563057235345,map,1.72575378418,-0.283120155334,0.0,0.0,0.0,-0.715718876323,0.69838849509
1565339563185895250,19249,1565339563124857272,map,1.70922088623,-0.281887054443,0.0,0.0,0.0,-0.716978513907,0.697095266513
1565339563251231656,19250,1565339563191174772,map,1.69318962097,-0.281053543091,0.0,0.0,0.0,-0.717300035493,0.69676442151
1565339563317758114,19251,1565339563257118834,map,1.67696475983,-0.281167030334,0.0,0.0,0.0,-0.717892995621,0.696153465005
1565339563385336031,19252,1565339563323844824,map,1.66109466553,-0.281095504761,0.0,0.0,0.0,-0.718198819927,0.695837951721
1565339563451359781,19253,1565339563390596595,map,1.64491844177,-0.281126022339,0.0,0.0,0.0,-0.718576138344,0.695448296714
1565339563517691239,19254,1565339563457340761,map,1.62847709656,-0.280636787415,0.0,0.0,0.0,-0.719150582749,0.69485425762
1565339563584586864,19255,1565339563524473886,map,1.61223316193,-0.279899597168,0.0,0.0,0.0,-0.719392742989,0.694603542559
1565339563651059156,19256,1565339563591062480,map,1.59518909454,-0.27921962738,0.0,0.0,0.0,-0.719751516005,0.694231773407
1565339563718587802,19257,1565339563657759511,map,1.57856178284,-0.278735160828,0.0,0.0,0.0,-0.720235811171,0.693729324959
1565339563783655718,19258,1565339563724010032,map,1.56203269958,-0.277643203735,0.0,0.0,0.0,-0.72061793651,0.693332380305
1565339563850525406,19259,1565339563790561386,map,1.54578113556,-0.277589797974,0.0,0.0,0.0,-0.721052046963,0.692880902876
1565339563919973739,19260,1565339563857111230,map,1.5300655365,-0.278656959534,0.0,0.0,0.0,-0.721248105358,0.692676815346
1565339563985331395,19261,1565339563924447115,map,1.51375865936,-0.280358314514,0.0,0.0,0.0,-0.7214247892,0.692492796733
1565339564050724520,19262,1565339563990649667,map,1.49905395508,-0.281080245972,0.0,0.0,0.0,-0.721536554634,0.692376342986
1565339564119329364,19263,1565339564057183990,map,1.48587799072,-0.28021812439,0.0,0.0,0.0,-0.721914964646,0.691981779977
1565339564184211291,19264,1565339564123806334,map,1.47234153748,-0.279940605164,0.0,0.0,0.0,-0.722254574169,0.691627305774
1565339564251176552,19265,1565339564190759563,map,1.45988464355,-0.278968811035,0.0,0.0,0.0,-0.722741500148,0.691118458706
1565339564318392645,19266,1565339564257232063,map,1.44749736786,-0.277444839478,0.0,0.0,0.0,-0.72342414148,0.690403875658
1565339564384212697,19267,1565339564323716646,map,1.43594837189,-0.276290893555,0.0,0.0,0.0,-0.724181383017,0.689609544954
1565339564451808270,19268,1565339564391080917,map,1.42362499237,-0.274602890015,0.0,0.0,0.0,-0.72491952301,0.688833568548
1565339564518266760,19269,1565339564457240240,map,1.4122467041,-0.274110794067,0.0,0.0,0.0,-0.725569881607,0.6881484919
1565339564584276916,19270,1565339564523851855,map,1.40071868896,-0.273477554321,0.0,0.0,0.0,-0.726180254655,0.687504354713
1565339564650391916,19271,1565339564590527532,map,1.38926696777,-0.272470474243,0.0,0.0,0.0,-0.726580900519,0.687080923182
1565339564717918010,19272,1565339564657113521,map,1.37750720978,-0.274026870728,0.0,0.0,0.0,-0.727092122933,0.68653990763
1565339564784326343,19273,1565339564723754719,map,1.36690807343,-0.27303981781,0.0,0.0,0.0,-0.727967076444,0.685612088293
1565339564850893010,19274,1565339564790481125,map,1.35639476776,-0.274026870728,0.0,0.0,0.0,-0.728647376105,0.684889043054
1565339564916996708,19275,1565339564856989250,map,1.34599876404,-0.273760795593,0.0,0.0,0.0,-0.729391385877,0.684096635139
1565339564985367124,19276,1565339564925041386,map,1.33550548553,-0.274823188782,0.0,0.0,0.0,-0.730254426061,0.68317528733
1565339565051469728,19277,1565339564990968938,map,1.32566356659,-0.274364471436,0.0,0.0,0.0,-0.731192260931,0.682171442934
1565339565119149780,19278,1565339565057661230,map,1.31638813019,-0.273790359497,0.0,0.0,0.0,-0.732203741475,0.681085663459
1565339565184923478,19279,1565339565123763573,map,1.30704021454,-0.273591041565,0.0,0.0,0.0,-0.733288506655,0.679917617074
1565339565251480353,19280,1565339565190600709,map,1.29780769348,-0.272427558899,0.0,0.0,0.0,-0.734611512469,0.678487970231
1565339565318532020,19281,1565339565257085448,map,1.2896528244,-0.27160358429,0.0,0.0,0.0,-0.735655960064,0.677355378234
1565339565384877801,19282,1565339565323725813,map,1.27948474884,-0.271929740906,0.0,0.0,0.0,-0.736835525302,0.676072043982
1565339565449912801,19283,1565339565390395240,map,1.27184772491,-0.271848678589,0.0,0.0,0.0,-0.737947852176,0.674857738689
1565339565517371447,19284,1565339565457115969,map,1.26386260986,-0.271360397339,0.0,0.0,0.0,-0.738945741513,0.67376493757
1565339565584983947,19285,1565339565523674823,map,1.25423622131,-0.272546768188,0.0,0.0,0.0,-0.740060199122,0.672540631989
1565339565649923374,19286,1565339565590391386,map,1.24617195129,-0.272578239441,0.0,0.0,0.0,-0.741089394575,0.671406366703
1565339565717569572,19287,1565339565657198365,map,1.23756885529,-0.273077011108,0.0,0.0,0.0,-0.742123243743,0.670263449023
1565339565783454416,19288,1565339565723674875,map,1.22987937927,-0.271593093872,0.0,0.0,0.0,-0.743074283404,0.669208942965
1565339565850798686,19289,1565339565790373521,map,1.22113513947,-0.271776199341,0.0,0.0,0.0,-0.744195844137,0.667961485094
1565339565917633374,19290,1565339565856969667,map,1.21175575256,-0.271821022034,0.0,0.0,0.0,-0.745705262482,0.666275964978
1565339565983962488,19291,1565339565924299094,map,1.20404529572,-0.270524978638,0.0,0.0,0.0,-0.746770684217,0.66508160792
1565339566050396551,19292,1565339565990397583,map,1.19325065613,-0.271548271179,0.0,0.0,0.0,-0.747737157766,0.663994836498
1565339566116875145,19293,1565339566057092687,map,1.18373680115,-0.270509719849,0.0,0.0,0.0,-0.748602944489,0.663018575533
1565339566184401447,19294,1565339566123716333,map,1.17212486267,-0.27069568634,0.0,0.0,0.0,-0.749497130303,0.66200759185
1565339566250237124,19295,1565339566190424510,map,1.15981769562,-0.269672393799,0.0,0.0,0.0,-0.750390738758,0.660994507682
1565339566318133478,19296,1565339566257991437,map,1.14768695831,-0.268757820129,0.0,0.0,0.0,-0.751364008226,0.659887965599
1565339566384072332,19297,1565339566324223573,map,1.13410186768,-0.268802642822,0.0,0.0,0.0,-0.752211550964,0.658921681687
1565339566453033686,19298,1565339566391219458,map,1.12097167969,-0.266660690308,0.0,0.0,0.0,-0.753382633939,0.657582395506
1565339566518551707,19299,1565339566457655812,map,1.10608196259,-0.266946792603,0.0,0.0,0.0,-0.754391407793,0.656424865349
1565339566583625092,19300,1565339566523713885,map,1.09041786194,-0.265885353088,0.0,0.0,0.0,-0.755415900384,0.655245616122
1565339566651181446,19301,1565339566590509406,map,1.07504844666,-0.264314651489,0.0,0.0,0.0,-0.756275255603,0.654253572984
1565339566717935665,19302,1565339566657360135,map,1.0586681366,-0.263605117798,0.0,0.0,0.0,-0.757009006295,0.653404441666
1565339566784363113,19303,1565339566723857739,map,1.04295063019,-0.260408401489,0.0,0.0,0.0,-0.757715198599,0.652585379711
1565339566851813686,19304,1565339566790717479,map,1.02704334259,-0.260303497314,0.0,0.0,0.0,-0.758442880849,0.651739515827
1565339566919163894,19305,1565339566857799510,map,1.00926685333,-0.258303642273,0.0,0.0,0.0,-0.759633273826,0.650351665867
1565339566983948061,19306,1565339566924361906,map,0.994031906128,-0.254776954651,0.0,0.0,0.0,-0.76017725405,0.649715739708
1565339567051431030,19307,1565339566990805135,map,0.976308822632,-0.253604888916,0.0,0.0,0.0,-0.761003981386,0.648747208329
1565339567117585040,19308,1565339567057242739,map,0.960939407349,-0.25212097168,0.0,0.0,0.0,-0.761650292621,0.647988295999
1565339567184319259,19309,1565339567124005135,map,0.945628166199,-0.251407623291,0.0,0.0,0.0,-0.762501042805,0.646986985743
1565339567251025717,19310,1565339567190519145,map,0.931210517883,-0.250571250916,0.0,0.0,0.0,-0.763384050787,0.645944882326
1565339567317958373,19311,1565339567257085656,map,0.9175157547,-0.251230239868,0.0,0.0,0.0,-0.764005723991,0.645209464987
1565339567384347071,19312,1565339567323717843,map,0.903932571411,-0.249116897583,0.0,0.0,0.0,-0.764805205838,0.6442615906
1565339567452255092,19313,1565339567390642895,map,0.890864372253,-0.247632980347,0.0,0.0,0.0,-0.765521601793,0.643410193569
1565339567518998530,19314,1565339567457080031,map,0.878707885742,-0.24383354187,0.0,0.0,0.0,-0.766403397042,0.642359582323
1565339567583256029,19315,1565339567523725343,map,0.867611885071,-0.241065979004,0.0,0.0,0.0,-0.766886981922,0.641782172515
1565339567650128321,19316,1565339567590613051,map,0.854829788208,-0.237252235413,0.0,0.0,0.0,-0.76758014091,0.640952983674
1565339567716769363,19317,1565339567657111124,map,0.844126701355,-0.23611164093,0.0,0.0,0.0,-0.768343976022,0.640037135259
1565339567784185665,19318,1565339567724335083,map,0.832776069641,-0.234534263611,0.0,0.0,0.0,-0.768940600202,0.639320227555
1565339567850861967,19319,1565339567791381853,map,0.820974349976,-0.233100891113,0.0,0.0,0.0,-0.769664281817,0.63844881807
1565339567918436498,19320,1565339567858022687,map,0.810270309448,-0.230916976929,0.0,0.0,0.0,-0.770213960047,0.637785587599
1565339567983944675,19321,1565339567924320239,map,0.799257278442,-0.230803489685,0.0,0.0,0.0,-0.770893989743,0.636963465654
1565339568051130613,19322,1565339567990891333,map,0.787897109985,-0.230016708374,0.0,0.0,0.0,-0.771573596915,0.636140066765
1565339568119475508,19323,1565339568057337010,map,0.778015136719,-0.22908782959,0.0,0.0,0.0,-0.772204609026,0.635373938558
1565339568185055977,19324,1565339568124050447,map,0.767232894897,-0.228410720825,0.0,0.0,0.0,-0.772794461177,0.634656380078
1565339568251910977,19325,1565339568190543728,map,0.757138252258,-0.227249145508,0.0,0.0,0.0,-0.773489737866,0.633808824028
1565339568321284310,19326,1565339568257208624,map,0.747385978699,-0.226019859314,0.0,0.0,0.0,-0.77402545477,0.633154479861
1565339568383709467,19327,1565339568323786801,map,0.737966537476,-0.225371360779,0.0,0.0,0.0,-0.774523972502,0.632544556549
1565339568450383998,19328,1565339568390697739,map,0.729278564453,-0.223091125488,0.0,0.0,0.0,-0.775079259088,0.631864021868
1565339568519404519,19329,1565339568457056280,map,0.719772338867,-0.222208023071,0.0,0.0,0.0,-0.77575597717,0.631033013308
1565339568583810144,19330,1565339568523716905,map,0.71132850647,-0.220586776733,0.0,0.0,0.0,-0.776294455797,0.630370460839
1565339568651547904,19331,1565339568590690291,map,0.702087402344,-0.220325469971,0.0,0.0,0.0,-0.776933248602,0.629582978817
1565339568716965144,19332,1565339568657089926,map,0.693452835083,-0.219982147217,0.0,0.0,0.0,-0.777585034697,0.628777793673
1565339568783968164,19333,1565339568723807582,map,0.68560218811,-0.219046592712,0.0,0.0,0.0,-0.777835026932,0.62846851224
1565339568850290508,19334,1565339568790518520,map,0.676582336426,-0.218468666077,0.0,0.0,0.0,-0.778432231459,0.627728652386
1565339568917060664,19335,1565339568857277374,map,0.667965888977,-0.21762752533,0.0,0.0,0.0,-0.778984034061,0.627043758185
1565339568985193477,19336,1565339568924847791,map,0.658825874329,-0.218176841736,0.0,0.0,0.0,-0.779691414731,0.626163954404
1565339569052383216,19337,1565339568990645499,map,0.651037216187,-0.217210769653,0.0,0.0,0.0,-0.780391093122,0.625291725338
1565339569119135664,19338,1565339569057298103,map,0.642909049988,-0.217238426208,0.0,0.0,0.0,-0.781006717706,0.624522623208
1565339569186307487,19339,1565339569124521436,map,0.635091781616,-0.21546459198,0.0,0.0,0.0,-0.781488318481,0.623919873123
1565339569251153216,19340,1565339569191099145,map,0.627535820007,-0.215574264526,0.0,0.0,0.0,-0.782064109817,0.623197984702
1565339569317728581,19341,1565339569257851801,map,0.62042427063,-0.214641571045,0.0,0.0,0.0,-0.782677374153,0.622427608633
1565339569384201602,19342,1565339569324229613,map,0.612612724304,-0.215313911438,0.0,0.0,0.0,-0.783003891046,0.622016805727
1565339569451743320,19343,1565339569391534822,map,0.605374336243,-0.214218139648,0.0,0.0,0.0,-0.783483557933,0.621412515523
1565339569517649987,19344,1565339569457430759,map,0.598213195801,-0.215188980103,0.0,0.0,0.0,-0.783887118438,0.620903362486
1565339569583513841,19345,1565339569523884249,map,0.59139251709,-0.214994430542,0.0,0.0,0.0,-0.78438692604,0.620271835776
1565339569652164362,19346,1565339569591607322,map,0.584147453308,-0.215285301208,0.0,0.0,0.0,-0.7848723377,0.619657496939
1565339569718118633,19347,1565339569657334144,map,0.576522827148,-0.213308334351,0.0,0.0,0.0,-0.785370994003,0.619025364407
1565339569783885924,19348,1565339569723924978,map,0.570558547974,-0.214718818665,0.0,0.0,0.0,-0.785699707349,0.618608090694
1565339569850404987,19349,1565339569790810603,map,0.563856124878,-0.213887214661,0.0,0.0,0.0,-0.786520667809,0.617563955481
1565339569922523112,19350,1565339569861041280,map,0.55690574646,-0.214648246765,0.0,0.0,0.0,-0.786866113932,0.617123746704
1565339569985862226,19351,1565339569925885342,map,0.550946235657,-0.211699485779,0.0,0.0,0.0,-0.787571987509,0.61622265821
1565339570051129674,19352,1565339569990588103,map,0.544626235962,-0.212158203125,0.0,0.0,0.0,-0.787964835449,0.61572024337
1565339570117443581,19353,1565339570057157165,map,0.538187980652,-0.21290397644,0.0,0.0,0.0,-0.788296927209,0.615295014243
1565339570184687747,19354,1565339570124518780,map,0.531865119934,-0.212301254272,0.0,0.0,0.0,-0.788635532877,0.614860956871
1565339570250456237,19355,1565339570190626228,map,0.526350021362,-0.212047576904,0.0,0.0,0.0,-0.789116267356,0.614243857596
1565339570317771341,19356,1565339570257195655,map,0.519990921021,-0.211825370789,0.0,0.0,0.0,-0.789501999842,0.613747987569
1565339570383808476,19357,1565339570324075394,map,0.514355659485,-0.212522506714,0.0,0.0,0.0,-0.789858908802,0.613288597796
1565339570450232747,19358,1565339570390563727,map,0.508066177368,-0.212378501892,0.0,0.0,0.0,-0.790302331763,0.612717083498
1565339570518148060,19359,1565339570457165394,map,0.501866340637,-0.212564468384,0.0,0.0,0.0,-0.790604481607,0.612327162278
1565339570584068164,19360,1565339570524379509,map,0.496536254883,-0.212317466736,0.0,0.0,0.0,-0.790799046575,0.612075867794
1565339570651132122,19361,1565339570591300238,map,0.490916252136,-0.211987495422,0.0,0.0,0.0,-0.791135442216,0.611640999336
1565339570717441028,19362,1565339570657770759,map,0.483842849731,-0.211999893188,0.0,0.0,0.0,-0.791329497554,0.611389913476
1565339570783639674,19363,1565339570723865238,map,0.479272842407,-0.21152305603,0.0,0.0,0.0,-0.791660563415,0.610961170888
1565339570851159205,19364,1565339570790580186,map,0.473750114441,-0.21123790741,0.0,0.0,0.0,-0.792025457313,0.61048806292
1565339570917434414,19365,1565339570857295029,map,0.467771530151,-0.213338851929,0.0,0.0,0.0,-0.792091824206,0.610401951198
1565339570985090091,19366,1565339570924861852,map,0.462689399719,-0.211853027344,0.0,0.0,0.0,-0.792509749391,0.609859243695
1565339571051993736,19367,1565339570991675290,map,0.457517623901,-0.211976051331,0.0,0.0,0.0,-0.792652512211,0.609673679017
1565339571117209570,19368,1565339571057632373,map,0.452276229858,-0.211464881897,0.0,0.0,0.0,-0.792997173505,0.609225313667
1565339571183930143,19369,1565339571123790758,map,0.447285652161,-0.212497711182,0.0,0.0,0.0,-0.793438962443,0.608649827797
1565339571249824257,19370,1565339571190545758,map,0.443780899048,-0.213356971741,0.0,0.0,0.0,-0.793251728598,0.608893829068
1565339571316405038,19371,1565339571257091331,map,0.439814567566,-0.21346950531,0.0,0.0,0.0,-0.794131364733,0.607746144
1565339571383929153,19372,1565339571323952425,map,0.437006950378,-0.214433670044,0.0,0.0,0.0,-0.794323459756,0.607495054533
1565339571450234049,19373,1565339571390671852,map,0.434585571289,-0.21574306488,0.0,0.0,0.0,-0.794514027604,0.607245798619
1565339571517083268,19374,1565339571457211592,map,0.432047843933,-0.216332435608,0.0,0.0,0.0,-0.794758060263,0.606926375805
1565339571583758163,19375,1565339571523846592,map,0.430956840515,-0.217935562134,0.0,0.0,0.0,-0.794979112976,0.606636802323
1565339571651234518,19376,1565339571590583675,map,0.431161880493,-0.219262123108,0.0,0.0,0.0,-0.795358764671,0.606138957221
1565339571717182070,19377,1565339571657160394,map,0.430419921875,-0.221250534058,0.0,0.0,0.0,-0.795774779732,0.605592684849
1565339571783707330,19378,1565339571723856435,map,0.43285369873,-0.223142623901,0.0,0.0,0.0,-0.796218259824,0.605009489779
1565339571850793372,19379,1565339571790848206,map,0.434440612793,-0.22536277771,0.0,0.0,0.0,-0.796219846522,0.605007401612
1565339571916951497,19380,1565339571857178883,map,0.437522888184,-0.227710723877,0.0,0.0,0.0,-0.796570084102,0.604546194359
1565339571984115924,19381,1565339571924766852,map,0.440612792969,-0.230718612671,0.0,0.0,0.0,-0.796692150242,0.604385322243
1565339572051925247,19382,1565339571991244977,map,0.44460773468,-0.233087539673,0.0,0.0,0.0,-0.796686818633,0.60439235023
1565339572119740090,19383,1565339572058035029,map,0.448211669922,-0.236535072327,0.0,0.0,0.0,-0.797197074844,0.603719159759
1565339572184042903,19384,1565339572123909091,map,0.453659057617,-0.239706993103,0.0,0.0,0.0,-0.797283861138,0.603604543364
1565339572250045611,19385,1565339572190730081,map,0.459093093872,-0.242593765259,0.0,0.0,0.0,-0.797826369204,0.602887290132
1565339572317329882,19386,1565339572257190029,map,0.464889526367,-0.24725151062,0.0,0.0,0.0,-0.797695116111,0.60306094363
1565339572384275611,19387,1565339572323856956,map,0.470537185669,-0.250615119934,0.0,0.0,0.0,-0.797977989169,0.602686592519
