%time,field.linear.x,field.linear.y,field.linear.z,field.angular.x,field.angular.y,field.angular.z
1565339540014422811,1550.0,1550.0,1550.0,1550.0,0.0,0.0
1565339540064320780,1550.0,1550.0,1550.0,1550.0,0.0,0.0
1565339540114279790,1550.0,1550.0,1550.0,1550.0,0.0,0.0
1565339540164315571,1550.0,1550.0,1550.0,1550.0,0.0,0.0
1565339540214282342,1550.0,1550.0,1550.0,1550.0,0.0,0.0
1565339540264327029,1550.0,1550.0,1550.0,1550.0,0.0,0.0
1565339540314275988,1550.0,1550.0,1550.0,1550.0,0.0,0.0
1565339540365182915,1550.0,1574.03461188,1550.0,1574.03461188,0.0,0.0
1565339540415229113,1550.0,1574.03461188,1550.0,1574.03461188,0.0,0.0
1565339540465314581,1550.0,1574.03461188,1550.0,1574.03461188,0.0,0.0
1565339540515647602,1550.0,1574.03461188,1550.0,1574.03461188,0.0,0.0
1565339540565385363,1550.0,1574.03461188,1550.0,1574.03461188,0.0,0.0
1565339540615296769,1550.0,1574.03461188,1550.0,1574.03461188,0.0,0.0
1565339540665276717,1550.0,1574.03461188,1550.0,1574.03461188,0.0,0.0
1565339540715307602,1550.0,1574.03461188,1550.0,1574.03461188,0.0,0.0
1565339540765224373,1550.0,1580.54629862,1550.0,1580.54629862,0.0,0.0
1565339540815253956,1550.0,1580.54629862,1550.0,1580.54629862,0.0,0.0
1565339540865352446,1550.0,1581.63211346,1550.0,1581.63211346,0.0,0.0
1565339540916438279,1550.0,1581.63211346,1550.0,1581.63211346,0.0,0.0
1565339540965296769,1550.0,1582.71793127,1550.0,1582.71793127,0.0,0.0
1565339541015332758,1550.0,1582.71793127,1550.0,1582.71793127,0.0,0.0
1565339541064902133,1550.0,1647.83157706,1550.0,1647.83157706,0.0,0.0
1565339541116310571,1550.0,1647.83157706,1550.0,1647.83157706,0.0,0.0
1565339541166105987,1550.0,1650.0,1550.0,1650.0,0.0,0.0
1565339541216193696,1550.0,1650.0,1550.0,1650.0,0.0,0.0
1565339541265712654,1550.0,1650.0,1550.0,1650.0,0.0,0.0
1565339541315752498,1550.0,1650.0,1550.0,1650.0,0.0,0.0
1565339541365443227,1550.0,1650.0,1550.0,1650.0,0.0,0.0
1565339541415808800,1550.0,1650.0,1550.0,1650.0,0.0,0.0
1565339541465361560,1550.0,1650.0,1550.0,1650.0,0.0,0.0
1565339541516056560,1550.0,1650.0,1550.0,1650.0,0.0,0.0
1565339541564993279,1550.0,1650.0,1550.0,1650.0,0.0,0.0
1565339541615061560,1550.0,1650.0,1550.0,1650.0,0.0,0.0
1565339541665360466,1550.0,1650.0,1550.0,1650.0,0.0,0.0
1565339541716218279,1550.0,1650.0,1550.0,1650.0,0.0,0.0
1565339541765193383,1550.0,1650.0,1550.0,1650.0,0.0,0.0
1565339541815381143,1550.0,1650.0,1550.0,1650.0,0.0,0.0
1565339541864990623,1550.0,1650.0,1550.0,1650.0,0.0,0.0
1565339541915166039,1550.0,1650.0,1550.0,1650.0,0.0,0.0
1565339541965427133,1550.0,1650.0,1550.0,1650.0,0.0,0.0
1565339542015043279,1550.0,1650.0,1550.0,1650.0,0.0,0.0
1565339542065018175,1550.0,1650.0,1550.0,1650.0,0.0,0.0
1565339542115107810,1550.0,1650.0,1550.0,1650.0,0.0,0.0
1565339542164908175,1550.0,1650.0,1550.0,1650.0,0.0,0.0
1565339542214976820,1550.0,1650.0,1550.0,1650.0,0.0,0.0
1565339542264907862,1550.0,1650.0,1550.0,1650.0,0.0,0.0
1565339542315016247,1550.0,1650.0,1550.0,1650.0,0.0,0.0
1565339542365081768,1550.0,1550.0,1550.0,1550.0,0.0,0.0
1565339542415364945,1550.0,1550.0,1550.0,1550.0,0.0,0.0
1565339542465113331,1550.0,1550.0,1550.0,1550.0,0.0,0.0
1565339542515114320,1550.0,1550.0,1550.0,1550.0,0.0,0.0
1565339542565003799,1550.0,1550.0,1550.0,1550.0,0.0,0.0
1565339542615076872,1550.0,1550.0,1550.0,1550.0,0.0,0.0
1565339542665082393,1550.0,1550.0,1550.0,1550.0,0.0,0.0
1565339542715801768,1550.0,1550.0,1550.0,1550.0,0.0,0.0
1565339542764961039,1550.0,1550.0,1550.0,1550.0,0.0,0.0
1565339542815070310,1550.0,1550.0,1550.0,1550.0,0.0,0.0
1565339542864885310,1550.0,1550.0,1550.0,1550.0,0.0,0.0
1565339542916778747,1550.0,1550.0,1550.0,1550.0,0.0,0.0
1565339542964977028,1550.0,1550.0,1550.0,1550.0,0.0,0.0
1565339543014978018,1550.0,1550.0,1550.0,1550.0,0.0,0.0
1565339543065056716,1550.0,1550.0,1550.0,1550.0,0.0,0.0
1565339543115925883,1550.0,1550.0,1550.0,1550.0,0.0,0.0
1565339543164967966,1550.0,1550.0,1550.0,1550.0,0.0,0.0
1565339543215025049,1550.0,1550.0,1550.0,1550.0,0.0,0.0
1565339543264974685,1550.0,1550.0,1550.0,1550.0,0.0,0.0
1565339543316367497,1550.0,1550.0,1550.0,1550.0,0.0,0.0
1565339543365532653,1550.0,1550.0,1550.0,1550.0,0.0,0.0
1565339543415095674,1550.0,1550.0,1550.0,1550.0,0.0,0.0
1565339543465336768,1550.0,1550.0,1550.0,1550.0,0.0,0.0
1565339543515537601,1550.0,1550.0,1550.0,1550.0,0.0,0.0
1565339543565031559,1550.0,1550.0,1550.0,1550.0,0.0,0.0
1565339543615758903,1550.0,1550.0,1550.0,1550.0,0.0,0.0
1565339543665354216,1550.0,1550.0,1550.0,1550.0,0.0,0.0
1565339543715719424,1550.0,1550.0,1550.0,1550.0,0.0,0.0
1565339543765105882,1550.0,1550.0,1550.0,1550.0,0.0,0.0
1565339543815250622,1550.0,1550.0,1550.0,1550.0,0.0,0.0
1565339543865040309,1550.0,1550.0,1550.0,1550.0,0.0,0.0
1565339543915118122,1550.0,1550.0,1550.0,1550.0,0.0,0.0
1565339543965041455,1639.15147185,1550.0,1639.15147185,1550.0,0.0,0.0
1565339544015013330,1639.15147185,1550.0,1639.15147185,1550.0,0.0,0.0
1565339544065255674,1550.0,1550.0,1550.0,1550.0,0.0,0.0
1565339544115608591,1550.0,1550.0,1550.0,1550.0,0.0,0.0
1565339544165147705,1550.0,1550.0,1550.0,1550.0,0.0,0.0
1565339544215064997,1550.0,1550.0,1550.0,1550.0,0.0,0.0
1565339544265120309,1550.0,1550.0,1550.0,1550.0,0.0,0.0
1565339544315313799,1550.0,1550.0,1550.0,1550.0,0.0,0.0
1565339544364925101,1550.0,1550.0,1550.0,1550.0,0.0,0.0
1565339544414939892,1650.0,1550.0,1650.0,1550.0,0.0,0.0
1565339544464874892,1650.0,1550.0,1650.0,1550.0,0.0,0.0
1565339544516985674,1550.0,1550.0,1550.0,1550.0,0.0,0.0
1565339544565033017,1550.0,1550.0,1550.0,1550.0,0.0,0.0
1565339544615073330,1550.0,1550.0,1550.0,1550.0,0.0,0.0
1565339544665520153,1635.89723706,1550.0,1635.89723706,1550.0,0.0,0.0
1565339544715289476,1635.89723706,1550.0,1635.89723706,1550.0,0.0,0.0
1565339544765027497,1550.0,1550.0,1550.0,1550.0,0.0,0.0
1565339544815265986,1550.0,1550.0,1550.0,1550.0,0.0,0.0
1565339544865157132,1550.0,1550.0,1550.0,1550.0,0.0,0.0
1565339544916115830,1550.0,1550.0,1550.0,1550.0,0.0,0.0
1565339544965222080,1650.0,1550.0,1650.0,1550.0,0.0,0.0
1565339545015101403,1650.0,1550.0,1650.0,1550.0,0.0,0.0
1565339545065143903,1550.0,1550.0,1550.0,1550.0,0.0,0.0
1565339545116062132,1550.0,1550.0,1550.0,1550.0,0.0,0.0
1565339545165800726,1650.0,1550.0,1650.0,1550.0,0.0,0.0
1565339545214963590,1650.0,1550.0,1650.0,1550.0,0.0,0.0
1565339545265256819,1650.0,1550.0,1650.0,1550.0,0.0,0.0
1565339545315019267,1550.0,1550.0,1550.0,1550.0,0.0,0.0
1565339545364927288,1550.0,1550.0,1550.0,1550.0,0.0,0.0
1565339545414924475,1550.0,1550.0,1550.0,1550.0,0.0,0.0
1565339545465054267,1550.0,1550.0,1550.0,1550.0,0.0,0.0
1565339545515726819,1550.0,1550.0,1550.0,1550.0,0.0,0.0
1565339545564997809,1550.0,1550.0,1550.0,1550.0,0.0,0.0
1565339545615006559,1550.0,1550.0,1550.0,1550.0,0.0,0.0
1565339545664977392,1550.0,1550.0,1550.0,1550.0,0.0,0.0
1565339545715165100,1550.0,1550.0,1550.0,1550.0,0.0,0.0
1565339545765093694,1550.0,1550.0,1550.0,1550.0,0.0,0.0
1565339545815735309,1550.0,1550.0,1550.0,1550.0,0.0,0.0
1565339545865384423,1550.0,1550.0,1550.0,1550.0,0.0,0.0
1565339545915858434,1550.0,1550.0,1550.0,1550.0,0.0,0.0
1565339545964995465,1550.0,1550.0,1550.0,1550.0,0.0,0.0
1565339546015057340,1550.0,1550.0,1550.0,1550.0,0.0,0.0
1565339546065610621,1550.0,1550.0,1550.0,1550.0,0.0,0.0
1565339546115470829,1550.0,1550.0,1550.0,1550.0,0.0,0.0
1565339546165108746,1550.0,1550.0,1550.0,1550.0,0.0,0.0
1565339546215870673,1550.0,1550.0,1550.0,1550.0,0.0,0.0
1565339546264858069,1550.0,1559.30597708,1559.30597708,1550.0,0.0,0.0
1565339546315313277,1550.0,1559.30597708,1559.30597708,1550.0,0.0,0.0
1565339546365078850,1550.0,1585.35272181,1585.35272181,1550.0,0.0,0.0
1565339546415697808,1550.0,1585.35272181,1585.35272181,1550.0,0.0,0.0
1565339546465034110,1550.0,1589.69277442,1589.69277442,1550.0,0.0,0.0
1565339546515922392,1550.0,1589.69277442,1589.69277442,1550.0,0.0,0.0
1565339546565244319,1550.0,1589.69277442,1589.69277442,1550.0,0.0,0.0
1565339546614750569,1550.0,1589.14986551,1589.14986551,1550.0,0.0,0.0
1565339546665046715,1550.0,1589.14986551,1589.14986551,1550.0,0.0,0.0
1565339546715206767,1550.0,1589.14986551,1589.14986551,1550.0,0.0,0.0
1565339546765089892,1550.0,1550.0,1550.0,1550.0,0.0,0.0
1565339546815411089,1550.0,1550.0,1550.0,1550.0,0.0,0.0
1565339546864792131,1550.0,1550.0,1550.0,1550.0,0.0,0.0
1565339546915889579,1550.0,1550.0,1550.0,1550.0,0.0,0.0
1565339546965034475,1550.0,1550.0,1550.0,1550.0,0.0,0.0
1565339547014889527,1550.0,1550.0,1550.0,1550.0,0.0,0.0
1565339547064999266,1550.0,1550.0,1550.0,1550.0,0.0,0.0
1565339547115895360,1550.0,1550.0,1550.0,1550.0,0.0,0.0
1565339547164917600,1550.0,1550.0,1550.0,1550.0,0.0,0.0
1565339547215018068,1550.0,1550.0,1550.0,1550.0,0.0,0.0
1565339547264901714,1550.0,1550.0,1550.0,1550.0,0.0,0.0
1565339547315831193,1550.0,1550.0,1550.0,1550.0,0.0,0.0
1565339547364916298,1550.0,1550.0,1550.0,1550.0,0.0,0.0
1565339547415209162,1605.51043749,1550.0,1605.51043749,1550.0,0.0,0.0
1565339547464714006,1605.51043749,1550.0,1605.51043749,1550.0,0.0,0.0
1565339547515110985,1615.27636051,1550.0,1615.27636051,1550.0,0.0,0.0
1565339547565057964,1615.27636051,1550.0,1615.27636051,1550.0,0.0,0.0
1565339547614942704,1615.27636051,1550.0,1615.27636051,1550.0,0.0,0.0
1565339547664937183,1615.27636051,1550.0,1615.27636051,1550.0,0.0,0.0
1565339547714993641,1609.85049009,1550.0,1609.85049009,1550.0,0.0,0.0
1565339547765243954,1609.85049009,1550.0,1609.85049009,1550.0,0.0,0.0
1565339547815023537,1609.85049009,1550.0,1609.85049009,1550.0,0.0,0.0
1565339547864967964,1609.85049009,1550.0,1609.85049009,1550.0,0.0,0.0
1565339547915702183,1609.85049009,1550.0,1609.85049009,1550.0,0.0,0.0
1565339547964628849,1609.85049009,1550.0,1609.85049009,1550.0,0.0,0.0
1565339548014662964,1609.85049009,1550.0,1609.85049009,1550.0,0.0,0.0
1565339548064966558,1609.85049009,1550.0,1609.85049009,1550.0,0.0,0.0
1565339548116321401,1609.85049009,1550.0,1609.85049009,1550.0,0.0,0.0
1565339548164922651,1609.85049009,1550.0,1609.85049009,1550.0,0.0,0.0
1565339548215582547,1609.85049009,1550.0,1609.85049009,1550.0,0.0,0.0
1565339548264689579,1609.85049009,1550.0,1609.85049009,1550.0,0.0,0.0
1565339548315208016,1609.85049009,1550.0,1609.85049009,1550.0,0.0,0.0
1565339548364661766,1609.85049009,1550.0,1609.85049009,1550.0,0.0,0.0
1565339548414764110,1609.85049009,1550.0,1609.85049009,1550.0,0.0,0.0
1565339548464844578,1609.85049009,1550.0,1609.85049009,1550.0,0.0,0.0
1565339548516082703,1609.85049009,1550.0,1609.85049009,1550.0,0.0,0.0
1565339548564830985,1609.85049009,1550.0,1609.85049009,1550.0,0.0,0.0
1565339548614957130,1609.85049009,1550.0,1609.85049009,1550.0,0.0,0.0
1565339548664918224,1609.85049009,1550.0,1609.85049009,1550.0,0.0,0.0
1565339548715033224,1609.85049009,1550.0,1609.85049009,1550.0,0.0,0.0
1565339548764832078,1609.85049009,1550.0,1609.85049009,1550.0,0.0,0.0
1565339548814889735,1609.85049009,1550.0,1609.85049009,1550.0,0.0,0.0
1565339548864971766,1609.85049009,1550.0,1609.85049009,1550.0,0.0,0.0
1565339548914912130,1609.85049009,1550.0,1609.85049009,1550.0,0.0,0.0
1565339548964855255,1609.85049009,1550.0,1609.85049009,1550.0,0.0,0.0
1565339549014858693,1609.85049009,1550.0,1609.85049009,1550.0,0.0,0.0
1565339549065290828,1609.85049009,1550.0,1609.85049009,1550.0,0.0,0.0
1565339549114919682,1609.85049009,1550.0,1609.85049009,1550.0,0.0,0.0
1565339549164817495,1609.85049009,1550.0,1609.85049009,1550.0,0.0,0.0
1565339549215379318,1609.85049009,1550.0,1609.85049009,1550.0,0.0,0.0
1565339549265203224,1609.85049009,1550.0,1609.85049009,1550.0,0.0,0.0
1565339549315697130,1609.85049009,1550.0,1609.85049009,1550.0,0.0,0.0
1565339549364836297,1609.85049009,1550.0,1609.85049009,1550.0,0.0,0.0
1565339549414938797,1609.85049009,1550.0,1609.85049009,1550.0,0.0,0.0
1565339549464878901,1609.85049009,1550.0,1609.85049009,1550.0,0.0,0.0
1565339549515340255,1609.85049009,1550.0,1609.85049009,1550.0,0.0,0.0
1565339549564888849,1609.85049009,1550.0,1609.85049009,1550.0,0.0,0.0
1565339549615025828,1609.85049009,1550.0,1609.85049009,1550.0,0.0,0.0
1565339549665601713,1609.85049009,1550.0,1609.85049009,1550.0,0.0,0.0
1565339549715910515,1609.85049009,1550.0,1609.85049009,1550.0,0.0,0.0
1565339549764598172,1609.85049009,1550.0,1609.85049009,1550.0,0.0,0.0
1565339549815615984,1609.85049009,1550.0,1609.85049009,1550.0,0.0,0.0
1565339549864602234,1609.85049009,1550.0,1609.85049009,1550.0,0.0,0.0
1565339549915229213,1609.85049009,1550.0,1609.85049009,1550.0,0.0,0.0
1565339549965063692,1609.85049009,1550.0,1609.85049009,1550.0,0.0,0.0
1565339550015570463,1609.85049009,1550.0,1609.85049009,1550.0,0.0,0.0
1565339550064946401,1609.85049009,1550.0,1609.85049009,1550.0,0.0,0.0
1565339550115340672,1609.85049009,1550.0,1609.85049009,1550.0,0.0,0.0
1565339550164928849,1609.85049009,1550.0,1609.85049009,1550.0,0.0,0.0
1565339550215306765,1609.85049009,1550.0,1609.85049009,1550.0,0.0,0.0
1565339550264899838,1609.85049009,1550.0,1609.85049009,1550.0,0.0,0.0
1565339550314960932,1609.85049009,1550.0,1609.85049009,1550.0,0.0,0.0
1565339550364889890,1609.85049009,1550.0,1609.85049009,1550.0,0.0,0.0
1565339550414925463,1609.85049009,1550.0,1609.85049009,1550.0,0.0,0.0
1565339550464910932,1609.85049009,1550.0,1609.85049009,1550.0,0.0,0.0
1565339550515501140,1609.85049009,1550.0,1609.85049009,1550.0,0.0,0.0
1565339550564900776,1609.85049009,1550.0,1609.85049009,1550.0,0.0,0.0
1565339550615066401,1609.85049009,1550.0,1609.85049009,1550.0,0.0,0.0
1565339550664986973,1609.85049009,1550.0,1609.85049009,1550.0,0.0,0.0
1565339550715103328,1609.85049009,1550.0,1609.85049009,1550.0,0.0,0.0
1565339550764934317,1609.85049009,1550.0,1609.85049009,1550.0,0.0,0.0
1565339550814938067,1609.85049009,1550.0,1609.85049009,1550.0,0.0,0.0
1565339550864933328,1609.85049009,1550.0,1609.85049009,1550.0,0.0,0.0
1565339550915575255,1609.85049009,1550.0,1609.85049009,1550.0,0.0,0.0
1565339550965329213,1609.85049009,1550.0,1609.85049009,1550.0,0.0,0.0
1565339551014954942,1609.85049009,1550.0,1609.85049009,1550.0,0.0,0.0
1565339551064922338,1609.85049009,1550.0,1609.85049009,1550.0,0.0,0.0
1565339551114672650,1609.85049009,1550.0,1609.85049009,1550.0,0.0,0.0
1565339551165292182,1609.85049009,1550.0,1609.85049009,1550.0,0.0,0.0
1565339551215982598,1609.85049009,1550.0,1609.85049009,1550.0,0.0,0.0
1565339551265164369,1609.85049009,1550.0,1609.85049009,1550.0,0.0,0.0
1565339551315508900,1609.85049009,1550.0,1609.85049009,1550.0,0.0,0.0
1565339551365167129,1609.85049009,1550.0,1609.85049009,1550.0,0.0,0.0
1565339551415673015,1609.85049009,1550.0,1609.85049009,1550.0,0.0,0.0
1565339551465357598,1609.85049009,1550.0,1609.85049009,1550.0,0.0,0.0
1565339551515108275,1609.85049009,1550.0,1609.85049009,1550.0,0.0,0.0
1565339551565092494,1609.85049009,1550.0,1609.85049009,1550.0,0.0,0.0
1565339551615190775,1609.85049009,1550.0,1609.85049009,1550.0,0.0,0.0
1565339551665407077,1609.85049009,1550.0,1609.85049009,1550.0,0.0,0.0
1565339551715836661,1609.85049009,1550.0,1609.85049009,1550.0,0.0,0.0
1565339551765868796,1609.85049009,1550.0,1609.85049009,1550.0,0.0,0.0
1565339551814995723,1609.85049009,1550.0,1609.85049009,1550.0,0.0,0.0
1565339551866644160,1609.85049009,1550.0,1609.85049009,1550.0,0.0,0.0
1565339551914946765,1609.85049009,1550.0,1609.85049009,1550.0,0.0,0.0
1565339551965516192,1609.85049009,1550.0,1609.85049009,1550.0,0.0,0.0
1565339552014726765,1609.85049009,1550.0,1609.85049009,1550.0,0.0,0.0
1565339552064811712,1609.85049009,1550.0,1609.85049009,1550.0,0.0,0.0
1565339552115640306,1609.85049009,1550.0,1609.85049009,1550.0,0.0,0.0
1565339552165339421,1609.85049009,1550.0,1609.85049009,1550.0,0.0,0.0
1565339552215519629,1609.85049009,1550.0,1609.85049009,1550.0,0.0,0.0
1565339552265049369,1609.85049009,1550.0,1609.85049009,1550.0,0.0,0.0
1565339552315409056,1609.85049009,1550.0,1609.85049009,1550.0,0.0,0.0
1565339552365252910,1609.85049009,1550.0,1609.85049009,1550.0,0.0,0.0
1565339552415113639,1609.85049009,1550.0,1609.85049009,1550.0,0.0,0.0
1565339552465144421,1609.85049009,1550.0,1609.85049009,1550.0,0.0,0.0
1565339552516030879,1609.85049009,1550.0,1609.85049009,1550.0,0.0,0.0
1565339552565065983,1609.85049009,1550.0,1609.85049009,1550.0,0.0,0.0
1565339552615186087,1609.85049009,1550.0,1609.85049009,1550.0,0.0,0.0
1565339552665203066,1609.85049009,1550.0,1609.85049009,1550.0,0.0,0.0
1565339552715426087,1609.85049009,1550.0,1609.85049009,1550.0,0.0,0.0
1565339552765348223,1609.85049009,1550.0,1609.85049009,1550.0,0.0,0.0
1565339552815522910,1609.85049009,1550.0,1609.85049009,1550.0,0.0,0.0
1565339552865174004,1609.85049009,1550.0,1609.85049009,1550.0,0.0,0.0
1565339552915570150,1609.85049009,1550.0,1609.85049009,1550.0,0.0,0.0
1565339552965104473,1609.85049009,1550.0,1609.85049009,1550.0,0.0,0.0
1565339553015186973,1609.85049009,1550.0,1609.85049009,1550.0,0.0,0.0
1565339553065117077,1609.85049009,1550.0,1609.85049009,1550.0,0.0,0.0
1565339553115407754,1609.85049009,1550.0,1609.85049009,1550.0,0.0,0.0
1565339553165003431,1609.85049009,1550.0,1609.85049009,1550.0,0.0,0.0
1565339553215053900,1609.85049009,1550.0,1609.85049009,1550.0,0.0,0.0
1565339553265447233,1609.85049009,1550.0,1609.85049009,1550.0,0.0,0.0
1565339553316011764,1609.85049009,1550.0,1609.85049009,1550.0,0.0,0.0
1565339553365016452,1609.85049009,1550.0,1609.85049009,1550.0,0.0,0.0
1565339553415376868,1609.85049009,1550.0,1609.85049009,1550.0,0.0,0.0
1565339553465154420,1609.85049009,1550.0,1609.85049009,1550.0,0.0,0.0
1565339553515919056,1609.85049009,1550.0,1609.85049009,1550.0,0.0,0.0
1565339553565329524,1609.85049009,1550.0,1609.85049009,1550.0,0.0,0.0
1565339553614969629,1609.85049009,1550.0,1609.85049009,1550.0,0.0,0.0
1565339553665269941,1609.85049009,1550.0,1609.85049009,1550.0,0.0,0.0
1565339553715909264,1609.85049009,1550.0,1609.85049009,1550.0,0.0,0.0
1565339553765030826,1609.85049009,1550.0,1609.85049009,1550.0,0.0,0.0
1565339553815237285,1609.85049009,1550.0,1609.85049009,1550.0,0.0,0.0
1565339553864853431,1609.85049009,1550.0,1609.85049009,1550.0,0.0,0.0
1565339553916840826,1609.85049009,1550.0,1609.85049009,1550.0,0.0,0.0
1565339553965042181,1601.17038488,1550.0,1601.17038488,1550.0,0.0,0.0
1565339554015847233,1601.17038488,1550.0,1601.17038488,1550.0,0.0,0.0
1565339554065043795,1550.0,1550.0,1550.0,1550.0,0.0,0.0
1565339554116234576,1550.0,1550.0,1550.0,1550.0,0.0,0.0
1565339554165691972,1550.0,1550.0,1550.0,1550.0,0.0,0.0
1565339554215327962,1550.0,1550.0,1550.0,1550.0,0.0,0.0
1565339554264828847,1550.0,1550.0,1550.0,1550.0,0.0,0.0
1565339554315275722,1550.0,1550.0,1550.0,1550.0,0.0,0.0
1565339554365332337,1550.0,1550.0,1550.0,1550.0,0.0,0.0
1565339554414880722,1550.0,1550.0,1550.0,1550.0,0.0,0.0
1565339554465505201,1550.0,1550.0,1550.0,1550.0,0.0,0.0
1565339554514871659,1550.0,1550.0,1550.0,1550.0,0.0,0.0
1565339554565223170,1550.0,1550.0,1550.0,1550.0,0.0,0.0
1565339554615302753,1550.0,1550.0,1550.0,1550.0,0.0,0.0
1565339554664950305,1550.0,1550.0,1550.0,1550.0,0.0,0.0
1565339554715831399,1550.0,1550.0,1550.0,1550.0,0.0,0.0
1565339554765203847,1550.0,1550.0,1550.0,1550.0,0.0,0.0
1565339554815042597,1550.0,1550.0,1550.0,1550.0,0.0,0.0
1565339554864865097,1550.0,1550.0,1550.0,1550.0,0.0,0.0
1565339554915976659,1550.0,1550.0,1550.0,1550.0,0.0,0.0
1565339554965203066,1550.0,1550.0,1550.0,1550.0,0.0,0.0
1565339555015478899,1550.0,1550.0,1550.0,1550.0,0.0,0.0
1565339555065369368,1550.0,1550.0,1550.0,1550.0,0.0,0.0
1565339555116726295,1550.0,1550.0,1550.0,1550.0,0.0,0.0
1565339555165086972,1550.0,1550.0,1550.0,1550.0,0.0,0.0
1565339555215560253,1550.0,1550.0,1550.0,1550.0,0.0,0.0
1565339555264924784,1550.0,1550.0,1550.0,1550.0,0.0,0.0
1565339555315093638,1550.0,1550.0,1550.0,1550.0,0.0,0.0
1565339555364949055,1550.0,1550.0,1550.0,1550.0,0.0,0.0
1565339555414956763,1550.0,1550.0,1550.0,1550.0,0.0,0.0
1565339555464984784,1550.0,1550.0,1550.0,1550.0,0.0,0.0
1565339555515958742,1550.0,1550.0,1550.0,1550.0,0.0,0.0
1565339555565762440,1550.0,1550.0,1550.0,1550.0,0.0,0.0
1565339555615336607,1550.0,1550.0,1550.0,1550.0,0.0,0.0
1565339555665902492,1550.0,1550.0,1550.0,1550.0,0.0,0.0
1565339555716434888,1550.0,1550.0,1550.0,1550.0,0.0,0.0
1565339555765411555,1550.0,1550.0,1550.0,1550.0,0.0,0.0
1565339555814954263,1550.0,1550.0,1550.0,1550.0,0.0,0.0
1565339555865668326,1550.0,1550.0,1550.0,1550.0,0.0,0.0
1565339555915295201,1550.0,1550.0,1550.0,1550.0,0.0,0.0
1565339555965148794,1550.0,1550.0,1550.0,1550.0,0.0,0.0
1565339556014997701,1550.0,1550.0,1550.0,1550.0,0.0,0.0
1565339556065764680,1550.0,1550.0,1550.0,1550.0,0.0,0.0
1565339556117805409,1550.0,1550.0,1550.0,1550.0,0.0,0.0
1565339556165713378,1550.0,1550.0,1550.0,1550.0,0.0,0.0
1565339556215218742,1550.0,1550.0,1550.0,1550.0,0.0,0.0
1565339556265575461,1550.0,1550.0,1550.0,1550.0,0.0,0.0
1565339556315189680,1550.0,1550.0,1550.0,1550.0,0.0,0.0
1565339556365348013,1550.0,1550.0,1550.0,1550.0,0.0,0.0
1565339556415950461,1550.0,1550.0,1550.0,1550.0,0.0,0.0
1565339556465270513,1550.0,1550.0,1550.0,1550.0,0.0,0.0
1565339556515227127,1550.0,1550.0,1550.0,1550.0,0.0,0.0
1565339556565209055,1550.0,1550.0,1550.0,1550.0,0.0,0.0
1565339556614908794,1550.0,1550.0,1550.0,1550.0,0.0,0.0
1565339556664867075,1550.0,1550.0,1550.0,1550.0,0.0,0.0
1565339556716431294,1550.0,1550.0,1550.0,1550.0,0.0,0.0
1565339556766543377,1550.0,1550.0,1550.0,1550.0,0.0,0.0
1565339556816713794,1550.0,1550.0,1550.0,1550.0,0.0,0.0
1565339556866885200,1550.0,1550.0,1550.0,1550.0,0.0,0.0
1565339556918475825,1550.0,1550.0,1550.0,1550.0,0.0,0.0
1565339556964966659,1550.0,1550.0,1550.0,1550.0,0.0,0.0
1565339557015509315,1550.0,1550.0,1550.0,1550.0,0.0,0.0
1565339557065292804,1550.0,1554.50276509,1550.0,1554.50276509,0.0,0.0
1565339557114893065,1550.0,1554.50276509,1550.0,1554.50276509,0.0,0.0
1565339557165400929,1550.0,1564.26868886,1550.0,1564.26868886,0.0,0.0
1565339557215262492,1550.0,1564.26868886,1550.0,1564.26868886,0.0,0.0
1565339557265328533,1550.0,1572.95200676,1550.0,1572.95200676,0.0,0.0
1565339557315021815,1550.0,1572.95200676,1550.0,1572.95200676,0.0,0.0
1565339557365443533,1550.0,1580.54629862,1550.0,1580.54629862,0.0,0.0
1565339557414904940,1550.0,1580.54629862,1550.0,1580.54629862,0.0,0.0
1565339557465344835,1550.0,1580.54629862,1550.0,1580.54629862,0.0,0.0
1565339557516877335,1550.0,1587.05798388,1550.0,1587.05798388,0.0,0.0
1565339557565675565,1550.0,1587.05798388,1550.0,1587.05798388,0.0,0.0
1565339557615321346,1550.0,1581.63211346,1550.0,1581.63211346,0.0,0.0
1565339557665194315,1550.0,1581.63211346,1550.0,1581.63211346,0.0,0.0
1565339557715087804,1550.0,1578.37787569,1550.0,1578.37787569,0.0,0.0
1565339557765043742,1550.0,1578.37787569,1550.0,1578.37787569,0.0,0.0
1565339557815867856,1550.0,1578.37787569,1550.0,1578.37787569,0.0,0.0
1565339557865612492,1550.0,1580.54629862,1550.0,1580.54629862,0.0,0.0
1565339557915054887,1550.0,1580.54629862,1550.0,1580.54629862,0.0,0.0
1565339557965317960,1550.0,1580.54629862,1550.0,1580.54629862,0.0,0.0
1565339558016010877,1550.0,1580.54629862,1550.0,1580.54629862,0.0,0.0
1565339558065037023,1550.0,1580.54629862,1550.0,1580.54629862,0.0,0.0
1565339558115159835,1550.0,1585.97216606,1550.0,1585.97216606,0.0,0.0
1565339558165009575,1550.0,1585.97216606,1550.0,1585.97216606,0.0,0.0
1565339558215041554,1550.0,1590.31543434,1550.0,1590.31543434,0.0,0.0
1565339558265278481,1550.0,1590.31543434,1550.0,1590.31543434,0.0,0.0
1565339558315332543,1550.0,1602.25299001,1550.0,1602.25299001,0.0,0.0
1565339558365219210,1550.0,1602.25299001,1550.0,1602.25299001,0.0,0.0
1565339558415169627,1550.0,1601.16717219,1550.0,1601.16717219,0.0,0.0
1565339558465438898,1550.0,1601.16717219,1550.0,1601.16717219,0.0,0.0
1565339558515467648,1550.0,1602.25299001,1550.0,1602.25299001,0.0,0.0
1565339558564886397,1550.0,1602.25299001,1550.0,1602.25299001,0.0,0.0
1565339558615260460,1550.0,1602.25299001,1550.0,1602.25299001,0.0,0.0
1565339558664655720,1550.0,1602.25299001,1550.0,1602.25299001,0.0,0.0
1565339558714868481,1550.0,1601.16717219,1550.0,1601.16717219,0.0,0.0
1565339558764665772,1550.0,1601.16717219,1550.0,1601.16717219,0.0,0.0
1565339558814808585,1550.0,1601.16717219,1550.0,1601.16717219,0.0,0.0
1565339558864763481,1550.0,1601.16717219,1550.0,1601.16717219,0.0,0.0
1565339558914942543,1550.0,1601.16717219,1550.0,1601.16717219,0.0,0.0
1565339558965283429,1550.0,1626.12810135,1550.0,1626.12810135,0.0,0.0
1565339559015406866,1550.0,1626.12810135,1550.0,1626.12810135,0.0,0.0
1565339559064970043,1550.0,1626.12810135,1550.0,1626.12810135,0.0,0.0
1565339559114852179,1550.0,1626.12810135,1550.0,1626.12810135,0.0,0.0
1565339559164786554,1550.0,1626.12810135,1550.0,1626.12810135,0.0,0.0
1565339559215691293,1550.0,1623.95646572,1550.0,1623.95646572,0.0,0.0
1565339559264618012,1550.0,1623.95646572,1550.0,1623.95646572,0.0,0.0
1565339559314946241,1550.0,1623.95646572,1550.0,1623.95646572,0.0,0.0
1565339559364838168,1550.0,1622.87065387,1550.0,1622.87065387,0.0,0.0
1565339559414916606,1550.0,1622.87065387,1550.0,1622.87065387,0.0,0.0
1565339559465411449,1550.0,1622.87065387,1550.0,1622.87065387,0.0,0.0
1565339559516468480,1550.0,1622.87065387,1550.0,1622.87065387,0.0,0.0
1565339559564866189,1550.0,1622.87065387,1550.0,1622.87065387,0.0,0.0
1565339559615086866,1550.0,1622.87065387,1550.0,1622.87065387,0.0,0.0
1565339559664882230,1550.0,1622.87065387,1550.0,1622.87065387,0.0,0.0
1565339559715799053,1550.0,1622.87065387,1550.0,1622.87065387,0.0,0.0
1565339559765089782,1550.0,1614.1905427,1550.0,1614.1905427,0.0,0.0
1565339559815059366,1550.0,1614.1905427,1550.0,1614.1905427,0.0,0.0
1565339559864865876,1550.0,1612.01891303,1550.0,1612.01891303,0.0,0.0
1565339559915033012,1550.0,1612.01891303,1550.0,1612.01891303,0.0,0.0
1565339559964868064,1550.0,1612.01891303,1550.0,1612.01891303,0.0,0.0
1565339560015013168,1550.0,1612.01891303,1550.0,1612.01891303,0.0,0.0
1565339560065229939,1550.0,1612.01891303,1550.0,1612.01891303,0.0,0.0
1565339560115776345,1550.0,1605.5072248,1550.0,1605.5072248,0.0,0.0
1565339560165849366,1550.0,1605.5072248,1550.0,1605.5072248,0.0,0.0
1565339560215552178,1550.0,1605.5072248,1550.0,1605.5072248,0.0,0.0
1565339560265571970,1550.0,1605.5072248,1550.0,1605.5072248,0.0,0.0
1565339560316304053,1550.0,1605.5072248,1550.0,1605.5072248,0.0,0.0
1565339560365321605,1550.0,1605.5072248,1550.0,1605.5072248,0.0,0.0
1565339560416119209,1550.0,1605.5072248,1550.0,1605.5072248,0.0,0.0
1565339560464992751,1550.0,1605.5072248,1550.0,1605.5072248,0.0,0.0
1565339560515447282,1550.0,1605.5072248,1550.0,1605.5072248,0.0,0.0
1565339560565114157,1550.0,1605.5072248,1550.0,1605.5072248,0.0,0.0
1565339560615379313,1550.0,1605.5072248,1550.0,1605.5072248,0.0,0.0
1565339560664660147,1550.0,1605.5072248,1550.0,1605.5072248,0.0,0.0
1565339560716051084,1550.0,1605.5072248,1550.0,1605.5072248,0.0,0.0
1565339560765486397,1550.0,1605.5072248,1550.0,1605.5072248,0.0,0.0
1565339560816645876,1550.0,1605.5072248,1550.0,1605.5072248,0.0,0.0
1565339560865273167,1550.0,1605.5072248,1550.0,1605.5072248,0.0,0.0
1565339560915053532,1550.0,1605.5072248,1550.0,1605.5072248,0.0,0.0
1565339560964639261,1550.0,1605.5072248,1550.0,1605.5072248,0.0,0.0
1565339561016022907,1550.0,1605.5072248,1550.0,1605.5072248,0.0,0.0
1565339561064934417,1550.0,1605.5072248,1550.0,1605.5072248,0.0,0.0
1565339561115188636,1550.0,1605.5072248,1550.0,1605.5072248,0.0,0.0
1565339561164910615,1550.0,1605.5072248,1550.0,1605.5072248,0.0,0.0
1565339561215831865,1550.0,1605.5072248,1550.0,1605.5072248,0.0,0.0
1565339561266055303,1550.0,1605.5072248,1550.0,1605.5072248,0.0,0.0
1565339561315028115,1550.0,1605.5072248,1550.0,1605.5072248,0.0,0.0
1565339561364724886,1550.0,1605.5072248,1550.0,1605.5072248,0.0,0.0
1565339561415255094,1550.0,1605.5072248,1550.0,1605.5072248,0.0,0.0
1565339561464956084,1550.0,1605.5072248,1550.0,1605.5072248,0.0,0.0
1565339561515446813,1550.0,1605.5072248,1550.0,1605.5072248,0.0,0.0
1565339561564733584,1550.0,1605.5072248,1550.0,1605.5072248,0.0,0.0
1565339561616662334,1550.0,1605.5072248,1550.0,1605.5072248,0.0,0.0
1565339561664998896,1550.0,1605.5072248,1550.0,1605.5072248,0.0,0.0
1565339561714979834,1550.0,1605.5072248,1550.0,1605.5072248,0.0,0.0
1565339561764950667,1550.0,1605.5072248,1550.0,1605.5072248,0.0,0.0
1565339561814940407,1550.0,1605.5072248,1550.0,1605.5072248,0.0,0.0
1565339561864962073,1550.0,1605.5072248,1550.0,1605.5072248,0.0,0.0
1565339561915072646,1550.0,1605.5072248,1550.0,1605.5072248,0.0,0.0
1565339561965068740,1550.0,1605.5072248,1550.0,1605.5072248,0.0,0.0
1565339562015087542,1550.0,1605.5072248,1550.0,1605.5072248,0.0,0.0
1565339562064931136,1550.0,1605.5072248,1550.0,1605.5072248,0.0,0.0
1565339562115044834,1550.0,1605.5072248,1550.0,1605.5072248,0.0,0.0
1565339562166101240,1550.0,1605.5072248,1550.0,1605.5072248,0.0,0.0
1565339562214879365,1550.0,1605.5072248,1550.0,1605.5072248,0.0,0.0
1565339562264891813,1550.0,1605.5072248,1550.0,1605.5072248,0.0,0.0
1565339562314734313,1550.0,1605.5072248,1550.0,1605.5072248,0.0,0.0
1565339562364938636,1550.0,1605.5072248,1550.0,1605.5072248,0.0,0.0
1565339562415293375,1550.0,1605.5072248,1550.0,1605.5072248,0.0,0.0
1565339562465252021,1550.0,1605.5072248,1550.0,1605.5072248,0.0,0.0
1565339562515358375,1550.0,1605.5072248,1550.0,1605.5072248,0.0,0.0
1565339562565258792,1550.0,1605.5072248,1550.0,1605.5072248,0.0,0.0
1565339562615254625,1550.0,1605.5072248,1550.0,1605.5072248,0.0,0.0
1565339562665238844,1550.0,1605.5072248,1550.0,1605.5072248,0.0,0.0
1565339562715314104,1550.0,1605.5072248,1550.0,1605.5072248,0.0,0.0
1565339562764945354,1550.0,1605.5072248,1550.0,1605.5072248,0.0,0.0
1565339562814938479,1550.0,1605.5072248,1550.0,1605.5072248,0.0,0.0
1565339562865164365,1550.0,1605.5072248,1550.0,1605.5072248,0.0,0.0
1565339562914965510,1550.0,1605.5072248,1550.0,1605.5072248,0.0,0.0
1565339562965317229,1550.0,1605.5072248,1550.0,1605.5072248,0.0,0.0
1565339563015302958,1550.0,1605.5072248,1550.0,1605.5072248,0.0,0.0
1565339563065262229,1550.0,1605.5072248,1550.0,1605.5072248,0.0,0.0
1565339563115418271,1550.0,1605.5072248,1550.0,1605.5072248,0.0,0.0
1565339563165286969,1550.0,1605.5072248,1550.0,1605.5072248,0.0,0.0
1565339563215715979,1550.0,1606.59304261,1550.0,1606.59304261,0.0,0.0
1565339563265265875,1550.0,1606.59304261,1550.0,1606.59304261,0.0,0.0
1565339563315581344,1550.0,1606.59304261,1550.0,1606.59304261,0.0,0.0
1565339563365399104,1550.0,1606.59304261,1550.0,1606.59304261,0.0,0.0
1565339563414948635,1550.0,1606.59304261,1550.0,1606.59304261,0.0,0.0
1565339563465461916,1550.0,1605.5072248,1550.0,1605.5072248,0.0,0.0
1565339563514883844,1550.0,1605.5072248,1550.0,1605.5072248,0.0,0.0
1565339563564885250,1550.0,1605.5072248,1550.0,1605.5072248,0.0,0.0
1565339563615600666,1550.0,1550.0,1550.0,1550.0,0.0,0.0
1565339563665035510,1550.0,1550.0,1550.0,1550.0,0.0,0.0
1565339563715215927,1550.0,1550.0,1550.0,1550.0,0.0,0.0
1565339563764981968,1550.0,1550.0,1550.0,1550.0,0.0,0.0
1565339563815147385,1550.0,1550.0,1550.0,1550.0,0.0,0.0
1565339563865689156,1550.0,1550.0,1550.0,1550.0,0.0,0.0
1565339563915048948,1550.0,1550.0,1550.0,1550.0,0.0,0.0
1565339563965198583,1550.0,1550.0,1550.0,1550.0,0.0,0.0
1565339564015100458,1550.0,1550.0,1550.0,1550.0,0.0,0.0
1565339564065146031,1550.0,1550.0,1550.0,1550.0,0.0,0.0
1565339564115069468,1550.0,1550.0,1550.0,1550.0,0.0,0.0
1565339564164841083,1550.0,1550.0,1550.0,1550.0,0.0,0.0
1565339564215676968,1550.0,1550.0,1550.0,1550.0,0.0,0.0
1565339564265354520,1550.0,1550.0,1550.0,1550.0,0.0,0.0
1565339564315332177,1550.0,1550.0,1550.0,1550.0,0.0,0.0
1565339564364839989,1550.0,1550.0,1550.0,1550.0,0.0,0.0
1565339564414806552,1550.0,1550.0,1550.0,1550.0,0.0,0.0
1565339564465399781,1550.0,1550.0,1550.0,1550.0,0.0,0.0
1565339564515613479,1550.0,1550.0,1550.0,1550.0,0.0,0.0
1565339564565043947,1550.0,1550.0,1550.0,1550.0,0.0,0.0
1565339564615272437,1550.0,1550.0,1550.0,1550.0,0.0,0.0
1565339564665079520,1550.0,1550.0,1550.0,1550.0,0.0,0.0
1565339564715457281,1550.0,1550.0,1550.0,1550.0,0.0,0.0
1565339564764960562,1550.0,1550.0,1550.0,1550.0,0.0,0.0
1565339564815549468,1550.0,1550.0,1550.0,1550.0,0.0,0.0
1565339564865539312,1550.0,1550.0,1550.0,1550.0,0.0,0.0
1565339564914686499,1550.0,1550.0,1550.0,1550.0,0.0,0.0
1565339564964794312,1550.0,1550.0,1550.0,1550.0,0.0,0.0
1565339565014702176,1550.0,1550.0,1550.0,1550.0,0.0,0.0
1565339565065247853,1550.0,1550.0,1550.0,1550.0,0.0,0.0
1565339565115945926,1550.0,1550.0,1550.0,1550.0,0.0,0.0
1565339565164669989,1550.0,1550.0,1550.0,1550.0,0.0,0.0
1565339565214717020,1550.0,1550.0,1550.0,1550.0,0.0,0.0
1565339565264819937,1550.0,1550.0,1550.0,1550.0,0.0,0.0
1565339565314820510,1550.0,1550.0,1550.0,1550.0,0.0,0.0
1565339565364668478,1550.0,1550.0,1550.0,1550.0,0.0,0.0
1565339565415715509,1550.0,1567.52613783,1550.0,1567.52613783,0.0,0.0
1565339565464822541,1550.0,1567.52613783,1550.0,1567.52613783,0.0,0.0
1565339565515441603,1550.0,1567.52613783,1550.0,1567.52613783,0.0,0.0
1565339565564877801,1550.0,1567.52613783,1550.0,1567.52613783,0.0,0.0
1565339565615035718,1550.0,1567.52613783,1550.0,1567.52613783,0.0,0.0
1565339565664940041,1550.0,1587.05798388,1550.0,1587.05798388,0.0,0.0
1565339565717646551,1550.0,1587.05798388,1550.0,1587.05798388,0.0,0.0
1565339565764830093,1550.0,1587.05798388,1550.0,1587.05798388,0.0,0.0
1565339565814631916,1550.0,1605.5072248,1550.0,1605.5072248,0.0,0.0
1565339565864658843,1550.0,1605.5072248,1550.0,1605.5072248,0.0,0.0
1565339565914742749,1550.0,1625.04228354,1550.0,1625.04228354,0.0,0.0
1565339565966117332,1550.0,1625.04228354,1550.0,1625.04228354,0.0,0.0
1565339566015317645,1550.0,1625.04228354,1550.0,1625.04228354,0.0,0.0
1565339566065387801,1550.0,1626.12810135,1550.0,1626.12810135,0.0,0.0
1565339566115502593,1550.0,1626.12810135,1550.0,1626.12810135,0.0,0.0
1565339566165349363,1550.0,1626.12810135,1550.0,1626.12810135,0.0,0.0
1565339566215317176,1550.0,1626.12810135,1550.0,1626.12810135,0.0,0.0
1565339566265174103,1550.0,1626.12810135,1550.0,1626.12810135,0.0,0.0
1565339566316190926,1550.0,1626.12810135,1550.0,1626.12810135,0.0,0.0
1565339566364852853,1550.0,1626.12810135,1550.0,1626.12810135,0.0,0.0
1565339566415206342,1550.0,1626.12810135,1550.0,1626.12810135,0.0,0.0
1565339566464847019,1550.0,1622.87065387,1550.0,1622.87065387,0.0,0.0
1565339566514938426,1550.0,1622.87065387,1550.0,1622.87065387,0.0,0.0
1565339566564829467,1550.0,1622.87065387,1550.0,1622.87065387,0.0,0.0
1565339566614862228,1550.0,1621.78483605,1550.0,1621.78483605,0.0,0.0
1565339566664856446,1550.0,1621.78483605,1550.0,1621.78483605,0.0,0.0
1565339566714953426,1550.0,1622.87065387,1550.0,1622.87065387,0.0,0.0
1565339566764872801,1550.0,1622.87065387,1550.0,1622.87065387,0.0,0.0
1565339566814903374,1550.0,1550.0,1550.0,1550.0,0.0,0.0
1565339566864873894,1550.0,1550.0,1550.0,1550.0,0.0,0.0
1565339566915517176,1550.0,1550.0,1550.0,1550.0,0.0,0.0
1565339566965574676,1550.0,1550.0,1550.0,1550.0,0.0,0.0
1565339567014954676,1550.0,1550.0,1550.0,1550.0,0.0,0.0
1565339567065084051,1550.0,1550.0,1550.0,1550.0,0.0,0.0
1565339567115649050,1550.0,1550.0,1550.0,1550.0,0.0,0.0
1565339567165211655,1550.0,1550.0,1550.0,1550.0,0.0,0.0
1565339567215078790,1550.0,1550.0,1550.0,1550.0,0.0,0.0
1565339567264906446,1550.0,1550.0,1550.0,1550.0,0.0,0.0
1565339567315064571,1550.0,1550.0,1550.0,1550.0,0.0,0.0
1565339567365080717,1550.0,1550.0,1550.0,1550.0,0.0,0.0
1565339567414945040,1550.0,1550.0,1550.0,1550.0,0.0,0.0
1565339567464882332,1550.0,1550.0,1550.0,1550.0,0.0,0.0
1565339567515067905,1550.0,1550.0,1550.0,1550.0,0.0,0.0
1565339567566011759,1550.0,1550.0,1550.0,1550.0,0.0,0.0
1565339567615270977,1550.0,1550.0,1550.0,1550.0,0.0,0.0
1565339567665236186,1550.0,1550.0,1550.0,1550.0,0.0,0.0
1565339567715324415,1550.0,1550.0,1550.0,1550.0,0.0,0.0
1565339567765207748,1550.0,1550.0,1550.0,1550.0,0.0,0.0
1565339567815428634,1550.0,1550.0,1550.0,1550.0,0.0,0.0
1565339567864887123,1550.0,1550.0,1550.0,1550.0,0.0,0.0
1565339567915578686,1550.0,1550.0,1550.0,1550.0,0.0,0.0
1565339567964859675,1550.0,1550.0,1550.0,1550.0,0.0,0.0
1565339568015126394,1550.0,1550.0,1550.0,1550.0,0.0,0.0
1565339568064938529,1550.0,1550.0,1550.0,1550.0,0.0,0.0
1565339568116329988,1550.0,1550.0,1550.0,1550.0,0.0,0.0
1565339568164792956,1550.0,1550.0,1550.0,1550.0,0.0,0.0
1565339568215419467,1550.0,1550.0,1550.0,1550.0,0.0,0.0
1565339568265444675,1550.0,1550.0,1550.0,1550.0,0.0,0.0
1565339568316703373,1550.0,1550.0,1550.0,1550.0,0.0,0.0
1565339568365625300,1550.0,1550.0,1550.0,1550.0,0.0,0.0
1565339568415357592,1550.0,1550.0,1550.0,1550.0,0.0,0.0
1565339568464926967,1550.0,1550.0,1550.0,1550.0,0.0,0.0
1565339568515043321,1550.0,1550.0,1550.0,1550.0,0.0,0.0
1565339568565191758,1550.0,1550.0,1550.0,1550.0,0.0,0.0
1565339568615049414,1550.0,1550.0,1550.0,1550.0,0.0,0.0
1565339568665059727,1550.0,1550.0,1550.0,1550.0,0.0,0.0
1565339568715640612,1550.0,1550.0,1550.0,1550.0,0.0,0.0
1565339568765130039,1550.0,1550.0,1550.0,1550.0,0.0,0.0
1565339568815469883,1550.0,1550.0,1550.0,1550.0,0.0,0.0
1565339568864981810,1550.0,1550.0,1550.0,1550.0,0.0,0.0
1565339568914973998,1550.0,1550.0,1550.0,1550.0,0.0,0.0
1565339568965281029,1550.0,1550.0,1550.0,1550.0,0.0,0.0
1565339569015096602,1550.0,1550.0,1550.0,1550.0,0.0,0.0
1565339569064901498,1550.0,1550.0,1550.0,1550.0,0.0,0.0
1565339569115171446,1550.0,1550.0,1550.0,1550.0,0.0,0.0
1565339569164943268,1550.0,1550.0,1550.0,1550.0,0.0,0.0
1565339569215087904,1550.0,1550.0,1550.0,1550.0,0.0,0.0
1565339569265649050,1550.0,1550.0,1550.0,1550.0,0.0,0.0
1565339569315992852,1550.0,1550.0,1550.0,1550.0,0.0,0.0
1565339569365290925,1550.0,1550.0,1550.0,1550.0,0.0,0.0
1565339569415348945,1550.0,1550.0,1550.0,1550.0,0.0,0.0
1565339569465295508,1550.0,1550.0,1550.0,1550.0,0.0,0.0
1565339569515451393,1550.0,1550.0,1550.0,1550.0,0.0,0.0
1565339569565238060,1550.0,1550.0,1550.0,1550.0,0.0,0.0
1565339569615272904,1550.0,1550.0,1550.0,1550.0,0.0,0.0
1565339569665243945,1550.0,1550.0,1550.0,1550.0,0.0,0.0
1565339569715644831,1550.0,1550.0,1550.0,1550.0,0.0,0.0
1565339569765294518,1550.0,1550.0,1550.0,1550.0,0.0,0.0
1565339569815342122,1550.0,1550.0,1550.0,1550.0,0.0,0.0
1565339569865324154,1550.0,1550.0,1550.0,1550.0,0.0,0.0
1565339569915102643,1550.0,1550.0,1550.0,1550.0,0.0,0.0
1565339569965716601,1550.0,1550.0,1550.0,1550.0,0.0,0.0
1565339570015073372,1550.0,1550.0,1550.0,1550.0,0.0,0.0
1565339570064994414,1550.0,1550.0,1550.0,1550.0,0.0,0.0
1565339570115551966,1550.0,1550.0,1550.0,1550.0,0.0,0.0
1565339570166218424,1550.0,1550.0,1550.0,1550.0,0.0,0.0
1565339570215743997,1550.0,1550.0,1550.0,1550.0,0.0,0.0
1565339570264897903,1550.0,1550.0,1550.0,1550.0,0.0,0.0
1565339570314945768,1550.0,1550.0,1550.0,1550.0,0.0,0.0
1565339570365112643,1550.0,1550.0,1550.0,1550.0,0.0,0.0
1565339570414988945,1550.0,1550.0,1550.0,1550.0,0.0,0.0
1565339570464899883,1550.0,1550.0,1550.0,1550.0,0.0,0.0
1565339570514984830,1550.0,1550.0,1550.0,1550.0,0.0,0.0
1565339570565065403,1550.0,1550.0,1550.0,1550.0,0.0,0.0
1565339570615426966,1550.0,1550.0,1550.0,1550.0,0.0,0.0
1565339570664914778,1550.0,1550.0,1550.0,1550.0,0.0,0.0
1565339570715968268,1550.0,1550.0,1550.0,1550.0,0.0,0.0
1565339570764813789,1550.0,1550.0,1550.0,1550.0,0.0,0.0
1565339570814883997,1550.0,1550.0,1550.0,1550.0,0.0,0.0
1565339570864919830,1550.0,1550.0,1550.0,1550.0,0.0,0.0
1565339570915009830,1550.0,1550.0,1550.0,1550.0,0.0,0.0
1565339570964904882,1566.4435342,1550.0,1566.4435342,1550.0,0.0,0.0
1565339571014876705,1566.4435342,1550.0,1566.4435342,1550.0,0.0,0.0
1565339571064948216,1581.63532615,1550.0,1581.63532615,1550.0,0.0,0.0
1565339571117143945,1581.63532615,1550.0,1581.63532615,1550.0,0.0,0.0
1565339571164786549,1589.23282921,1550.0,1589.23282921,1550.0,0.0,0.0
1565339571214873841,1589.23282921,1550.0,1589.23282921,1550.0,0.0,0.0
1565339571264897278,1595.74451447,1550.0,1595.74451447,1550.0,0.0,0.0
1565339571315543424,1595.74451447,1550.0,1595.74451447,1550.0,0.0,0.0
1565339571364802070,1595.74451447,1550.0,1595.74451447,1550.0,0.0,0.0
1565339571415515247,1595.74451447,1550.0,1595.74451447,1550.0,0.0,0.0
1565339571464879570,1604.42461967,1550.0,1604.42461967,1550.0,0.0,0.0
1565339571514982382,1604.42461967,1550.0,1604.42461967,1550.0,0.0,0.0
1565339571565439726,1613.10794353,1550.0,1613.10794353,1550.0,0.0,0.0
1565339571615460976,1613.10794353,1550.0,1613.10794353,1550.0,0.0,0.0
1565339571665311497,1613.10794353,1550.0,1613.10794353,1550.0,0.0,0.0
1565339571714893007,1613.10794353,1550.0,1613.10794353,1550.0,0.0,0.0
1565339571764850976,1613.10794353,1550.0,1613.10794353,1550.0,0.0,0.0
1565339571814872799,1613.10794353,1550.0,1613.10794353,1550.0,0.0,0.0
1565339571864995715,1613.10794353,1550.0,1613.10794353,1550.0,0.0,0.0
1565339571915557486,1613.10794353,1550.0,1613.10794353,1550.0,0.0,0.0
1565339571965030351,1617.44799614,1550.0,1617.44799614,1550.0,0.0,0.0
1565339572014930872,1617.44799614,1550.0,1617.44799614,1550.0,0.0,0.0
1565339572065461340,1617.44799614,1550.0,1617.44799614,1550.0,0.0,0.0
1565339572115067642,1617.44799614,1550.0,1617.44799614,1550.0,0.0,0.0
1565339572164917069,1617.44799614,1550.0,1617.44799614,1550.0,0.0,0.0
1565339572214885038,1617.44799614,1550.0,1617.44799614,1550.0,0.0,0.0
1565339572264884569,1617.44799614,1550.0,1617.44799614,1550.0,0.0,0.0
1565339572315906236,1617.44799614,1550.0,1617.44799614,1550.0,0.0,0.0
1565339572364797069,1617.44799614,1550.0,1617.44799614,1550.0,0.0,0.0
1565339572416032955,1617.44799614,1550.0,1617.44799614,1550.0,0.0,0.0
1565339572465382903,1617.44799614,1550.0,1617.44799614,1550.0,0.0,0.0
1565339572515460090,1617.44799614,1550.0,1617.44799614,1550.0,0.0,0.0
1565339572565484673,1617.44799614,1550.0,1617.44799614,1550.0,0.0,0.0
1565339572615101913,1617.44799614,1550.0,1617.44799614,1550.0,0.0,0.0
1565339572665031653,1617.44799614,1550.0,1617.44799614,1550.0,0.0,0.0
1565339572715440715,1617.44799614,1550.0,1617.44799614,1550.0,0.0,0.0
1565339572765339777,1617.44799614,1550.0,1617.44799614,1550.0,0.0,0.0
1565339572814749725,1617.44799614,1550.0,1617.44799614,1550.0,0.0,0.0
1565339572864936913,1617.44799614,1550.0,1617.44799614,1550.0,0.0,0.0
1565339572915576757,1617.44799614,1550.0,1617.44799614,1550.0,0.0,0.0
1565339572965301080,1617.44799614,1550.0,1617.44799614,1550.0,0.0,0.0
1565339573015194673,1617.44799614,1550.0,1617.44799614,1550.0,0.0,0.0
1565339573065682173,1617.44799614,1550.0,1617.44799614,1550.0,0.0,0.0
1565339573115571288,1617.44799614,1550.0,1617.44799614,1550.0,0.0,0.0
1565339573165592902,1617.44799614,1550.0,1617.44799614,1550.0,0.0,0.0
1565339573215742694,1617.44799614,1550.0,1617.44799614,1550.0,0.0,0.0
1565339573265580506,1617.44799614,1550.0,1617.44799614,1550.0,0.0,0.0
1565339573315459309,1617.44799614,1550.0,1617.44799614,1550.0,0.0,0.0
1565339573365409517,1617.44799614,1550.0,1617.44799614,1550.0,0.0,0.0
1565339573415323892,1617.44799614,1550.0,1617.44799614,1550.0,0.0,0.0
1565339573465055611,1617.44799614,1550.0,1617.44799614,1550.0,0.0,0.0
1565339573515546808,1617.44799614,1550.0,1617.44799614,1550.0,0.0,0.0
1565339573565894881,1617.44799614,1550.0,1617.44799614,1550.0,0.0,0.0
1565339573615662954,1617.44799614,1562.56182045,1630.00981659,1550.0,0.0,0.0
1565339573665772902,1617.44799614,1562.56182045,1630.00981659,1550.0,0.0,0.0
1565339573716977277,1617.44799614,1562.56182045,1630.00981659,1550.0,0.0,0.0
1565339573764796860,1617.44799614,1562.56182045,1630.00981659,1550.0,0.0,0.0
1565339573815912694,1617.44799614,1562.56182045,1630.00981659,1550.0,0.0,0.0
1565339573864748162,1617.44799614,1562.56182045,1630.00981659,1550.0,0.0,0.0
1565339573915065350,1617.44799614,1562.56182045,1630.00981659,1550.0,0.0,0.0
1565339573964706808,1617.44799614,1562.56182045,1630.00981659,1550.0,0.0,0.0
1565339574014618579,1617.44799614,1562.56182045,1630.00981659,1550.0,0.0,0.0
1565339574064825350,1617.44799614,1562.56182045,1630.00981659,1550.0,0.0,0.0
1565339574114909985,1617.44799614,1562.56182045,1630.00981659,1550.0,0.0,0.0
1565339574164874725,1617.44799614,1562.56182045,1630.00981659,1550.0,0.0,0.0
1565339574214898683,1617.44799614,1564.19054419,1631.63854033,1550.0,0.0,0.0
1565339574264897954,1617.44799614,1564.19054419,1631.63854033,1550.0,0.0,0.0
1565339574315249256,1617.44799614,1550.0,1617.44799614,1550.0,0.0,0.0
1565339574364830662,1617.44799614,1550.0,1617.44799614,1550.0,0.0,0.0
1565339574415459569,1617.44799614,1550.0,1617.44799614,1550.0,0.0,0.0
1565339574465356444,1617.44799614,1550.0,1617.44799614,1550.0,0.0,0.0
1565339574514864933,1617.44799614,1550.0,1617.44799614,1550.0,0.0,0.0
1565339574565342641,1617.44799614,1550.0,1617.44799614,1550.0,0.0,0.0
1565339574615471339,1617.44799614,1550.0,1617.44799614,1550.0,0.0,0.0
1565339574665290193,1550.0,1550.0,1550.0,1550.0,0.0,0.0
1565339574715831964,1550.0,1550.0,1550.0,1550.0,0.0,0.0
1565339574764858631,1550.0,1550.0,1550.0,1550.0,0.0,0.0
1565339574815472485,1550.0,1550.0,1550.0,1550.0,0.0,0.0
1565339574865446912,1550.0,1550.0,1550.0,1550.0,0.0,0.0
1565339574917333787,1550.0,1550.0,1550.0,1550.0,0.0,0.0
1565339574966216756,1550.0,1550.0,1550.0,1550.0,0.0,0.0
1565339575015815506,1550.0,1550.0,1550.0,1550.0,0.0,0.0
1565339575064922902,1550.0,1550.0,1550.0,1550.0,0.0,0.0
1565339575114936235,1550.0,1550.0,1550.0,1550.0,0.0,0.0
1565339575165036027,1550.0,1550.0,1550.0,1550.0,0.0,0.0
1565339575216513266,1550.0,1550.0,1550.0,1550.0,0.0,0.0
1565339575265485141,1550.0,1550.0,1550.0,1550.0,0.0,0.0
1565339575315988891,1550.0,1550.0,1550.0,1550.0,0.0,0.0
1565339575365530141,1550.0,1550.0,1550.0,1550.0,0.0,0.0
1565339575415534672,1550.0,1550.0,1550.0,1550.0,0.0,0.0
1565339575465725818,1550.0,1550.0,1550.0,1550.0,0.0,0.0
1565339575515397120,1550.0,1550.0,1550.0,1550.0,0.0,0.0
1565339575565694360,1550.0,1550.0,1550.0,1550.0,0.0,0.0
1565339575614856391,1550.0,1550.0,1550.0,1550.0,0.0,0.0
1565339575666151703,1550.0,1550.0,1550.0,1550.0,0.0,0.0
1565339575715470089,1550.0,1583.72399807,1583.72399807,1550.0,0.0,0.0
1565339575765120766,1550.0,1589.14986551,1589.14986551,1550.0,0.0,0.0
1565339575815629516,1550.0,1589.14986551,1589.14986551,1550.0,0.0,0.0
1565339575866197589,1550.0,1589.14986551,1589.14986551,1550.0,0.0,0.0
1565339575915425662,1550.0,1588.60695958,1588.60695958,1550.0,0.0,0.0
1565339575964963787,1550.0,1588.60695958,1588.60695958,1550.0,0.0,0.0
1565339576014944516,1550.0,1557.67885819,1557.67885819,1550.0,0.0,0.0
1565339576065607328,1550.0,1557.67885819,1557.67885819,1550.0,0.0,0.0
1565339576115047120,1550.0,1550.0,1550.0,1550.0,0.0,0.0
1565339576165036182,1550.0,1550.0,1550.0,1550.0,0.0,0.0
1565339576215003422,1550.0,1550.0,1550.0,1550.0,0.0,0.0
1565339576264819464,1550.0,1550.0,1550.0,1550.0,0.0,0.0
1565339576315366964,1550.0,1550.0,1550.0,1550.0,0.0,0.0
1565339576365535922,1550.0,1550.0,1550.0,1550.0,0.0,0.0
1565339576415818474,1550.0,1550.0,1550.0,1550.0,0.0,0.0
1565339576465305609,1550.0,1550.0,1550.0,1550.0,0.0,0.0
1565339576515011391,1550.0,1550.0,1550.0,1550.0,0.0,0.0
1565339576564772536,1550.0,1550.0,1550.0,1550.0,0.0,0.0
1565339576614779620,1550.0,1550.0,1550.0,1550.0,0.0,0.0
1565339576665526391,1550.0,1550.0,1550.0,1550.0,0.0,0.0
1565339576715249880,1550.0,1550.0,1550.0,1550.0,0.0,0.0
1565339576765229151,1596.83033228,1550.0,1596.83033228,1550.0,0.0,0.0
1565339576815137588,1596.83033228,1550.0,1596.83033228,1550.0,0.0,0.0
1565339576865670505,1596.83033228,1550.0,1596.83033228,1550.0,0.0,0.0
1565339576918817536,1613.10794353,1550.0,1613.10794353,1550.0,0.0,0.0
1565339576965068109,1613.10794353,1550.0,1613.10794353,1550.0,0.0,0.0
1565339577015811755,1613.10794353,1550.0,1613.10794353,1550.0,0.0,0.0
1565339577064937588,1613.10794353,1550.0,1613.10794353,1550.0,0.0,0.0
1565339577115313318,1613.10794353,1550.0,1613.10794353,1550.0,0.0,0.0
1565339577165219932,1613.10794353,1550.0,1613.10794353,1550.0,0.0,0.0
1565339577215150401,1613.10794353,1550.0,1613.10794353,1550.0,0.0,0.0
1565339577265193370,1613.10794353,1550.0,1613.10794353,1550.0,0.0,0.0
1565339577315202588,1613.10794353,1550.0,1613.10794353,1550.0,0.0,0.0
1565339577365080609,1613.10794353,1550.0,1613.10794353,1550.0,0.0,0.0
1565339577415096182,1613.10794353,1550.0,1613.10794353,1550.0,0.0,0.0
1565339577465117744,1613.10794353,1550.0,1613.10794353,1550.0,0.0,0.0
1565339577515443578,1614.19375539,1550.0,1614.19375539,1550.0,0.0,0.0
1565339577565236026,1614.19375539,1550.0,1614.19375539,1550.0,0.0,0.0
1565339577615225036,1614.19375539,1550.0,1614.19375539,1550.0,0.0,0.0
1565339577664885557,1614.19375539,1550.0,1614.19375539,1550.0,0.0,0.0
1565339577716529776,1614.19375539,1550.0,1614.19375539,1550.0,0.0,0.0
1565339577765072953,1615.27636051,1550.0,1615.27636051,1550.0,0.0,0.0
1565339577815221338,1615.27636051,1550.0,1615.27636051,1550.0,0.0,0.0
1565339577865721755,1616.36217833,1550.0,1616.36217833,1550.0,0.0,0.0
1565339577914918838,1616.36217833,1550.0,1616.36217833,1550.0,0.0,0.0
1565339577965270817,1616.36217833,1550.0,1616.36217833,1550.0,0.0,0.0
1565339578015107536,1616.36217833,1550.0,1616.36217833,1550.0,0.0,0.0
1565339578065092640,1616.36217833,1550.0,1616.36217833,1550.0,0.0,0.0
1565339578115155661,1616.36217833,1550.0,1616.36217833,1550.0,0.0,0.0
1565339578165181338,1617.44799614,1550.0,1617.44799614,1550.0,0.0,0.0
1565339578215095348,1617.44799614,1550.0,1617.44799614,1550.0,0.0,0.0
1565339578265099827,1617.44799614,1550.0,1617.44799614,1550.0,0.0,0.0
1565339578315383057,1618.53380799,1550.0,1618.53380799,1550.0,0.0,0.0
1565339578364967015,1618.53380799,1550.0,1618.53380799,1550.0,0.0,0.0
1565339578415223630,1618.53380799,1550.0,1618.53380799,1550.0,0.0,0.0
1565339578465300869,1619.61962581,1550.0,1619.61962581,1550.0,0.0,0.0
1565339578515406390,1619.61962581,1550.0,1619.61962581,1550.0,0.0,0.0
1565339578565022484,1619.61962581,1550.0,1619.61962581,1550.0,0.0,0.0
1565339578615063890,1619.61962581,1550.0,1619.61962581,1550.0,0.0,0.0
1565339578665120921,1619.61962581,1550.0,1619.61962581,1550.0,0.0,0.0
1565339578715928473,1620.70544362,1550.0,1620.70544362,1550.0,0.0,0.0
1565339578765253161,1620.70544362,1550.0,1620.70544362,1550.0,0.0,0.0
1565339578815281077,1620.70544362,1550.0,1620.70544362,1550.0,0.0,0.0
1565339578865205036,1622.87386656,1550.0,1622.87386656,1550.0,0.0,0.0
1565339578917096077,1622.87386656,1550.0,1622.87386656,1550.0,0.0,0.0
1565339578965608265,1622.87386656,1550.0,1622.87386656,1550.0,0.0,0.0
1565339579015181233,1622.87386656,1550.0,1622.87386656,1550.0,0.0,0.0
1565339579064689671,1622.87386656,1550.0,1622.87386656,1550.0,0.0,0.0
1565339579114965765,1622.87386656,1550.0,1622.87386656,1550.0,0.0,0.0
1565339579165183890,1622.87386656,1550.0,1622.87386656,1550.0,0.0,0.0
1565339579214912692,1622.87386656,1550.0,1622.87386656,1550.0,0.0,0.0
1565339579265339671,1625.04549623,1550.0,1625.04549623,1550.0,0.0,0.0
1565339579315606858,1625.04549623,1550.0,1625.04549623,1550.0,0.0,0.0
1565339579364861181,1627.21391916,1550.0,1627.21391916,1550.0,0.0,0.0
1565339579415350348,1627.21391916,1550.0,1627.21391916,1550.0,0.0,0.0
1565339579464926337,1627.21391916,1550.0,1627.21391916,1550.0,0.0,0.0
1565339579515060556,1550.0,1550.0,1550.0,1550.0,0.0,0.0
1565339579564827744,1550.0,1550.0,1550.0,1550.0,0.0,0.0
1565339579614828733,1550.0,1550.0,1550.0,1550.0,0.0,0.0
1565339579664832796,1550.0,1550.0,1550.0,1550.0,0.0,0.0
1565339579714926233,1550.0,1550.0,1550.0,1550.0,0.0,0.0
1565339579764877744,1550.0,1550.0,1550.0,1550.0,0.0,0.0
1565339579815490973,1550.0,1550.0,1550.0,1550.0,0.0,0.0
1565339579865662275,1550.0,1550.0,1550.0,1550.0,0.0,0.0
1565339579915486181,1550.0,1550.0,1550.0,1550.0,0.0,0.0
1565339579964868421,1550.0,1550.0,1550.0,1550.0,0.0,0.0
1565339580014841493,1550.0,1550.0,1550.0,1550.0,0.0,0.0
1565339580065660191,1550.0,1550.0,1550.0,1550.0,0.0,0.0
1565339580114957639,1550.0,1550.0,1550.0,1550.0,0.0,0.0
1565339580165093212,1550.0,1550.0,1550.0,1550.0,0.0,0.0
1565339580215610348,1550.0,1550.0,1550.0,1550.0,0.0,0.0
1565339580265756129,1550.0,1550.0,1550.0,1550.0,0.0,0.0
1565339580316230973,1550.0,1550.0,1550.0,1550.0,0.0,0.0
1565339580365980764,1550.0,1550.0,1550.0,1550.0,0.0,0.0
1565339580414926858,1550.0,1550.0,1550.0,1550.0,0.0,0.0
1565339580465818941,1550.0,1550.0,1550.0,1550.0,0.0,0.0
1565339580516345972,1550.0,1550.0,1550.0,1550.0,0.0,0.0
1565339580565722952,1550.0,1550.0,1550.0,1550.0,0.0,0.0
1565339580615194879,1550.0,1550.0,1550.0,1550.0,0.0,0.0
1565339580664963472,1550.0,1550.0,1550.0,1550.0,0.0,0.0
1565339580715159306,1550.0,1550.0,1550.0,1550.0,0.0,0.0
1565339580765134618,1550.0,1550.0,1550.0,1550.0,0.0,0.0
1565339580815001181,1550.0,1550.0,1550.0,1550.0,0.0,0.0
1565339580864891545,1550.0,1550.0,1550.0,1550.0,0.0,0.0
1565339580914888681,1550.0,1550.0,1550.0,1550.0,0.0,0.0
1565339580964826493,1550.0,1550.0,1550.0,1550.0,0.0,0.0
1565339581015014306,1550.0,1550.0,1550.0,1550.0,0.0,0.0
1565339581065230243,1550.0,1550.0,1550.0,1550.0,0.0,0.0
1565339581115284253,1550.0,1550.0,1550.0,1550.0,0.0,0.0
1565339581164789358,1550.0,1550.0,1550.0,1550.0,0.0,0.0
1565339581215308837,1550.0,1550.0,1550.0,1550.0,0.0,0.0
1565339581264839774,1550.0,1550.0,1550.0,1550.0,0.0,0.0
1565339581315337587,1550.0,1550.0,1550.0,1550.0,0.0,0.0
1565339581365230816,1550.0,1550.0,1550.0,1550.0,0.0,0.0
1565339581415203472,1550.0,1550.0,1550.0,1550.0,0.0,0.0
1565339581465256180,1550.0,1550.0,1550.0,1550.0,0.0,0.0
1565339581515258732,1550.0,1550.0,1550.0,1550.0,0.0,0.0
1565339581565141389,1556.67118579,1556.67118579,1550.0,1550.0,0.0,0.0
1565339581615307014,1556.67118579,1556.67118579,1550.0,1550.0,0.0,0.0
1565339581664800868,1556.67118579,1556.67118579,1550.0,1550.0,0.0,0.0
1565339581715045920,1562.10026741,1562.10026741,1550.0,1550.0,0.0,0.0
1565339581764853264,1562.10026741,1562.10026741,1550.0,1550.0,0.0,0.0
1565339581815646389,1570.78037411,1570.78037411,1550.0,1550.0,0.0,0.0
1565339581865603837,1570.78037411,1570.78037411,1550.0,1550.0,0.0,0.0
1565339581914792587,1571.86619043,1571.86619043,1550.0,1550.0,0.0,0.0
1565339581964881909,1571.86619043,1571.86619043,1550.0,1550.0,0.0,0.0
1565339582014756024,1570.78037411,1570.78037411,1550.0,1550.0,0.0,0.0
1565339582064878211,1570.78037411,1570.78037411,1550.0,1550.0,0.0,0.0
1565339582115515659,1571.86619043,1571.86619043,1550.0,1550.0,0.0,0.0
1565339582164885816,1571.86619043,1571.86619043,1550.0,1550.0,0.0,0.0
1565339582215394566,1571.86619043,1571.86619043,1550.0,1550.0,0.0,0.0
1565339582265579201,1571.86619043,1571.86619043,1550.0,1550.0,0.0,0.0
1565339582315409305,1570.78037411,1570.78037411,1550.0,1550.0,0.0,0.0
1565339582365000086,1570.78037411,1570.78037411,1550.0,1550.0,0.0,0.0
1565339582414777274,1570.78037411,1570.78037411,1550.0,1550.0,0.0,0.0
1565339582464883940,1570.78037411,1570.78037411,1550.0,1550.0,0.0,0.0
1565339582515775295,1550.0,1550.0,1550.0,1550.0,0.0,0.0
1565339582565751076,1550.0,1550.0,1550.0,1550.0,0.0,0.0
1565339582615675242,1550.0,1550.0,1550.0,1550.0,0.0,0.0
1565339582665486597,1550.0,1550.0,1550.0,1550.0,0.0,0.0
1565339582716368055,1550.0,1550.0,1550.0,1550.0,0.0,0.0
1565339582765225972,1550.0,1550.0,1550.0,1550.0,0.0,0.0
1565339582815103003,1550.0,1550.0,1550.0,1550.0,0.0,0.0
1565339582865249826,1550.0,1550.0,1550.0,1550.0,0.0,0.0
1565339582915882065,1550.0,1550.0,1550.0,1550.0,0.0,0.0
1565339582965595034,1550.0,1550.0,1550.0,1550.0,0.0,0.0
1565339583015666805,1550.0,1550.0,1550.0,1550.0,0.0,0.0
1565339583064815711,1550.0,1550.0,1550.0,1550.0,0.0,0.0
1565339583115589149,1550.0,1550.0,1550.0,1550.0,0.0,0.0
1565339583165345294,1550.0,1550.0,1550.0,1550.0,0.0,0.0
1565339583215710503,1550.0,1550.0,1550.0,1550.0,0.0,0.0
1565339583265543940,1550.0,1550.0,1550.0,1550.0,0.0,0.0
1565339583315577846,1608.76467228,1608.76467228,1550.0,1550.0,0.0,0.0
1565339583365528159,1608.76467228,1608.76467228,1550.0,1550.0,0.0,0.0
1565339583415570034,1650.0,1650.0,1550.0,1550.0,0.0,0.0
1565339583465547586,1650.0,1650.0,1550.0,1550.0,0.0,0.0
1565339583516195503,1650.0,1650.0,1550.0,1550.0,0.0,0.0
1565339583565524409,1650.0,1650.0,1550.0,1550.0,0.0,0.0
1565339583615585607,1650.0,1650.0,1550.0,1550.0,0.0,0.0
1565339583665574878,1650.0,1650.0,1550.0,1550.0,0.0,0.0
1565339583715153211,1650.0,1650.0,1550.0,1550.0,0.0,0.0
1565339583765369252,1650.0,1650.0,1550.0,1550.0,0.0,0.0
1565339583814881648,1650.0,1650.0,1550.0,1550.0,0.0,0.0
1565339583865357221,1641.31989479,1641.31989479,1550.0,1550.0,0.0,0.0
1565339583915495659,1641.31989479,1641.31989479,1550.0,1550.0,0.0,0.0
1565339583964999982,1641.31989479,1641.31989479,1550.0,1550.0,0.0,0.0
1565339584014913523,1583.8037461,1583.8037461,1550.0,1550.0,0.0,0.0
1565339584064913211,1583.8037461,1583.8037461,1550.0,1550.0,0.0,0.0
1565339584115856023,1550.0,1550.0,1550.0,1550.0,0.0,0.0
1565339584165293159,1550.0,1550.0,1550.0,1550.0,0.0,0.0
1565339584214923836,1550.0,1550.0,1550.0,1550.0,0.0,0.0
1565339584264985346,1550.0,1550.0,1550.0,1550.0,0.0,0.0
1565339584314994617,1550.0,1550.0,1550.0,1550.0,0.0,0.0
1565339584365564981,1550.0,1550.0,1550.0,1550.0,0.0,0.0
1565339584414934877,1550.0,1550.0,1550.0,1550.0,0.0,0.0
1565339584464961179,1550.0,1550.0,1550.0,1550.0,0.0,0.0
1565339584515807950,1550.0,1550.0,1550.0,1550.0,0.0,0.0
1565339584564953783,1550.0,1550.0,1550.0,1550.0,0.0,0.0
1565339584614947013,1550.0,1550.0,1550.0,1550.0,0.0,0.0
1565339584664945138,1550.0,1550.0,1550.0,1550.0,0.0,0.0
1565339584714983158,1550.0,1550.0,1550.0,1550.0,0.0,0.0
1565339584765014565,1550.0,1550.0,1550.0,1550.0,0.0,0.0
1565339584814937012,1550.0,1550.0,1550.0,1550.0,0.0,0.0
1565339584865017533,1550.0,1550.0,1550.0,1550.0,0.0,0.0
1565339584915034929,1550.0,1550.0,1550.0,1550.0,0.0,0.0
1565339584964935554,1550.0,1550.0,1550.0,1550.0,0.0,0.0
1565339585014947689,1550.0,1550.0,1550.0,1550.0,0.0,0.0
1565339585065099304,1550.0,1550.0,1550.0,1550.0,0.0,0.0
1565339585114925919,1550.0,1550.0,1550.0,1550.0,0.0,0.0
1565339585165154929,1562.01730594,1550.0,1550.0,1562.01730594,0.0,0.0
1565339585214939773,1562.01730594,1550.0,1550.0,1562.01730594,0.0,0.0
1565339585265191596,1567.44478196,1550.0,1550.0,1567.44478196,0.0,0.0
1565339585315151179,1567.44478196,1550.0,1550.0,1567.44478196,0.0,0.0
1565339585365471439,1567.44478196,1550.0,1550.0,1567.44478196,0.0,0.0
1565339585415935189,1567.44478196,1550.0,1550.0,1567.44478196,0.0,0.0
1565339585464943627,1567.44478196,1550.0,1550.0,1567.44478196,0.0,0.0
1565339585516149252,1573.95486087,1550.0,1550.0,1573.95486087,0.0,0.0
1565339585566232689,1573.95486087,1550.0,1550.0,1573.95486087,0.0,0.0
1565339585615364564,1573.41355979,1550.0,1550.0,1573.41355979,0.0,0.0
1565339585665360814,1573.41355979,1550.0,1550.0,1573.41355979,0.0,0.0
1565339585715438679,1573.41355979,1550.0,1550.0,1573.41355979,0.0,0.0
1565339585764982012,1573.41355979,1550.0,1550.0,1573.41355979,0.0,0.0
1565339585814909981,1573.41355979,1550.0,1550.0,1573.41355979,0.0,0.0
1565339585867791283,1573.41355979,1550.0,1550.0,1573.41355979,0.0,0.0
1565339585915077116,1573.41355979,1550.0,1550.0,1573.41355979,0.0,0.0
1565339585965599564,1573.41355979,1550.0,1550.0,1573.41355979,0.0,0.0
1565339586014999408,1573.95486087,1550.0,1550.0,1573.95486087,0.0,0.0
1565339586065362220,1573.95486087,1550.0,1550.0,1573.95486087,0.0,0.0
1565339586115274616,1550.0,1550.0,1550.0,1550.0,0.0,0.0
1565339586164930137,1550.0,1550.0,1550.0,1550.0,0.0,0.0
1565339586214906491,1550.0,1550.0,1550.0,1550.0,0.0,0.0
1565339586264988470,1550.0,1550.0,1550.0,1550.0,0.0,0.0
1565339586315055449,1550.0,1550.0,1550.0,1550.0,0.0,0.0
1565339586364897168,1550.0,1550.0,1550.0,1550.0,0.0,0.0
1565339586415268679,1550.0,1550.0,1550.0,1550.0,0.0,0.0
1565339586464955449,1550.0,1550.0,1550.0,1550.0,0.0,0.0
1565339586514994564,1550.0,1550.0,1550.0,1550.0,0.0,0.0
1565339586565073991,1550.0,1550.0,1550.0,1550.0,0.0,0.0
1565339586615280606,1550.0,1550.0,1550.0,1550.0,0.0,0.0
1565339586665579928,1550.0,1550.0,1550.0,1550.0,0.0,0.0
1565339586715422949,1550.0,1550.0,1550.0,1550.0,0.0,0.0
1565339586764873887,1550.0,1550.0,1550.0,1550.0,0.0,0.0
1565339586815293053,1550.0,1550.0,1550.0,1550.0,0.0,0.0
1565339586865222272,1550.0,1550.0,1550.0,1550.0,0.0,0.0
1565339586915364147,1550.0,1550.0,1550.0,1550.0,0.0,0.0
1565339586965185345,1550.0,1550.0,1550.0,1550.0,0.0,0.0
1565339587015297220,1550.0,1550.0,1550.0,1550.0,0.0,0.0
1565339587065545918,1550.0,1550.0,1550.0,1550.0,0.0,0.0
1565339587115393262,1550.0,1550.0,1550.0,1550.0,0.0,0.0
1565339587165286074,1550.0,1550.0,1550.0,1550.0,0.0,0.0
