%time,field.linear.x,field.linear.y,field.linear.z,field.angular.x,field.angular.y,field.angular.z
1565340109148150000,0.218694031,0,0,0,0,0
1565340109252460000,0.348927766,0,0,0,0,0
1565340109356720000,0.511703849,0,0,0,0,0
1565340109464730000,0.598504901,0,0,0,0,0
1565340109583450000,0.663621783,0,0,0,0,0
1565340109674990000,0.815571845,0,0,0,0,0
1565340109723390000,0.815571845,0,0,0,0,0
1565340109851760000,0.826397896,0,0,0,0,0
1565340109972230000,0.826397896,0,0,0,0,0
1565340110072780000,0.804713666,0,0,0,0,0
1565340110208690000,0.815571845,0,0,0,0,0
1565340110324530000,0.804713666,0,0,0,0,0
1565340110375890000,0.804713666,0,0,0,0,0
1565340110424750000,0.804713666,0,0,0,0,0
1565340110475140000,0.804713666,0,0,0,0,0
1565340110601140000,0.804713666,0,0,0,0,0
1565340110707130000,0.804713666,0.001659243,0,0,0,0
1565340110825140000,0.804713666,0,0,0,0,0
1565340110874880000,0.804713666,0,0,0,0,0
1565340110925020000,0.804713666,0,0,0,0,0
1565340110976460000,0.804713666,0,0,0,0,0
1565340111025230000,0.804713666,0,0,0,0,0
1565340111160920000,0.815571845,0.001659243,0,0,0,0
1565340111211000000,0.815571845,0.001659243,0,0,0,0
1565340111312550000,0.815571845,0.012485282,0,0,0,0
1565340111424600000,0.815571845,0.023343448,0,0,0,0
1565340111549100000,0.815571845,0.023343448,0,0,0,0
1565340111700180000,0.815571845,0.023343448,0,0,0,0
1565340111719970000,0.815571845,0.023343448,0,0,0,0
1565340111863100000,0.815571845,0.023343448,0,0,0,0
1565340111972760000,0.815571845,0.023343448,0,0,0,0
1565340112023600000,0.815571845,0.023343448,0,0,0,0
1565340112128850000,0.815571845,0.023343448,0,0,0,0
1565340112232860000,0.815571845,0.034201611,0,0,0,-0.087646753
1565340112336830000,0.815571845,0.023343448,0,0,0,-0.20159322
1565340112446640000,0.815571845,0.045059778,0,0,0,0
1565340112496970000,0.815571845,0.045059778,0,0,0,0
1565340112604600000,0.815571845,0.055917941,0,0,0,0
1565340112654960000,0.815571845,0.055917941,0,0,0,0
1565340112760520000,0.815571845,0.055917941,0,0,0,0
1565340112881150000,0.815571845,0.055917941,0,0,0,0
1565340113009630000,0.815571845,0.055917941,0,0,0,0.17986083
1565340113111260000,0.815571845,0.055917941,0,0,0,0.35892418
1565340113221080000,0.815571845,0.055917941,0,0,0,0
1565340113270960000,0.815571845,0.055917941,0,0,0,0
1565340113376920000,0.815571845,0.055917941,0,0,0,0
1565340113480820000,0.815571845,0.045059778,0,0,0,0.022513825
1565340113585180000,0.815571845,0.055917941,0,0,0,0.342652977
1565340113689000000,0.815571845,0.055917941,0,0,0,0.228706509
1565340113792770000,0.815571845,0.055917941,0,0,0,0
1565340113912650000,0.815571845,0.055917941,0,0,0,0
1565340114016510000,0.815571845,0.055917941,0,0,0,0
1565340114066580000,0.815571845,0.055917941,0,0,0,0
1565340114117940000,0.815571845,0.055917941,0,0,0,0
1565340114167090000,0.815571845,0.055917941,0,0,0,0
1565340114217390000,0.815571845,0.055917941,0,0,0,0
1565340114332510000,0.522562027,0,0,0,0,0
1565340114437060000,0,0,0,0,0,0
1565340114486850000,0,0,0,0,0,0
1565340114537980000,0,0,0,0,0,0
1565340114647560000,0,0,0,0,0,0.114760034
1565340114769000000,0,0,0,0,0,0.212419271
1565340114872950000,0,0,0,0,0,0.407769859
1565340114976980000,0,0,0,0,0,0.413182884
1565340115106790000,0,0,0,0,0,0.413182884
1565340115212810000,0,0,0,0,0,0.407769859
1565340115341190000,0,0,0,0,0,0.445741296
1565340115445140000,0,0,0,0,0,0.44032827
1565340115549080000,0.012485282,0,0,0,0,0
1565340115657600000,0.207835868,0,0,0,0,0
1565340115788790000,0.40318644,0,0,0,0,0
1565340115904640000,0.468303323,0,0,0,0,0
1565340116012860000,0.468303323,0,0,0,0,0
1565340116116870000,0.479129344,0,0,0,0,0
1565340116220980000,0.479129344,0,0,0,0,0.120173059
1565340116335710000,0.468303323,0,0,0,0,0.250406772
1565340116438100000,0.468303323,0,0,0,0,0.299236387
1565340116549640000,0.479129344,0,0,0,0,0.255835861
1565340116653660000,0.479129344,0,0,0,0,0.087630689
1565340116777410000,0.468303323,0,0,0,0,0.304665476
1565340116885200000,0.468303323,0,0,0,0,0.331794828
1565340116996640000,0.468303323,0,0,0,0,0.158160567
1565340117104750000,0.468303323,0,0,0,0,0.071343444
1565340117150790000,0.468303323,0,0,0,0,0.071343444
1565340117260740000,0.468303323,0,0,0,0,0.244977698
1565340117364450000,0.468303323,0,0,0,0,0.293823361
1565340117492420000,0.468303323,0,0,0,0,0
1565340117617360000,0.468303323,0,0,0,0,0
1565340117744960000,0.457445145,0,0,0,0,-0.109347016
1565340117870900000,0.457445145,0,0,0,0,-0.30468154
1565340117953130000,0.457445145,0,0,0,0,-0.320968777
1565340118060970000,0.457445145,0,0,0,0,-0.348098129
1565340118208560000,0.457445145,0,0,0,0,0
1565340118258820000,0.457445145,0,0,0,0,0
1565340118333730000,0.457445145,0,0,0,0,0
1565340118359300000,0.457445145,0,0,0,0,0
1565340118409430000,0.457445145,0,0,0,0,0
1565340118529160000,0.468303323,0,0,0,0,-0.364369333
1565340118633300000,0.457445145,0,0,0,0,-0.413198948
1565340118742270000,0.457445145,0,0,0,0,0
1565340118791530000,0.457445145,0,0,0,0,0
1565340118844980000,0.457445145,0,0,0,0,0
1565340118893810000,0.457445145,0,0,0,0,0
1565340118942000000,0.457445145,0,0,0,0,0
1565340118992330000,0.457445145,0,0,0,0,0
1565340119092940000,0.457445145,0,0,0,0,0
1565340119143250000,0.457445145,0,0,0,0,0
1565340119192950000,0.457445145,0,0,0,0,0
1565340119303140000,0.457445145,0,0,0,0,0
1565340119350800000,0.457445145,0,0,0,0,0
1565340119492800000,0.479129344,0,0,0,0,0
1565340119542990000,0.479129344,0,0,0,0,0
1565340119593220000,0.479129344,0,0,0,0,0
1565340119729870000,0.511703849,0,0,0,0,0
1565340119834300000,0.511703849,0,0,0,0,0
1565340119944630000,0.576820731,0,0,0,0,0
1565340120085200000,0.576820731,0,0,0,0,0.049643174
1565340120188990000,0.576820731,0,0,0,0,0.169018731
1565340120297090000,0.576820731,0,0,0,0,0.250406772
1565340120412930000,0.576820731,0,0,0,0,0.266677976
1565340120524800000,0.576820731,0,0,0,0,0.239548609
1565340120633640000,0.576820731,0,0,0,0,0
1565340120686950000,0.576820731,0,0,0,0,0
1565340120793040000,0.565962553,0,0,0,0,0.141889378
1565340120897380000,0.576820731,0,0,0,0,0.304665476
1565340121027680000,0.576820731,0,0,0,0,0.315523654
1565340121129470000,0.576820731,0,0,0,0,0.342652977
1565340121233080000,0.565962553,0,0,0,0,0.266677976
1565340121337540000,0.576820731,0,0,0,0,0
1565340121444690000,0.576820731,0,0,0,0,0
1565340121495130000,0.576820731,0,0,0,0,0
1565340121545500000,0.576820731,0,0,0,0,0
1565340121699400000,0.576820731,0,0,0,0,0.169018731
1565340121819160000,0.576820731,0,0,0,0,0.239548609
1565340121901270000,0.565962553,0,0,0,0,0.250406772
1565340122001180000,0.576820731,0,0,0,0,0.277536124
1565340122113380000,0.576820731,0,0,0,0,0.277536124
1565340122256880000,0.576820731,0,0,0,0,0.277536124
1565340122369360000,0.565962553,0,0,0,0,0.282965213
1565340122475610000,0.576820731,0,0,0,0,0
1565340122523050000,0.576820731,0,0,0,0,0
1565340122573770000,0.576820731,0,0,0,0,0
1565340122623640000,0.576820731,0,0,0,0,0
1565340122753270000,0.565962553,0,0,0,0,0
1565340122803580000,0.565962553,0,0,0,0,0
1565340122853190000,0.565962553,0,0,0,0,0
1565340122990330000,0.576820731,0,0,0,0,0
1565340123039090000,0.576820731,0,0,0,0,0
1565340123089120000,0.576820731,0,0,0,0,0
1565340123216610000,0.565962553,0,0,0,0,0
1565340123336980000,0.565962553,0,0,0,0,0
1565340123456720000,0.565962553,0,0,0,0,0
1565340123560780000,0.576820731,0,0,0,0,0
1565340123673450000,0.565962553,0,0,0,0,0.114760034
1565340123777120000,0.576820731,0,0,0,0,0.125602141
1565340123827190000,0.576820731,0,0,0,0,0.125602141
1565340123928680000,0.576820731,0,0,0,0,0.131031215
1565340124033710000,0.576820731,0,0,0,0,0.17444782
1565340124136950000,0.565962553,0,0,0,0,0.131031215
1565340124241800000,0.565962553,0,0,0,0,0
1565340124291060000,0.565962553,0,0,0,0,0
1565340124392590000,0.565962553,0,0,0,0,0
1565340124501090000,0.576820731,0,0,0,0,0.087630689
1565340124605480000,0.565962553,0,0,0,0,0.169018731
1565340124656230000,0.565962553,0,0,0,0,0.169018731
1565340124769550000,0.565962553,0,0,0,0,0.17444782
1565340124893280000,0.576820731,0,0,0,0,0.310094565
1565340125004760000,0.576820731,0,0,0,0,0.331794828
1565340125125110000,0.565962553,0,0,0,0,0.055072255
1565340125229020000,0.565962553,0,0,0,0,0
1565340125279360000,0.565962553,0,0,0,0,0
1565340125413640000,0.576820731,0,0,0,0,0
1565340125464480000,0.576820731,0,0,0,0,0
1565340125565930000,0.565962553,0,0,0,0,0
1565340125695470000,0.576820731,0,0,0,0,0.103901871
1565340125788780000,0.565962553,0,0,0,0,0.244977698
1565340125892970000,0.576820731,0,0,0,0,0.26126495
1565340126015390000,0.576820731,0,0,0,0,0.250406772
1565340126108350000,0.565962553,0,0,0,0,0
1565340126155720000,0.565962553,0,0,0,0,0
1565340126206820000,0.565962553,0,0,0,0,0
1565340126258710000,0.565962553,0,0,0,0,0
1565340126396860000,0.576820731,0,0,0,0,0
1565340126529080000,0.576820731,0,0,0,0,0.011655661
1565340126641430000,0.565962553,0,0,0,0,0.098472789
1565340126748900000,0.565962553,0,0,0,0,0.304665476
1565340126841930000,0.576820731,0,0,0,0,0.266677976
1565340126945570000,0.576820731,0,0,0,0,0
1565340126995520000,0.576820731,0,0,0,0,0
1565340127145320000,0.565962553,0,0,0,0,0
1565340127194960000,0.565962553,0,0,0,0,0
1565340127245210000,0.565962553,0,0,0,0,0
1565340127389260000,0.576820731,0,0,0,0,0.006226579
1565340127493270000,0.565962553,0,0,0,0,0.103901871
1565340127601590000,0.576820731,0,0,0,0,0.239548609
1565340127709350000,0.565962553,0,0,0,0,0.272107035
1565340127810950000,0.565962553,0,0,0,0,0
1565340127937250000,0.576820731,0,0,0,0,0
1565340128025510000,0.565962553,0,0,0,0,0
1565340128075170000,0.565962553,0,0,0,0,0
1565340128125520000,0.565962553,0,0,0,0,0
1565340128257520000,0.565962553,0,0,0,0,0.152731493
1565340128361440000,0.576820731,0,0,0,0,0.185289919
1565340128484850000,0.576820731,0,0,0,0,0.163589656
1565340128597210000,0.565962553,0,0,0,0,0
1565340128701140000,0.565962553,0,0,0,0,0
1565340128820980000,0.576820731,0,0,0,0,0
1565340128871480000,0.576820731,0,0,0,0,0
1565340128923290000,0.576820731,0,0,0,0,0
1565340128973450000,0.576820731,0,0,0,0,0
1565340129088690000,0.565962553,0,0,0,0,0
1565340129139930000,0.565962553,0,0,0,0,0
1565340129189930000,0.565962553,0,0,0,0,0
1565340129240290000,0.565962553,0,0,0,0,0
1565340129361950000,0.576820731,0,0,0,0,0
1565340129411810000,0.576820731,0,0,0,0,0
1565340129521720000,0.576820731,0,0,0,0,0.141889378
1565340129625410000,0.576820731,0,0,0,0,0.158160567
1565340129729410000,0.565962553,0,0,0,0,0.190718994
1565340129847610000,0.565962553,0,0,0,0,0.207006246
1565340129937260000,0.576820731,0,0,0,0,0.207006246
1565340130057520000,0.565962553,0,0,0,0,0.212419271
1565340130190090000,0.565962553,0,0,0,0,0.207006246
1565340130313220000,0.576820731,0,0,0,0,0.212419271
1565340130458390000,0.576820731,0,0,0,0,0.282965213
1565340130563810000,0.565962553,0,0,0,0,0.299236387
1565340130610850000,0.565962553,0,0,0,0,0.299236387
1565340130661890000,0.565962553,0,0,0,0,0.299236387
1565340130784430000,0.576820731,0,0,0,0,0.293823361
1565340130889660000,0.565962553,0,0,0,0,0.293823361
1565340131033800000,0.565962553,0,0,0,0,0.272107035
1565340131137430000,0.565962553,0,0,0,0,0
1565340131187840000,0.565962553,0,0,0,0,0
1565340131333450000,0.576820731,0,0,0,0,0
1565340131383950000,0.576820731,0,0,0,0,0
1565340131485170000,0.576820731,0,0,0,0,0.17444782
1565340131589500000,0.576820731,0,0,0,0,0.310094565
1565340131701630000,0.565962553,0,0,0,0,0.310094565
1565340131817570000,0.576820731,0,0,0,0,0.304665476
1565340131937500000,0.565962553,0,0,0,0,0.234135598
1565340132043340000,0.565962553,0,0,0,0,0.185289919
1565340132157170000,0.565962553,0,0,0,0,0.185289919
1565340132261760000,0.565962553,0,0,0,0,0
1565340132312000000,0.565962553,0,0,0,0,0
1565340132436850000,0.576820731,0,0,0,0,0
1565340132486810000,0.576820731,0,0,0,0,0
1565340132537430000,0.576820731,0,0,0,0,0
1565340132642450000,0.565962553,0,0,0,0,0
1565340132744940000,0.576820731,0,0,0,0,0
1565340132877130000,0.565962553,0,0,0,0,0
1565340132981810000,0.576820731,0,0,0,0,0
1565340133084990000,0.565962553,0,0,0,0,0
1565340133197020000,0.565962553,0,0,0,0,0
1565340133248290000,0.565962553,0,0,0,0,0
1565340133298020000,0.565962553,0,0,0,0,0
1565340133348360000,0.565962553,0,0,0,0,0
1565340133398320000,0.565962553,0,0,0,0,0
1565340133493780000,0.565962553,0,0,0,0,0
1565340133498750000,0.565962553,0,0,0,0,0
1565340133621450000,0.576820731,0,0,0,0,0
1565340133674530000,0.576820731,0,0,0,0,0
1565340133721920000,0.576820731,0,0,0,0,0
1565340133853130000,0.565962553,0,0,0,0,0
1565340133957170000,0.609363079,0,0,0,0,0
1565340134077170000,0.663621783,0,0,0,0,0
1565340134224970000,0.674479961,0,0,0,0,0
1565340134357260000,0.707054436,0,0,0,0,0
1565340134409000000,0.707054436,0,0,0,0,0
1565340134458440000,0.707054436,0,0,0,0,0
1565340134562040000,0.717880487,0,0,0,0,0
1565340134615880000,0.717880487,0,0,0,0,0
1565340134661270000,0.717880487,0,0,0,0,0
1565340134711750000,0.717880487,0,0,0,0,0
1565340134849800000,0.717880487,0,0,0,0,0
1565340134953580000,0.717880487,0,0,0,0,0
1565340135069450000,0.728738666,0,0,0,0,-0.087646753
1565340135173270000,0.728738666,0,0,0,0,-0.125618204
1565340135289760000,0.717880487,0,0,0,0,-0.125618204
1565340135400780000,0.717880487,0,0,0,0,-0.158176631
1565340135497490000,0.717880487,0,0,0,0,-0.196164146
1565340135601250000,0.728738666,0,0,0,0,0
1565340135653840000,0.728738666,0,0,0,0,0
1565340135769040000,0.728738666,0,0,0,0,0
1565340135901380000,0.728738666,0,0,0,0,-0.234151661
1565340135951660000,0.728738666,0,0,0,0,-0.234151661
1565340136061360000,0.728738666,0,0,0,0,-0.358940244
1565340136165790000,0.728738666,0,0,0,0,-0.337239981
1565340136269380000,0.728738666,0,0,0,0,0
1565340136320600000,0.728738666,0,0,0,0,0
1565340136369940000,0.728738666,0,0,0,0,0
1565340136420410000,0.728738666,0,0,0,0,0
1565340136470410000,0.728738666,0,0,0,0,0
1565340136520840000,0.728738666,0,0,0,0,0
1565340136642630000,0.739596784,0,0,0,0,0
1565340136745920000,0.739596784,0,0,0,0,0
1565340136849820000,0.728738666,0,0,0,0,0
1565340136899290000,0.728738666,0,0,0,0,0
1565340137025700000,0.739596784,0,0,0,0,0
1565340137133170000,0.728738666,0,0,0,0,0
1565340137241950000,0.728738666,0,0,0,0,0
1565340137345820000,0.739596784,0,0,0,0,-0.266694039
1565340137450060000,0.750454962,0,0,0,0,-0.369798392
1565340137557380000,0.750454962,0,0,0,0,0
1565340137660850000,0.76131314,0,0,0,0,0
1565340137712100000,0.76131314,0,0,0,0,0
1565340137761430000,0.76131314,0,0,0,0,0
1565340137897340000,0.76131314,0,0,0,0,0
1565340138030730000,0.78299731,0,0,0,0,0
1565340138081550000,0.78299731,0,0,0,0,0
1565340138133070000,0.78299731,0,0,0,0,0
1565340138250870000,0.78299731,0,0,0,0,0
1565340138369370000,0.793855488,0,0,0,0,0
1565340138481780000,0.78299731,0,0,0,0,0
1565340138531820000,0.78299731,0,0,0,0,0
1565340138582140000,0.78299731,0,0,0,0,0
1565340138631960000,0.78299731,0,0,0,0,0
1565340138682000000,0.78299731,0,0,0,0,0
1565340138732010000,0.78299731,0,0,0,0,0
1565340138783020000,0.78299731,0,0,0,0,0
1565340138831910000,0.78299731,0,0,0,0,0
1565340138882370000,0.78299731,0,0,0,0,0
1565340138932520000,0.78299731,0,0,0,0,0
1565340138982860000,0.78299731,0,0,0,0,0
1565340139033150000,0.78299731,0,0,0,0,0
1565340139082920000,0.78299731,0,0,0,0,0
1565340139133050000,0.78299731,0,0,0,0,0
1565340139185700000,0.78299731,0,0,0,0,0
1565340139305830000,0.78299731,0,0,0,0,0
1565340139411690000,0.793855488,0,0,0,0,0
1565340139459580000,0.793855488,0,0,0,0,0
1565340139510000000,0.793855488,0,0,0,0,0
1565340139560200000,0.793855488,0,0,0,0,0
1565340139609810000,0.793855488,0,0,0,0,0
1565340139660190000,0.793855488,0,0,0,0,0
1565340139710590000,0.793855488,0,0,0,0,0
1565340139816870000,0.793855488,0,0,0,0,-0.207022309
1565340139921460000,0.793855488,0,0,0,0,-0.207022309
1565340139971400000,0.793855488,0,0,0,0,-0.207022309
1565340140101720000,0.793855488,0,0,0,0,-0.207022309
1565340140205780000,0.78299731,0,0,0,0,-0.20159322
1565340140310120000,0.793855488,0,0,0,0,-0.207022309
1565340140413070000,0.78299731,0,0,0,0,-0.20159322
1565340140517880000,0.793855488,0,0,0,0,-0.207022309
1565340140621460000,0.793855488,0,0,0,0,-0.207022309
1565340140749300000,0.793855488,0,0,0,0,-0.250422835
1565340140865700000,0.78299731,0,0,0,0,-0.250422835
1565340140977460000,0.717880487,0,0,0,0,0
1565340141082000000,0.045059778,0,0,0,0,0
1565340141185010000,0,0,0,0,0,0
1565340141235480000,0,0,0,0,0,0
1565340141377090000,0,0,0,0,0,-0.250422835
1565340141481390000,0,0,0,0,0,-0.396927744
1565340141585400000,0,0,0,0,0,-0.396927744
1565340141733540000,0,0,0,0,0,-0.396927744
1565340141819720000,0,0,0,0,0,-0.5
1565340141867870000,0,0,0,0,0,-0.5
1565340141909350000,0,0,0,0,0,-0.5
1565340141959520000,0,0,0,0,0,-0.5
1565340142010040000,0,0,0,0,0,-0.5
1565340142059980000,0,0,0,0,0,-0.5
1565340142110410000,0,0,0,0,0,-0.5
1565340142161390000,0,0,0,0,0,-0.5
1565340142285300000,0,0,0,0,0,0
1565340142335510000,0,0,0,0,0,0
1565340142385740000,0,0,0,0,0,0
1565340142436050000,0,0,0,0,0,0
1565340142486240000,0,0,0,0,0,0
1565340142536500000,0,0,0,0,0,0
1565340142586760000,0,0,0,0,0,0
1565340142636770000,0,0,0,0,0,0
1565340142687060000,0,0,0,0,0,0
1565340142737720000,0,0,0,0,0,0
1565340142788690000,0,0,0,0,0,0
1565340142839660000,0,0,0,0,0,0
1565340142887850000,0,0,0,0,0,0
1565340142937960000,0,0,0,0,0,0
1565340142988260000,0,0,0,0,0,0
1565340143129370000,0.468303323,0,0,0,0,0
1565340143233520000,0.58767885,0,0,0,0,0
1565340143378840000,0.663621783,0,0,0,0,0
1565340143498150000,0.674479961,0,0,0,0,0
1565340143621620000,0.674479961,0,0,0,0,0
1565340143671820000,0.674479961,0,0,0,0,0
1565340143722540000,0.674479961,0,0,0,0,0
1565340143772260000,0.674479961,0,0,0,0,0
1565340143824220000,0.674479961,0,0,0,0,0
1565340143884560000,0.674479961,0,0,0,0,0
1565340143926400000,0.674479961,0,0,0,0,0
1565340143972330000,0.674479961,0,0,0,0,0
1565340144023810000,0.674479961,0,0,0,0,0
1565340144073140000,0.674479961,0,0,0,0,0
1565340144123130000,0.674479961,0,0,0,0,0
1565340144173690000,0.674479961,0,0,0,0,0
1565340144223460000,0.674479961,0,0,0,0,0
1565340144273650000,0.674479961,0,0,0,0,0
1565340144324080000,0.674479961,0,0,0,0,0
1565340144376500000,0.674479961,0,0,0,0,0
1565340144426020000,0.674479961,0,0,0,0,0
1565340144476900000,0.674479961,0,0,0,0,0
1565340144525250000,0.674479961,0,0,0,0,0
1565340144575200000,0.674479961,0,0,0,0,0
1565340144625820000,0.674479961,0,0,0,0,0
1565340144676260000,0.674479961,0,0,0,0,0
1565340144813530000,0.707054436,0,0,0,0,0
1565340144929640000,0.707054436,0,0,0,0,0
1565340145039400000,0.826397896,0,0,0,0,0
1565340145145180000,0.913231075,0,0,0,0,0
1565340145250690000,1,0,0,0,0,0
1565340145300050000,1,0,0,0,0,0
1565340145350190000,1,0,0,0,0,0
1565340145457070000,1,0,0,0,0,0
1565340145507500000,1,0,0,0,0,0
1565340145558140000,1,0,0,0,0,0
1565340145608460000,1,0,0,0,0,0
1565340145658210000,1,0,0,0,0,0
1565340145709610000,1,0,0,0,0,0
1565340145758540000,1,0,0,0,0,0
1565340145884800000,1,0,0,0,0,0
1565340145935650000,1,0,0,0,0,0
1565340145986450000,1,0,0,0,0,0
1565340146101780000,0,0,0,0,0,0
1565340146151770000,0,0,0,0,0,0
1565340146202110000,0,0,0,0,0,0
1565340146253780000,0,0,0,0,0,0
1565340146302590000,0,0,0,0,0,0
1565340146413650000,0,0,0,0,0,-0.315539718
1565340146518730000,0,0,0,0,0,-0.5
1565340146568140000,0,0,0,0,0,-0.5
1565340146618210000,0,0,0,0,0,-0.5
1565340146668560000,0,0,0,0,0,-0.5
1565340146719230000,0,0,0,0,0,-0.5
1565340146768750000,0,0,0,0,0,-0.5
1565340146818710000,0,0,0,0,0,-0.5
1565340146868790000,0,0,0,0,0,-0.5
1565340146919360000,0,0,0,0,0,-0.5
1565340146969300000,0,0,0,0,0,-0.5
1565340147019920000,0,0,0,0,0,-0.5
1565340147069580000,0,0,0,0,0,-0.5
1565340147121310000,0,0,0,0,0,-0.5
1565340147221740000,0,0,0,0,0,0
1565340147271970000,0,0,0,0,0,0
1565340147322030000,0,0,0,0,0,0
1565340147371930000,0,0,0,0,0,0
1565340147514100000,0.414044619,0,0,0,0,0
1565340147613400000,0.446586996,0,0,0,0,0
1565340147729670000,0.435728818,0,0,0,0,0
1565340147872870000,0.511703849,0,0,0,0,0
1565340147961890000,0.815571845,0,0,0,0,0
1565340148097910000,0.924089253,0,0,0,0,0
1565340148224850000,0.967489779,0,0,0,0,0
1565340148269430000,0.967489779,0,0,0,0,0
1565340148410180000,0.956631601,0,0,0,0,-0.228722572
1565340148515320000,0.902372897,0,0,0,0,-0.239564672
1565340148622300000,0.902372897,0,0,0,0,-0.30468154
1565340148725680000,0.902372897,0,0,0,0,-0.386069596
1565340148829630000,0.902372897,0,0,0,0,-0.391498655
1565340148933930000,1,0,0,0,0,-0.391498655
1565340149044950000,0.956631601,0,0,0,0,-0.5
1565340149145160000,0.956631601,0,0,0,0,-0.5
1565340149195320000,0.956631601,0,0,0,0,-0.5
1565340149297650000,0.956631601,0,0,0,0,0
1565340149433730000,1,0.088460311,0,0,0,0
1565340149483760000,1,0.088460311,0,0,0,0
1565340149534030000,1,0.088460311,0,0,0,0
1565340149673980000,0,0,0,0,0,0
1565340149723540000,0,0,0,0,0,0
1565340149774430000,0,0,0,0,0,0
1565340149834700000,0,0,0,0,0,0
1565340149877400000,0,0,0,0,0,0
1565340149924140000,0,0,0,0,0,0
1565340149974750000,0,0,0,0,0,0
1565340150025100000,0,0,0,0,0,0
1565340150075830000,0,0,0,0,0,0
1565340150125060000,0,0,0,0,0,0
1565340150174950000,0,0,0,0,0,0
1565340150226070000,0,0,0,0,0,0
1565340150362260000,0.121034801,0,0,0,0,-0.277552187
1565340150466350000,0.381470114,0,0,0,0,-0.331810892
1565340150570820000,0.457445145,0,0,0,0,-0.358940244
1565340150673940000,0.620221257,0,0,0,0,-0.445757359
1565340150778270000,0.804713666,0,0,0,0,-0.5
1565340150924890000,0.837256014,0,0,0,0,-0.5
1565340151027420000,0.945773423,0,0,0,0,-0.315539718
1565340151129950000,1,0.055917941,0,0,0,-0.234151661
1565340151233910000,1,0.088460311,0,0,0,0
1565340151338160000,1,0.110176638,0,0,0,0.223277435
1565340151446190000,1,0.110176638,0,0,0,0.467457622
1565340151545390000,1,0.110176638,0,0,0,0.5
1565340151657490000,1,0.121034801,0,0,0,0.5
1565340151766010000,1,0.121034801,0,0,0,0.5
1565340151883470000,1,0.131860837,0,0,0,0.5
1565340151927420000,1,0.131860837,0,0,0,0.5
1565340152038050000,0.978347898,0.121034801,0,0,0,0
1565340152153460000,0.978347898,0.121034801,0,0,0,0
1565340152257940000,1,0.142719001,0,0,0,0
1565340152308710000,1,0.142719001,0,0,0,0
1565340152431630000,0,0,0,0,0,0
1565340152480600000,0,0,0,0,0,0
1565340152533330000,0,0,0,0,0,0
1565340152581190000,0,0,0,0,0,0
1565340152631880000,0,0,0,0,0,0
1565340152681710000,0,0,0,0,0,0
1565340152731470000,0,0,0,0,0,0
1565340152781900000,0,0,0,0,0,0
1565340152906070000,0,0,0,0,0,-0.196164146
1565340153010840000,0.153577164,0,0,0,0,-0.217864409
1565340153124490000,0.229552194,0,0,0,0,-0.228722572
1565340153233900000,0.40318644,0,0,0,0,0
1565340153342230000,0.479129344,0.066743977,0,0,0,0
1565340153442650000,0.522562027,0.121034801,0,0,0,-0.293839425
1565340153545850000,0.544246197,0.131860837,0,0,0,-0.418628007
1565340153665900000,0.555104375,0.131860837,0,0,0,-0.4783158
1565340153769510000,0.565962553,0.142719001,0,0,0,-0.489173949
1565340153873990000,0.576820731,0.153577164,0,0,0,0
1565340153997760000,0.598504901,0.164435342,0,0,0,0
1565340154102190000,0.609363079,0.164435342,0,0,0,0.234135598
1565340154215100000,0.609363079,0.175293505,0,0,0,0.342652977
1565340154318680000,0.652763605,0.175293505,0,0,0,0
1565340154425830000,0.674479961,0.207835868,0,0,0,0
1565340154529910000,0.717880487,0.229552194,0,0,0,0.185289919
1565340154634270000,0.717880487,0.229552194,0,0,0,0.310094565
1565340154738250000,0.717880487,0.240378231,0,0,0,0
1565340154789940000,0.717880487,0.240378231,0,0,0,0
1565340154910760000,0.739596784,0.240378231,0,0,0,0.152731493
1565340155013930000,0.739596784,0.240378231,0,0,0,0.494586974
1565340155122060000,0.739596784,0.240378231,0,0,0,0.5
1565340155171940000,0.739596784,0.240378231,0,0,0,0.5
1565340155282050000,0.750454962,0.251236409,0,0,0,0.494586974
1565340155389610000,0.750454962,0.251236409,0,0,0,0.494586974
1565340155534480000,0.750454962,0.240378231,0,0,0,0
1565340155644190000,0.750454962,0.251236409,0,0,0,0
1565340155709190000,0.750454962,0.251236409,0,0,0,0
1565340155794090000,0.750454962,0.251236409,0,0,0,0
1565340155847530000,0.750454962,0.251236409,0,0,0,0
1565340155904460000,0.750454962,0.251236409,0,0,0,0
1565340156001700000,0.804713666,0.272952735,0,0,0,0
1565340156051900000,0.804713666,0.272952735,0,0,0,0
1565340156101800000,0.804713666,0.272952735,0,0,0,0
1565340156225680000,0.815571845,0.272952735,0,0,0,0
1565340156330030000,0.815571845,0.283810884,0,0,0,0
1565340156442250000,0.815571845,0.283810884,0,0,0,0
1565340156554090000,0.880688667,0.316353261,0,0,0,0
1565340156694650000,0.934947371,0.338069588,0,0,0,0
1565340156736360000,0.934947371,0.338069588,0,0,0,0
1565340156838200000,0.945773423,0.348927766,0,0,0,0.055072255
1565340156942920000,0.945773423,0.338069588,0,0,0,0.424041033
1565340157046840000,0.945773423,0.348927766,0,0,0,0.5
1565340157150580000,0.945773423,0.348927766,0,0,0,0.5
1565340157289990000,0.956631601,0.348927766,0,0,0,0.5
1565340157402150000,0.956631601,0.348927766,0,0,0,0
1565340157505420000,0.945773423,0.359753788,0,0,0,0
1565340157614030000,0.956631601,0.359753788,0,0,0,0
1565340157718420000,0.956631601,0.359753788,0,0,0,0
1565340157768050000,0.956631601,0.359753788,0,0,0,0
1565340157819850000,0.956631601,0.359753788,0,0,0,0
1565340157896170000,0.956631601,0.359753788,0,0,0,0
1565340157920630000,0.956631601,0.359753788,0,0,0,0
1565340157968810000,0.956631601,0.359753788,0,0,0,0
1565340158018970000,0.956631601,0.359753788,0,0,0,0
1565340158138210000,0.956631601,0.359753788,0,0,0,0.5
1565340158189940000,0.956631601,0.359753788,0,0,0,0.5
1565340158240400000,0.956631601,0.359753788,0,0,0,0.5
1565340158288380000,0.956631601,0.359753788,0,0,0,0.5
1565340158338510000,0.956631601,0.359753788,0,0,0,0.5
1565340158389560000,0.956631601,0.359753788,0,0,0,0.5
1565340158438990000,0.956631601,0.359753788,0,0,0,0.5
1565340158575720000,0.956631601,0.370611966,0,0,0,0.5
1565340158677690000,0.956631601,0.370611966,0,0,0,0.5
1565340158787260000,0.609363079,0.121034801,0,0,0,0
1565340158891140000,0,0,0,0,0,0
1565340158941730000,0,0,0,0,0,0
1565340158991840000,0,0,0,0,0,0
1565340159040690000,0,0,0,0,0,0
1565340159090450000,0,0,0,0,0,0
1565340159140400000,0,0,0,0,0,0
1565340159191360000,0,0,0,0,0,0
1565340159240980000,0,0,0,0,0,0
1565340159292160000,0,0,0,0,0,0
1565340159341650000,0,0,0,0,0,0
1565340159391230000,0,0,0,0,0,0
1565340159510050000,0,1,0,0,0,0
1565340159560600000,0,1,0,0,0,0
1565340159610760000,0,1,0,0,0,0
1565340159714870000,0,1,0,0,0,0
1565340159765280000,0,1,0,0,0,0
1565340159818020000,0,1,0,0,0,0
1565340159882160000,0,1,0,0,0,0
1565340159981950000,0,1,0,0,0,0
1565340160032560000,0,1,0,0,0,0
1565340160083290000,0,1,0,0,0,0
1565340160217920000,0,1,0,0,0,0
1565340160268580000,0,1,0,0,0,0
1565340160320670000,0,1,0,0,0,0
1565340160450800000,0,0,0,0,0,0
1565340160500400000,0,0,0,0,0,0
1565340160638560000,0,-0.435696691,0,0,0,0
1565340160749330000,-0.186087415,-0.934915245,0,0,0,0
1565340160852340000,-0.316321135,-1,0,0,0,0
1565340160962060000,-0.316321135,-1,0,0,0,0
1565340161074880000,-0.316321135,-1,0,0,0,-0.098488852
1565340161178550000,-0.316321135,-1,0,0,0,-0.20159322
1565340161282290000,-0.305462986,-1,0,0,0,-0.277552187
1565340161388290000,-0.316321135,-1,0,0,0,-0.34266904
1565340161490290000,-0.327179313,-0.924057126,0,0,0,-0.34266904
1565340161593960000,0,0,0,0,0,-0.34266904
1565340161706860000,0,0,0,0,0,-0.5
1565340161750810000,0,0,0,0,0,-0.5
1565340161798850000,0,0,0,0,0,-0.5
1565340161854880000,0,0,0,0,0,-0.5
1565340161900730000,0,0,0,0,0,-0.5
1565340161949650000,0,0,0,0,0,-0.5
1565340161999610000,0,0,0,0,0,-0.5
1565340162050430000,0,0,0,0,0,-0.5
1565340162100040000,0,0,0,0,0,-0.5
1565340162149930000,0,0,0,0,0,-0.5
1565340162200030000,0,0,0,0,0,-0.5
1565340162251070000,0,0,0,0,0,-0.5
1565340162300260000,0,0,0,0,0,-0.5
1565340162351170000,0,0,0,0,0,-0.5
1565340162401420000,0,0,0,0,0,-0.5
1565340162451290000,0,0,0,0,0,-0.5
1565340162553810000,0,0,0,0,0,0
1565340162604040000,0,0,0,0,0,0
1565340162653970000,0,0,0,0,0,0
1565340162704890000,0,0,0,0,0,0
1565340162754770000,0,0,0,0,0,0
1565340162804570000,0,0,0,0,0,0
1565340162855460000,0,0,0,0,0,0
1565340162917020000,0,0,0,0,0,0
1565340162955050000,0,0,0,0,0,0
1565340163005670000,0,0,0,0,0,0
1565340163055980000,0,0,0,0,0,0
1565340163113610000,0,0,0,0,0,0
1565340163210610000,-0.90234077,0,0,0,0,0
1565340163314980000,-0.989173949,0,0,0,0,0
1565340163422100000,-0.837223887,0.055917941,0,0,0,0
1565340163472440000,-0.837223887,0.055917941,0,0,0,0
1565340163582660000,-0.782965183,0.099318475,0,0,0,0
1565340163686320000,-0.587646723,0.511703849,0,0,0,0
1565340163795060000,-0.348895639,0.967489779,0,0,0,0
1565340163893940000,-0.359721661,1,0,0,0,0
1565340163997770000,-0.359721661,1,0,0,0,0
1565340164048900000,-0.359721661,1,0,0,0,0
1565340164098620000,-0.359721661,1,0,0,0,0
1565340164201740000,-0.348895639,1,0,0,0,0
1565340164338820000,-0.348895639,1,0,0,0,0
1565340164445510000,-0.359721661,1,0,0,0,0
1565340164496550000,-0.359721661,1,0,0,0,0
1565340164546120000,-0.359721661,1,0,0,0,0
1565340164596400000,-0.359721661,1,0,0,0,0
1565340164715500000,-0.359721661,1,0,0,0,0
1565340164818950000,-0.359721661,1,0,0,0,0
1565340164933710000,-0.359721661,1,0,0,0,0
1565340165047510000,-0.359721661,1,0,0,0,0
1565340165097950000,-0.359721661,1,0,0,0,0
1565340165199990000,-0.348895639,0.880688667,0,0,0,0
1565340165302020000,0,0,0,0,0,0
1565340165353710000,0,0,0,0,0,0
1565340165470200000,0,0,0,0,0,0.293823361
1565340165574140000,0,0,0,0,0,0.451170385
1565340165691200000,0,0,0,0,0,0.5
1565340165735420000,0,0,0,0,0,0.5
1565340165784160000,0,0,0,0,0,0.5
1565340165835810000,0,0,0,0,0,0.5
1565340165882900000,0,0,0,0,0,0.5
1565340165933230000,0,0,0,0,0,0.5
1565340165983570000,0,0,0,0,0,0.5
1565340166034190000,0,0,0,0,0,0.5
1565340166083760000,0,0,0,0,0,0.5
1565340166134630000,0,0,0,0,0,0.5
1565340166185160000,0,0,0,0,0,0.5
1565340166234360000,0,0,0,0,0,0.5
1565340166284540000,0,0,0,0,0,0.5
1565340166334640000,0,0,0,0,0,0.5
1565340166386250000,0,0,0,0,0,0.5
1565340166434830000,0,0,0,0,0,0.5
1565340166485070000,0,0,0,0,0,0.5
1565340166605850000,0,0,0,0,0,0
1565340166655870000,0,0,0,0,0,0
1565340166706170000,0,0,0,0,0,0
1565340166756410000,0,0,0,0,0,0
1565340166806370000,0,0,0,0,0,0
1565340166856760000,0,0,0,0,0,0
1565340166906820000,0,0,0,0,0,0
1565340166979180000,0,0,0,0,0,0
1565340167007240000,0,0,0,0,0,0
1565340167057430000,0,0,0,0,0,0
1565340167107510000,0,0,0,0,0,0
1565340167157550000,0,0,0,0,0,0
1565340167208070000,0,0,0,0,0,0
1565340167258030000,0,0,0,0,0,0
1565340167307980000,0,0,0,0,0,0
1565340167422390000,0,-0.631047308,0,0,0,0
1565340167525890000,0,-1,0,0,0,0
1565340167576320000,0,-1,0,0,0,0
1565340167629300000,0,-1,0,0,0,0
1565340167696860000,0,-1,0,0,0,0
1565340167726980000,0,-1,0,0,0,0
1565340167777840000,0,-1,0,0,0,0
1565340167832910000,0,-1,0,0,0,0
1565340167882800000,0,-1,0,0,0,0
1565340167928160000,0,-1,0,0,0,0
1565340167978460000,0,-1,0,0,0,0
1565340168028810000,0,-1,0,0,0,0
1565340168172560000,0,-1,0,0,0,0
1565340168176290000,0,-1,0,0,0,0
1565340168179000000,0,-1,0,0,0,0
1565340168234170000,0,-1,0,0,0,0
1565340168376070000,0,-1,0,0,0,0
1565340168379770000,0,-1,0,0,0,0
1565340168379850000,0,-1,0,0,0,0
1565340168430420000,0,-1,0,0,0,0
1565340168596640000,0,-1,0,0,0,0
1565340168600290000,0,-0.815539718,0,0,0,0
1565340168803910000,0,-0.728706539,0,0,0,0
1565340168809770000,0,-0.728706539,0,0,0,0
1565340168866790000,0,-0.696164131,0,0,0,0
1565340168994360000,0,-0.685305953,0,0,0,0
1565340169044580000,0,-0.685305953,0,0,0,0
1565340169172320000,0,-0.696164131,0,0,0,0
1565340169367800000,0,-0.707022309,0,0,0,0
1565340169390300000,0,-0.707022309,0,0,0,0
1565340169563070000,0,-0.696164131,0,0,0,0
1565340169599730000,0,-0.728706539,0,0,0,0
1565340169757430000,0,-0.772107065,0,0,0,0
1565340169771920000,0,-0.772107065,0,0,0,0
1565340169974200000,0,-0.869798422,0,0,0,0
1565340170018680000,0,-0.924057126,0,0,0,0
1565340170156510000,0,-0.924057126,0,0,0,0
1565340170165940000,0,-0.924057126,0,0,0,0
1565340170255270000,0,-0.924057126,0,0,0,0
1565340170443180000,0,-0.924057126,0,0,0,0
1565340170474260000,0,-0.913198948,0,0,0,0
1565340170638310000,0,-0.924057126,0,0,0,0
1565340170702260000,0,-0.924057126,0,0,0,0
1565340170832950000,0,-0.924057126,0,0,0,0
1565340170837280000,0,-0.924057126,0,0,0,0
1565340170856230000,0,-0.924057126,0,0,0,0
1565340171028430000,0,0,0,0,0,0
1565340171034560000,0,0,0,0,0,0
1565340171062410000,0,0,0,0,0,0
1565340171112930000,0,0,0,0,0,0
1565340171222960000,0,0,0,0,0,0
1565340171225440000,0,0,0,0,0,0
1565340171262980000,0,0,0,0,0,0
1565340171418710000,0,0,0,0,0,-0.022529889
1565340171494060000,0,0,0,0,0,-0.082217671
1565340171613220000,0,0,0,0,0,-0.207022309
1565340171809730000,0,0,0,0,0,-0.207022309
1565340171853580000,0,0,0,0,0,-0.34266904
1565340172004540000,0,0,0,0,0,-0.391498655
1565340172011050000,0,0,0,0,0,-0.391498655
1565340172292580000,0,0,0,0,0,-0.396927744
1565340172300160000,0,0,0,0,0,-0.396927744
1565340172300340000,0,0,0,0,0,-0.396927744
1565340172338800000,0,0,0,0,0,-0.418628007
1565340172486260000,0,0,0,0,0,-0.4783158
1565340172567480000,0,0,0,0,0,-0.489173949
1565340172681300000,0,0,0,0,0,-0.489173949
1565340172729650000,0,0,0,0,0,-0.5
1565340172780250000,0,0,0,0,0,-0.5
1565340172830340000,0,0,0,0,0,-0.5
1565340172950030000,0,0,0,0,0,0
1565340173001010000,0,0,0,0,0,0
1565340173052540000,0,0,0,0,0,0
1565340173101190000,0,0,0,0,0,0
1565340173150820000,0,0,0,0,0,0
1565340173201680000,0,0,0,0,0,0
1565340173323480000,0,0.305495113,0,0,0,0
1565340173462510000,0,0.316353261,0,0,0,0
1565340173576140000,0,0.544246197,0,0,0,0
1565340173686160000,0,0.641937554,0,0,0,0
1565340173790660000,0,0.869830549,0,0,0,0
1565340173898330000,0,0.880688667,0,0,0,0
1565340173949220000,0,0.880688667,0,0,0,0
1565340174000080000,0,0.880688667,0,0,0,0
1565340174050060000,0,0.880688667,0,0,0,0
1565340174099320000,0,0.880688667,0,0,0,0
1565340174206340000,0,0.869830549,0,0,0,0
1565340174355280000,0,0.880688667,0,0,0,0
1565340174485830000,0,0.880688667,0,0,0,0
1565340174536590000,0,0.880688667,0,0,0,0
1565340174646050000,0,0.880688667,0,0,0,0
1565340174746390000,0,0.880688667,0,0,0,0
1565340174796110000,0,0.880688667,0,0,0,0
1565340174846420000,0,0.880688667,0,0,0,0
1565340174896780000,0,0.880688667,0,0,0,0
1565340174947380000,0,0.880688667,0,0,0,0
1565340174997350000,0,0.880688667,0,0,0,0
1565340175047790000,0,0.880688667,0,0,0,0
1565340175097870000,0,0.880688667,0,0,0,0
1565340175148070000,0,0.880688667,0,0,0,0
1565340175282130000,0,0.880688667,0,0,0,0
1565340175332330000,0,0.880688667,0,0,0,0
1565340175383220000,0,0.880688667,0,0,0,0
1565340175432810000,0,0.880688667,0,0,0,0
1565340175484320000,0,0.880688667,0,0,0,0
1565340175534970000,0,0.880688667,0,0,0,0
1565340175583660000,0,0.880688667,0,0,0,0
1565340175702720000,0,0.880688667,0,0,0,0
1565340175752790000,0,0.880688667,0,0,0,0
1565340175812170000,0,0.880688667,0,0,0,0
1565340175860200000,0,0.880688667,0,0,0,0
1565340175903490000,0,0.880688667,0,0,0,0
1565340175953340000,0,0.880688667,0,0,0,0
1565340176003520000,0,0.880688667,0,0,0,0
1565340176106140000,0,0.880688667,0,0,0,0
1565340176214330000,0,0,0,0,0,0
1565340176264420000,0,0,0,0,0,0
1565340176314520000,0,0,0,0,0,0
1565340176364590000,0,0,0,0,0,0
1565340176414960000,0,0,0,0,0,0
1565340176465400000,0,0,0,0,0,0
1565340176515540000,0,0,0,0,0,0
1565340176566140000,0,0,0,0,0,0
1565340176616330000,0,0,0,0,0,0
1565340176666150000,0,0,0,0,0,0
1565340176720420000,0,0,0,0,0,0
1565340176838450000,0,0,0,0,0,0.163589656
1565340176946490000,0,0,0,0,0,0.255835861
1565340177058160000,0,0,0,0,0,0.331794828
1565340177172600000,0,0,0,0,0,0.396911681
1565340177275280000,0,0,0,0,0,0.429470122
1565340177378750000,0,0,0,0,0,0.478299737
1565340177482180000,0,0,0,0,0,0.5
1565340177532290000,0,0,0,0,0,0.5
1565340177584100000,0,0,0,0,0,0.5
1565340177641460000,0,0,0,0,0,0.5
1565340177703760000,0,0,0,0,0,0.5
1565340177733300000,0,0,0,0,0,0.5
1565340177784110000,0,0,0,0,0,0.5
1565340177843010000,0,0,0,0,0,0.5
1565340177890120000,0,0,0,0,0,0.5
1565340177933770000,0,0,0,0,0,0.5
1565340178058540000,0,0,0,0,0,0
1565340178191420000,0,-0.251204282,0,0,0,0
1565340178294360000,0,-0.446554869,0,0,0,0
1565340178402940000,0,-0.685305953,0,0,0,0
1565340178546080000,0,-0.761281013,0,0,0,0
1565340178662540000,0,-0.934915245,0,0,0,0
1565340178767030000,0,-1,0,0,0,0
1565340178820340000,0,-1,0,0,0,0
1565340178866170000,0,-1,0,0,0,0
1565340178917800000,0,-1,0,0,0,0
1565340178966990000,0,-1,0,0,0,0
1565340179017470000,0,-1,0,0,0,0
1565340179067830000,0,-1,0,0,0,0
1565340179119160000,0,-1,0,0,0,0
1565340179168990000,0,-1,0,0,0,0
1565340179219190000,0,-1,0,0,0,0
1565340179362780000,0,-1,0,0,0,-0.158176631
1565340179470650000,0,-1,0,0,0,-0.277552187
1565340179575040000,0,-1,0,0,0,-0.472886711
1565340179682230000,0,-1,0,0,0,-0.5
1565340179786850000,0,-0.978315771,0,0,0,-0.011671724
1565340179890860000,0,-0.967457652,0,0,0,0
1565340179998100000,0,-0.956599474,0,0,0,0
1565340180142800000,0,-0.956599474,0,0,0,-0.353527218
1565340180193090000,0,-0.956599474,0,0,0,-0.353527218
1565340180315290000,0,-0.956599474,0,0,0,-0.076788582
1565340180418380000,0,-0.945741296,0,0,0,-0.011671724
1565340180468740000,0,-0.945741296,0,0,0,-0.011671724
1565340180600920000,0,-0.869798422,0,0,0,0
1565340180710710000,0,-0.848082066,0,0,0,0
1565340180838800000,0,-0.848082066,0,0,0,-0.472886711
1565340180942470000,0,-0.761281013,0,0,0,-0.456615537
1565340181046440000,0,0,0,0,0,0
1565340181097230000,0,0,0,0,0,0
1565340181147170000,0,0,0,0,0,0
1565340181196960000,0,0,0,0,0,0
1565340181247860000,0,0,0,0,0,0
1565340181378770000,0,0,0,0,0,-0.5
1565340181429540000,0,0,0,0,0,-0.5
1565340181479480000,0,0,0,0,0,-0.5
1565340181529210000,0,0,0,0,0,-0.5
1565340181579400000,0,0,0,0,0,-0.5
1565340181644750000,0,0,0,0,0,-0.5
1565340181693970000,0,0,0,0,0,-0.5
1565340181731710000,0,0,0,0,0,-0.5
1565340181780250000,0,0,0,0,0,-0.5
1565340181833470000,0,0,0,0,0,-0.5
1565340181883960000,0,0,0,0,0,-0.5
1565340181931810000,0,0,0,0,0,-0.5
1565340181982830000,0,0,0,0,0,-0.5
1565340182034060000,0,0,0,0,0,-0.5
1565340182081020000,0,0,0,0,0,-0.5
1565340182132220000,0,0,0,0,0,-0.5
1565340182181780000,0,0,0,0,0,-0.5
1565340182231370000,0,0,0,0,0,-0.5
1565340182343080000,0,0,0,0,0,0
1565340182392680000,0,0,0,0,0,0
1565340182444120000,0,0,0,0,0,0
1565340182493920000,0,0,0,0,0,0
1565340182558680000,0,0,0,0,0,0
1565340182608040000,0,0,0,0,0,0
1565340182653770000,0,0,0,0,0,0
1565340182694280000,0,0,0,0,0,0
1565340182743850000,0,0,0,0,0,0
1565340182794690000,0,0,0,0,0,0
1565340182844940000,0,0,0,0,0,0
1565340182895110000,0,0,0,0,0,0
1565340182946990000,0,0,0,0,0,0
1565340183058310000,0,0,0,0,0,-0.5
1565340183108940000,0,0,0,0,0,-0.5
1565340183159230000,0,0,0,0,0,-0.5
1565340183210120000,0,0,0,0,0,-0.5
1565340183261610000,0,0,0,0,0,-0.5
1565340183309700000,0,0,0,0,0,-0.5
1565340183359900000,0,0,0,0,0,-0.5
1565340183410330000,0,0,0,0,0,-0.5
1565340183460140000,0,0,0,0,0,-0.5
1565340183511660000,0,0,0,0,0,-0.5
1565340183561660000,0,0,0,0,0,-0.5
1565340183610910000,0,0,0,0,0,-0.5
1565340183660810000,0,0,0,0,0,-0.5
1565340183770600000,0,0,0,0,0,0
1565340183830040000,0,0,0,0,0,0
1565340183883800000,0,0,0,0,0,0
1565340183921370000,0,0,0,0,0,0
1565340183971070000,0,0,0,0,0,0
1565340184021380000,0,0,0,0,0,0
1565340184073930000,0,0,0,0,0,0
1565340184124930000,0,0,0,0,0,0
1565340184172480000,0,0,0,0,0,0
1565340184222110000,0,0,0,0,0,0
1565340184272500000,0,0,0,0,0,0
1565340184322640000,0,0,0,0,0,0
1565340184372710000,0,0,0,0,0,0
1565340184423200000,0,0,0,0,0,0
1565340184473330000,0,0,0,0,0,0
1565340184523280000,0,0,0,0,0,0
1565340184573430000,0,0,0,0,0,0
1565340184623620000,0,0,0,0,0,0
1565340184673810000,0,0,0,0,0,0
1565340184723800000,0,0,0,0,0,0
1565340184773930000,0,0,0,0,0,0
1565340184824240000,0,0,0,0,0,0
1565340184874490000,0,0,0,0,0,0
1565340185018910000,0,0,0,0,0,0
1565340185073920000,0,0,0,0,0,0
1565340185120340000,0,0,0,0,0,0
1565340185172300000,0,0,0,0,0,0
1565340185219890000,0,0,0,0,0,0
1565340185269470000,0,0,0,0,0,0
1565340185320310000,0,0,0,0,0,0
1565340185426790000,-0.099286348,1,0,0,0,0
1565340185476700000,-0.099286348,1,0,0,0,0
1565340185526840000,-0.099286348,1,0,0,0,0
1565340185578360000,-0.099286348,1,0,0,0,0
1565340185627400000,-0.099286348,1,0,0,0,0
1565340185677640000,-0.099286348,1,0,0,0,0
1565340185841590000,-0.077570021,1,0,0,0,0
1565340185926300000,0,1,0,0,0,0
1565340186031080000,0,0,0,0,0,0
1565340186157390000,0.055917941,-1,0,0,0,0
1565340186252230000,0.012485282,-1,0,0,0,0
1565340186362180000,0.001659243,-1,0,0,0,0
1565340186412490000,0.001659243,-1,0,0,0,0
1565340186531400000,0.001659243,-1,0,0,0,0
1565340186622310000,0,-1,0,0,0,0
1565340186754650000,0.001659243,-1,0,0,0,0
1565340186805600000,0.001659243,-1,0,0,0,0
1565340186855600000,0.001659243,-1,0,0,0,0
1565340186959010000,0.001659243,-1,0,0,0,0
1565340187009120000,0.001659243,-1,0,0,0,0
1565340187058590000,0.001659243,-1,0,0,0,0
1565340187109380000,0.001659243,-1,0,0,0,0
1565340187159210000,0.001659243,-1,0,0,0,0
1565340187209650000,0.001659243,-1,0,0,0,0
1565340187357120000,0.001659243,-1,0,0,0,0
1565340187406200000,0.001659243,-1,0,0,0,0
1565340187457240000,0.001659243,-1,0,0,0,0
1565340187505150000,0.001659243,-1,0,0,0,0
1565340187554790000,0.001659243,-1,0,0,0,0
1565340187613840000,0.001659243,-1,0,0,0,0
1565340187657560000,0.001659243,-1,0,0,0,0
1565340187705600000,0.001659243,-1,0,0,0,0
1565340187755900000,0.001659243,-1,0,0,0,0
1565340187809350000,0.001659243,-1,0,0,0,0
1565340187883560000,0.001659243,-1,0,0,0,0
1565340187906470000,0.001659243,-1,0,0,0,0
1565340187970910000,0.001659243,-1,0,0,0,0
1565340188006980000,0.001659243,-1,0,0,0,0
1565340188057020000,0.001659243,-1,0,0,0,0
1565340188106750000,0.001659243,-1,0,0,0,0
1565340188156890000,0.001659243,-1,0,0,0,0
1565340188207350000,0.001659243,-1,0,0,0,0
1565340188354340000,0.001659243,-1,0,0,0,0
1565340188420640000,0.001659243,-1,0,0,0,0
1565340188459270000,0.001659243,-1,0,0,0,0
1565340188505140000,0.001659243,-1,0,0,0,0
1565340188555350000,0.001659243,-1,0,0,0,0
1565340188605740000,0.001659243,-1,0,0,0,0
1565340188738450000,0,0,0,0,0,0
1565340188789110000,0,0,0,0,0,0
1565340188839090000,0,0,0,0,0,0
1565340188889090000,0,0,0,0,0,0
1565340188940880000,0,0,0,0,0,0
1565340188993320000,0,0,0,0,0,0
1565340189040240000,0,0,0,0,0,0
1565340189090870000,0,0,0,0,0,0
1565340189140050000,0,0,0,0,0,0
1565340189190280000,0,0,0,0,0,0
1565340189241160000,0,0,0,0,0,0
1565340189290840000,0,0,0,0,0,0
1565340189340900000,0,0,0,0,0,0
1565340189391670000,0,0,0,0,0,0
1565340189442040000,0,0,0,0,0,0
1565340189491460000,0,0,0,0,0,0
1565340189602860000,0,-0.272920609,0,0,0,0
1565340189711640000,0,-1,0,0,0,0
1565340189827550000,0,-1,0,0,0,0
1565340189920260000,0,-1,0,0,0,0
1565340189968880000,0,-1,0,0,0,0
1565340190019490000,0,-1,0,0,0,0
1565340190078850000,0,-1,0,0,0,0
1565340190121130000,0,-1,0,0,0,0
1565340190169530000,0,-1,0,0,0,0
1565340190220950000,0,-1,0,0,0,0
1565340190271740000,0,-1,0,0,0,0
1565340190325360000,0,-1,0,0,0,0
1565340190369880000,0,-1,0,0,0,0
1565340190422070000,0,-1,0,0,0,0
1565340190470620000,0,-1,0,0,0,0
1565340190579100000,0,-1,0,0,0,0.375211418
1565340190686980000,0,-1,0,0,0,0
1565340190733290000,0,-1,0,0,0,0
1565340190783420000,0,-1,0,0,0,0
1565340190886370000,0.001659243,-1,0,0,0,0.239548609
1565340190991820000,0.001659243,-1,0,0,0,0.098472789
1565340191094420000,0.001659243,-1,0,0,0,0
1565340191198900000,0.001659243,-1,0,0,0,0.152731493
1565340191302510000,0.001659243,-1,0,0,0,0
1565340191352550000,0.001659243,-1,0,0,0,0
1565340191471100000,0,0,0,0,0,0.5
1565340191615550000,0,0,0,0,0,0
1565340191665070000,0,0,0,0,0,0
1565340191715740000,0,0,0,0,0,0
1565340191766440000,0,0,0,0,0,0
1565340191816860000,0,0,0,0,0,0
1565340191865250000,0,0,0,0,0,0
1565340191916210000,0,0,0,0,0,0
1565340191965900000,0,0,0,0,0,0
1565340192016160000,0,0,0,0,0,0
1565340192066100000,0,0,0,0,0,0
1565340192120760000,0,0,0,0,0,0
1565340192166780000,0,0,0,0,0,0
1565340192216530000,0,0,0,0,0,0
1565340192267990000,0,0,0,0,0,0
1565340192320700000,0,0,0,0,0,0
1565340192374450000,0,0,0,0,0,0
1565340192417100000,0,0,0,0,0,0
1565340192472710000,0,0,0,0,0,0
1565340192519300000,0,0,0,0,0,0
1565340192567730000,0,0,0,0,0,0
1565340192618320000,0,0,0,0,0,0
1565340192668300000,0,0,0,0,0,0
1565340192718960000,0,0,0,0,0,0
1565340192768910000,0,0,0,0,0,0
1565340192819650000,0,0,0,0,0,0
1565340192869400000,0,0,0,0,0,0
1565340192920330000,0,0,0,0,0,0
1565340192969980000,0,0,0,0,0,0
1565340193020220000,0,0,0,0,0,0
1565340193127270000,0,-0.175261378,0,0,0,0
1565340193243240000,0,0,0,0,0,0
1565340193292720000,0,0,0,0,0,0
1565340193342750000,0,0,0,0,0,0
1565340193394430000,0,0,0,0,0,0
1565340193444560000,0,0,0,0,0,0
1565340193496890000,0,0,0,0,0,0
1565340193545950000,0,0,0,0,0,0
1565340193599030000,0,0,0,0,0,0
1565340193703220000,0,-0.479097217,0,0,0,0
1565340193811030000,0,0,0,0,0,0
1565340193860330000,0,0,0,0,0,0
1565340193974900000,0,0,0,0,0,-0.239564672
1565340194122750000,0,0,0,0,0,-0.326381803
1565340194227720000,0,0,0,0,0,-0.396927744
1565340194277240000,0,0,0,0,0,-0.396927744
1565340194327280000,0,0,0,0,0,-0.396927744
1565340194377490000,0,0,0,0,0,-0.396927744
1565340194478930000,0,0,0,0,0,-0.391498655
1565340194623850000,0,0,0,0,0,-0.456615537
1565340194726050000,0,0,0,0,0,-0.494603038
1565340194843650000,0,0,0,0,0,-0.5
1565340194892870000,0,0,0,0,0,-0.5
1565340194943170000,0,0,0,0,0,-0.5
1565340194993620000,0,0,0,0,0,-0.5
1565340195043360000,0,0,0,0,0,-0.5
1565340195093360000,0,0,0,0,0,-0.5
1565340195239030000,0,-0.121002674,0,0,0,-0.5
1565340195289220000,0,-0.121002674,0,0,0,-0.5
1565340195340130000,0,-0.121002674,0,0,0,-0.5
1565340195389460000,0,-0.121002674,0,0,0,-0.5
1565340195442490000,0,-0.121002674,0,0,0,-0.5
1565340195490810000,0,-0.121002674,0,0,0,-0.5
1565340195618500000,0,-0.142686889,0,0,0,-0.5
1565340195754740000,0,0,0,0,0,-0.5
1565340195806740000,0,0,0,0,0,-0.5
1565340195866600000,0,0,0,0,0,-0.5
1565340195905280000,0,0,0,0,0,-0.5
1565340195956010000,0,0,0,0,0,-0.5
1565340196005840000,0,0,0,0,0,-0.5
1565340196057580000,0,0,0,0,0,-0.5
1565340196105740000,0,0,0,0,0,-0.5
1565340196158240000,0,0,0,0,0,-0.5
1565340196294690000,0,0,0,0,0,0
1565340196345290000,0,0,0,0,0,0
1565340196396370000,0,0,0,0,0,0
1565340196445660000,0,0,0,0,0,0
1565340196575580000,0,0.229552194,0,0,0,0
1565340196706920000,0,0.435728818,0,0,0,0
1565340196783680000,0,0.728738666,0,0,0,0
1565340196890900000,0,0.826397896,0,0,0,0
1565340196994510000,0,0.837256014,0,0,0,0
1565340197045110000,0,0.837256014,0,0,0,0
1565340197095000000,0,0.837256014,0,0,0,0
1565340197144990000,0,0.837256014,0,0,0,0
1565340197274550000,0,0,0,0,0,0
1565340197324940000,0,0,0,0,0,0
1565340197375280000,0,0,0,0,0,0
1565340197520760000,0,-0.739564657,0,0,0,0
1565340197623060000,0,-1,0,0,0,0
1565340197707550000,0,-1,0,0,0,0
1565340197723650000,0,-1,0,0,0,0
1565340197773470000,0,-1,0,0,0,0
1565340197918920000,0,-0.848082066,0,0,0,0
1565340198023220000,0,-0.446554869,0,0,0,0
1565340198134730000,0,-0.446554869,0,0,0,0
1565340198253540000,0,-0.565930426,0,0,0,0
1565340198355610000,0,0,0,0,0,0
1565340198409530000,0,0,0,0,0,0
1565340198454860000,0,0,0,0,0,0
1565340198505250000,0,0,0,0,0,0
1565340198607010000,0,-0.327179313,0,0,0,0
1565340198717640000,0,-0.457413018,0,0,0,0
1565340198823070000,0,-0.565930426,0,0,0,0
1565340198931100000,0,-0.674447834,0,0,0,0
1565340199043190000,0,-0.674447834,0,0,0,0
1565340199092600000,0,-0.674447834,0,0,0,0
1565340199198710000,0,-0.772107065,0,0,0,0
1565340199252710000,0,-0.772107065,0,0,0,0
1565340199303790000,0,-0.772107065,0,0,0,0
1565340199349410000,0,-0.772107065,0,0,0,0
1565340199399810000,0,-0.772107065,0,0,0,0
1565340199450680000,0,-0.772107065,0,0,0,0
1565340199499970000,0,-0.772107065,0,0,0,0
1565340199550360000,0,-0.772107065,0,0,0,0
1565340199601720000,0,-0.772107065,0,0,0,0
1565340199707220000,0,-0.750422835,0,0,0,0
1565340199818690000,0,-0.772107065,0,0,0,0
1565340199865130000,0,-0.772107065,0,0,0,0
1565340199979180000,0,-0.772107065,0,0,0,0
1565340200119120000,0,-0.772107065,0,0,0,0
1565340200168820000,0,-0.772107065,0,0,0,0
1565340200282940000,0,-0.772107065,0,0,0,0
1565340200399280000,0,0,0,0,0,0
1565340200514590000,0,0,0,0,0,0.217848346
1565340200615430000,0,0,0,0,0,0.467457622
1565340200720870000,0,0,0,0,0,0.5
1565340200769540000,0,0,0,0,0,0.5
1565340200820230000,0,0,0,0,0,0.5
1565340200869720000,0,0,0,0,0,0.5
1565340200920060000,0,0,0,0,0,0.5
1565340200970850000,0,0,0,0,0,0.5
1565340201020090000,0,0,0,0,0,0.5
1565340201072990000,0,0,0,0,0,0.5
1565340201121560000,0,0,0,0,0,0.5
1565340201181350000,0,0,0,0,0,0.5
1565340201221260000,0,0,0,0,0,0.5
1565340201272600000,0,0,0,0,0,0.5
1565340201323820000,0,0,0,0,0,0.5
1565340201370830000,0,0,0,0,0,0.5
1565340201421080000,0,0,0,0,0,0.5
1565340201471250000,0,0,0,0,0,0.5
1565340201521340000,0,0,0,0,0,0.5
1565340201571260000,0,0,0,0,0,0.5
1565340201725370000,0,0,0,0,0,0
1565340201752270000,0,0,0,0,0,0
1565340201784530000,0,0,0,0,0,0
1565340201854400000,0,0,0,0,0,0
1565340201883280000,0,0,0,0,0,0
1565340201933270000,0,0,0,0,0,0
1565340201985180000,0,0,0,0,0,0
1565340202033810000,0,0,0,0,0,0
1565340202083660000,0,0,0,0,0,0
1565340202133710000,0,0,0,0,0,0
1565340202255270000,0,0,0,0,0,0.158160567
1565340202339520000,0,0,0,0,0,0.413182884
1565340202443170000,0,0,0,0,0,0.5
1565340202546720000,0,0,0,0,0,0.5
1565340202655840000,0,0,0,0,0,0.5
1565340202762960000,0,0,0,0,0,0.5
1565340202878830000,0,0,0,0,0,0.5
1565340202994390000,0,0,0,0,0,0.5
1565340203110970000,0,0,0,0,0,0.5
1565340203223680000,0,0,0,0,0,0.5
1565340203362980000,0,0,0,0,0,0.434899211
1565340203466930000,0,0,0,0,0,0
1565340203517010000,0,0,0,0,0,0
1565340203567780000,0,0,0,0,0,0
1565340203617840000,0,0,0,0,0,0
1565340203751670000,0,0,0,0,0,0.348082066
1565340203865540000,0,0,0,0,0,0.5
1565340203905780000,0,0,0,0,0,0.5
1565340203955400000,0,0,0,0,0,0.5
1565340204005960000,0,0,0,0,0,0.5
1565340204056430000,0,0,0,0,0,0.5
1565340204105980000,0,0,0,0,0,0.5
1565340204155870000,0,0,0,0,0,0.5
1565340204206420000,0,0,0,0,0,0.5
1565340204256360000,0,0,0,0,0,0.5
1565340204306590000,0,0,0,0,0,0.5
1565340204357500000,0,0,0,0,0,0.5
1565340204407130000,0,0,0,0,0,0.5
1565340204457780000,0,0,0,0,0,0.5
1565340204507320000,0,0,0,0,0,0.5
1565340204557660000,0,0,0,0,0,0.5
1565340204695080000,0,0,0,0,0,0
1565340204745530000,0,0,0,0,0,0
1565340204795390000,0,0,0,0,0,0
1565340204845690000,0,0,0,0,0,0
1565340204991270000,0,0,0,0,0,0.386053532
1565340205095210000,0,0,0,0,0,0.5
1565340205145420000,0,0,0,0,0,0.5
1565340205195110000,0,0,0,0,0,0.5
1565340205245960000,0,0,0,0,0,0.5
1565340205295810000,0,0,0,0,0,0.5
1565340205369670000,0,0,0,0,0,0.5
1565340205396450000,0,0,0,0,0,0.5
1565340205519430000,0,0,0,0,0,0
1565340205571270000,0,0,0,0,0,0
1565340205621730000,0,0,0,0,0,0
1565340205680180000,0,0,0,0,0,0
1565340205720150000,0,0,0,0,0,0
1565340205770040000,0,0,0,0,0,0
1565340205832370000,0,0,0,0,0,0
1565340205884420000,0,0,0,0,0,0
1565340205922540000,0,0,0,0,0,0
1565340205970610000,0,0,0,0,0,0
1565340206021370000,0,0,0,0,0,0
1565340206071160000,0,0,0,0,0,0
1565340206121050000,0,0,0,0,0,0
1565340206271210000,-0.381437987,0,0,0,0,0
1565340206375840000,-0.587646723,0,0,0,0,0
1565340206482820000,-0.598472774,0,0,0,0,0
1565340206598650000,-0.587646723,0,0,0,0,0
1565340206661420000,-0.587646723,0,0,0,0,0
1565340206712440000,-0.587646723,0,0,0,0,0
1565340206749680000,-0.587646723,0,0,0,0,0
1565340206799930000,-0.587646723,0,0,0,0,0
1565340206850800000,-0.587646723,0,0,0,0,0
1565340206975420000,0,0,0,0,0,0
1565340207079450000,0,0,0,0,0,0
1565340207137010000,0,0,0,0,0,0
1565340207179290000,0,0,0,0,0,0
1565340207229780000,0,0,0,0,0,0
1565340207280310000,0,0,0,0,0,0
1565340207407400000,0,-0.479097217,0,0,0,0
1565340207511410000,0,-1,0,0,0,0
1565340207561210000,0,-1,0,0,0,0
1565340207611560000,0,-1,0,0,0,0
1565340207661920000,0,-1,0,0,0,0
1565340207728880000,0,-1,0,0,0,0
1565340207762100000,0,-1,0,0,0,0
1565340207825320000,0,-1,0,0,0,0
1565340207874380000,0,-1,0,0,0,0
1565340207914300000,0,-1,0,0,0,0
1565340207963100000,0,-1,0,0,0,0
1565340208013160000,0,-1,0,0,0,0
1565340208131390000,0,0,0,0,0,0
1565340208181850000,0,0,0,0,0,0
1565340208232230000,0,0,0,0,0,0
1565340208282370000,0,0,0,0,0,0
1565340208333640000,0,0,0,0,0,0
1565340208382110000,0,0,0,0,0,0
1565340208432090000,0,0,0,0,0,0
1565340208482440000,0,0,0,0,0,0
1565340208532440000,0,0,0,0,0,0
1565340208583660000,0,0,0,0,0,0
1565340208707530000,-0.077570021,0,0,0,0,0
1565340208811410000,-0.294636935,0,0,0,0,0
1565340208914950000,-0.294636935,0,0,0,0,0
1565340209019150000,-0.283778757,0,0,0,0,0
1565340209069370000,-0.283778757,0,0,0,0,0
1565340209183180000,-0.555072248,-0.012453158,0,0,0,0
1565340209287010000,-0.641905427,-0.099286348,0,0,0,0
1565340209337790000,-0.641905427,-0.099286348,0,0,0,0
1565340209448310000,-0.652731478,-0.099286348,0,0,0,0
1565340209556130000,-0.663589656,-0.077570021,0,0,0,0
1565340209667170000,-0.652731478,-0.034169488,0,0,0,0
1565340209771090000,-0.674447834,-0.034169488,0,0,0,0
1565340209899740000,-0.685305953,-0.034169488,0,0,0,0
1565340210003560000,-0.587646723,-0.012453158,0,0,0,0
1565340210111560000,-0.370579839,0,0,0,0,0
1565340210231670000,-0.403154343,-0.055885814,0,0,0,0
1565340210335020000,-0.403154343,-0.055885814,0,0,0,0
1565340210386380000,-0.403154343,-0.055885814,0,0,0,0
1565340210487230000,-0.598472774,-0.088428184,0,0,0,0
1565340210595440000,-0.750422835,-0.088428184,0,0,0,0
1565340210699610000,-0.739564657,-0.088428184,0,0,0,0
1565340210807540000,-0.728706539,-0.088428184,0,0,0,0
1565340210954840000,-0.739564657,-0.088428184,0,0,0,0
1565340211005350000,-0.739564657,-0.088428184,0,0,0,0
1565340211120150000,-0.696164131,-0.164403215,0,0,0,0
1565340211231200000,-0.696164131,-0.229520068,0,0,0,0
1565340211335110000,-0.696164131,-0.294636935,0,0,0,0
1565340211443090000,-0.696164131,-0.305462986,0,0,0,0
1565340211556630000,-0.707022309,-0.305462986,0,0,0,0
1565340211605080000,-0.707022309,-0.305462986,0,0,0,0
1565340211655710000,-0.707022309,-0.305462986,0,0,0,0
1565340211791720000,-0.707022309,-0.294636935,0,0,0,0
1565340211894700000,-0.707022309,-0.305462986,0,0,0,0
1565340211945280000,-0.707022309,-0.305462986,0,0,0,0
1565340211995010000,-0.707022309,-0.305462986,0,0,0,0
1565340212045780000,-0.707022309,-0.305462986,0,0,0,0
1565340212159160000,-0.707022309,-0.305462986,0,0,0,0
1565340212209230000,-0.707022309,-0.305462986,0,0,0,0
1565340212281060000,-0.707022309,-0.305462986,0,0,0,0
1565340212309840000,-0.707022309,-0.305462986,0,0,0,0
1565340212419230000,-0.707022309,-0.305462986,0,0,0,0
1565340212468970000,-0.707022309,-0.305462986,0,0,0,0
1565340212521520000,-0.707022309,-0.305462986,0,0,0,0
1565340212569430000,-0.707022309,-0.305462986,0,0,0,0
1565340212619630000,-0.707022309,-0.305462986,0,0,0,0
1565340212669850000,-0.707022309,-0.305462986,0,0,0,0
1565340212779650000,-0.717848361,-0.294636935,0,0,0,0
1565340212898880000,-0.717848361,-0.294636935,0,0,0,0
1565340213023270000,-0.739564657,-0.294636935,0,0,0,0
1565340213167820000,-0.761281013,-0.26206243,0,0,0,0
1565340213217510000,-0.761281013,-0.26206243,0,0,0,0
1565340213267860000,-0.761281013,-0.26206243,0,0,0,0
1565340213319500000,-0.761281013,-0.26206243,0,0,0,0
1565340213367950000,-0.761281013,-0.26206243,0,0,0,0
1565340213516000000,-0.750422835,-0.294636935,0,0,0,0
1565340213663040000,-0.750422835,-0.283778757,0,0,0,0
1565340213713220000,-0.750422835,-0.283778757,0,0,0,0
1565340213844290000,-0.782965183,-0.283778757,0,0,0,0
1565340213977480000,-0.837223887,-0.294636935,0,0,0,0
1565340214078910000,-0.891482592,-0.294636935,0,0,0,0
1565340214198730000,-0.913198948,-0.294636935,0,0,0,0
1565340214323310000,-0.90234077,-0.294636935,0,0,0,0
1565340214438860000,-0.945741296,-0.305462986,0,0,0,0
1565340214559110000,-1,-0.370579839,0,0,0,0
1565340214609310000,-1,-0.370579839,0,0,0,0
1565340214659490000,-1,-0.370579839,0,0,0,0
1565340214804410000,0,0,0,0,0,0
1565340214854820000,0,0,0,0,0,0
1565340214904040000,0,0,0,0,0,0
1565340214955080000,0,0,0,0,0,0
1565340215004560000,0,0,0,0,0,0
1565340215054900000,0,0,0,0,0,0
1565340215104830000,0,0,0,0,0,0
1565340215155770000,0,0,0,0,0,0
1565340215206400000,0,0,0,0,0,0
1565340215255210000,0,0,0,0,0,0
1565340215305670000,0,0,0,0,0,0
1565340215356270000,0,0,0,0,0,0
1565340215408320000,0,0,0,0,0,0
1565340215456270000,0,0,0,0,0,0
1565340215506390000,0,0,0,0,0,0
1565340215556490000,0,0,0,0,0,0
1565340215608200000,0,0,0,0,0,0
1565340215753600000,0,0.489987522,0,0,0,0
1565340215844910000,0,0.739596784,0,0,0,0
1565340215947360000,0,0.891514719,0,0,0,0
1565340216051880000,0,0.978347898,0,0,0,0
1565340216101810000,0,0.978347898,0,0,0,0
1565340216151860000,0,0.978347898,0,0,0,0
1565340216202010000,0,0.978347898,0,0,0,0
1565340216252390000,0,0.978347898,0,0,0,0
1565340216302090000,0,0.978347898,0,0,0,0
1565340216352470000,0,0.978347898,0,0,0,0
1565340216402560000,0,0.978347898,0,0,0,0
1565340216453920000,0,0.978347898,0,0,0,0
1565340216503160000,0,0.978347898,0,0,0,0
1565340216552980000,0,0.978347898,0,0,0,0
1565340216605240000,0,0.978347898,0,0,0,0
1565340216652980000,0,0.978347898,0,0,0,0
1565340216791490000,0,0.967489779,0,0,0,0
1565340216842810000,0,0.967489779,0,0,0,0
1565340216944660000,0,0.967489779,0,0,0,0
1565340217047360000,0,0.945773423,0,0,0,0
1565340217155070000,0,0.891514719,0,0,0,0
1565340217267940000,0,0.652763605,0,0,0,0
1565340217371140000,0,0,0,0,0,0
1565340217421250000,0,0,0,0,0,0
1565340217471340000,0,0,0,0,0,0
1565340217522130000,0,0,0,0,0,0
1565340217572310000,0,0,0,0,0,0
1565340217622720000,0,0,0,0,0,0
1565340217672590000,0,0,0,0,0,0
1565340217723550000,0,0,0,0,0,0
1565340217772710000,0,0,0,0,0,0
1565340217825280000,0,0,0,0,0,0
1565340217884580000,0,0,0,0,0,0
1565340217922940000,0,0,0,0,0,0
1565340217973260000,0,0,0,0,0,0
1565340218024020000,0,0,0,0,0,0
1565340218073260000,0,0,0,0,0,0
1565340218124410000,0,0,0,0,0,0
1565340218174550000,0,0,0,0,0,0
1565340218225260000,0,0,0,0,0,0
1565340218276040000,0,0,0,0,0,0
1565340218324790000,0,0,0,0,0,0
1565340218375740000,0,0,0,0,0,0
1565340218503090000,0,0,0,0,0,0.17444782
1565340218607670000,0,0,0,0,0,0.375211418
1565340218711280000,0,0,0,0,0,0.472870648
1565340218815150000,0,0,0,0,0,0.5
1565340218866320000,0,0,0,0,0,0.5
1565340218920070000,0,0,0,0,0,0.5
1565340218965710000,0,0,0,0,0,0.5
1565340219016240000,0,0,0,0,0,0.5
1565340219066500000,0,0,0,0,0,0.5
1565340219199090000,0,0,0,0,0,0
1565340219250150000,0,0,0,0,0,0
1565340219299640000,0,0,0,0,0,0
1565340219349740000,0,0,0,0,0,0
1565340219402490000,0,0,0,0,0,0
1565340219451330000,0,0,0,0,0,0
1565340219500720000,0,0,0,0,0,0
1565340219550740000,0,0,0,0,0,0
1565340219601260000,0,0,0,0,0,0
1565340219652960000,0,0,0,0,0,0
1565340219701260000,0,0,0,0,0,0
1565340219751460000,0,0,0,0,0,0
1565340219802190000,0,0,0,0,0,0
1565340219865970000,0,0,0,0,0,0
1565340219901730000,0,0,0,0,0,0
1565340219952430000,0,0,0,0,0,0
1565340220079800000,0.272952735,0.457445145,0,0,0,0
1565340220183520000,0.381470114,0.544246197,0,0,0,0
