%time,field.header.seq,field.header.stamp,field.header.frame_id,field.pose.position.x,field.pose.position.y,field.pose.position.z,field.pose.orientation.x,field.pose.orientation.y,field.pose.orientation.z,field.pose.orientation.w
1565344933140757160,99798,1565344933085256317,map,1.87731742859,0.704881668091,0.0,0.0,0.0,-0.504882257261,0.863188221828
1565344933207106431,99799,1565344933152031942,map,1.87757587433,0.705836296082,0.0,0.0,0.0,-0.505909047914,0.862586827652
1565344933273614660,99800,1565344933218414755,map,1.87889099121,0.706997871399,0.0,0.0,0.0,-0.507461141167,0.861674642893
1565344933340414764,99801,1565344933285189494,map,1.87887859344,0.706433296204,0.0,0.0,0.0,-0.508534577762,0.861041568811
1565344933406857680,99802,1565344933351932932,map,1.88000583649,0.708646774292,0.0,0.0,0.0,-0.509821987191,0.860279920361
1565344933473414608,99803,1565344933418550952,map,1.88081932068,0.710670471191,0.0,0.0,0.0,-0.510951684954,0.859609432034
1565344933546200337,99804,1565344933487025900,map,1.88110351562,0.711161613464,0.0,0.0,0.0,-0.512112652077,0.858918291564
1565344933613717524,99805,1565344933553597046,map,1.88193225861,0.711334228516,0.0,0.0,0.0,-0.513423479076,0.858135380423
1565344933680033878,99806,1565344933620525432,map,1.88294792175,0.712407112122,0.0,0.0,0.0,-0.514892947501,0.857254485327
1565344933746626274,99807,1565344933686989807,map,1.882563591,0.713851928711,0.0,0.0,0.0,-0.516020504432,0.856576230703
1565344933813347003,99808,1565344933753654077,map,1.88461780548,0.714970588684,0.0,0.0,0.0,-0.517345297896,0.855776748192
1565344933880286639,99809,1565344933820369702,map,1.88554859161,0.716242790222,0.0,0.0,0.0,-0.518738972601,0.854932674721
1565344933948225024,99810,1565344933887158296,map,1.88623523712,0.717419624329,0.0,0.0,0.0,-0.519912350779,0.85421961316
1565344934016362732,99811,1565344933954056369,map,1.88684558868,0.718325614929,0.0,0.0,0.0,-0.5213264757,0.853357314221
1565344934081844347,99812,1565344934020476525,map,1.88728046417,0.71942615509,0.0,0.0,0.0,-0.52242470702,0.852685420008
1565344934148632889,99813,1565344934087472306,map,1.88887119293,0.720197677612,0.0,0.0,0.0,-0.523785107931,0.851850433298
1565344934214144086,99814,1565344934154719598,map,1.88912773132,0.721507072449,0.0,0.0,0.0,-0.524924418931,0.851148843863
1565344934283602628,99815,1565344934220866108,map,1.89041900635,0.72247505188,0.0,0.0,0.0,-0.526341154303,0.850273479116
1565344934347682420,99816,1565344934286974858,map,1.89052581787,0.723063468933,0.0,0.0,0.0,-0.527405026925,0.849613993278
1565344934415082993,99817,1565344934354457879,map,1.89155387878,0.723536491394,0.0,0.0,0.0,-0.528621690898,0.848857530986
1565344934482617628,99818,1565344934421704129,map,1.89108562469,0.724393844604,0.0,0.0,0.0,-0.529663971153,0.848207567558
1565344934546966170,99819,1565344934486978712,map,1.89230918884,0.725311279297,0.0,0.0,0.0,-0.530985496691,0.847380907446
1565344934615583461,99820,1565344934553734650,map,1.89403533936,0.726107597351,0.0,0.0,0.0,-0.532437724855,0.84646917791
1565344934681216482,99821,1565344934621142462,map,1.89358520508,0.727548599243,0.0,0.0,0.0,-0.533462952413,0.845823432167
1565344934747006013,99822,1565344934686978452,map,1.89469623566,0.728515625,0.0,0.0,0.0,-0.534648188733,0.845074738875
1565344934815349555,99823,1565344934753531785,map,1.8950548172,0.728944778442,0.0,0.0,0.0,-0.535562400099,0.844495657538
1565344934879773826,99824,1565344934820339285,map,1.89587211609,0.729479789734,0.0,0.0,0.0,-0.536718414327,0.843761425832
1565344934946367419,99825,1565344934886902254,map,1.89711761475,0.731051445007,0.0,0.0,0.0,-0.538187134724,0.842825372196
1565344935013371065,99826,1565344934953424858,map,1.89700603485,0.731854438782,0.0,0.0,0.0,-0.53919147822,0.842183204425
1565344935081335076,99827,1565344935020381525,map,1.89809131622,0.732498168945,0.0,0.0,0.0,-0.540309615189,0.841466291502
1565344935146786221,99828,1565344935086843035,map,1.89916706085,0.733055114746,0.0,0.0,0.0,-0.541226935083,0.840876569266
1565344935214559607,99829,1565344935154289441,map,1.89846801758,0.733469009399,0.0,0.0,0.0,-0.542160039082,0.840275247775
1565344935281037524,99830,1565344935220215796,map,1.89938163757,0.735226631165,0.0,0.0,0.0,-0.543218590844,0.839591306864
1565344935347618930,99831,1565344935286793035,map,1.89964008331,0.735342025757,0.0,0.0,0.0,-0.544309681178,0.838884360908
1565344935413746117,99832,1565344935353757931,map,1.89989757538,0.736909866333,0.0,0.0,0.0,-0.545223583439,0.838290668004
1565344935480298826,99833,1565344935420571316,map,1.90117168427,0.737861633301,0.0,0.0,0.0,-0.546426602493,0.837506995844
1565344935546651690,99834,1565344935487391889,map,1.9011516571,0.739169120789,0.0,0.0,0.0,-0.54733640847,0.836912693154
1565344935614223617,99835,1565344935554121577,map,1.90156841278,0.739318847656,0.0,0.0,0.0,-0.548437370301,0.836191635247
1565344935681920023,99836,1565344935621682983,map,1.90202617645,0.740260124207,0.0,0.0,0.0,-0.549554512558,0.835457861132
1565344935746952419,99837,1565344935687290222,map,1.90243530273,0.741731643677,0.0,0.0,0.0,-0.550436014552,0.8348773526
1565344935813498669,99838,1565344935754118660,map,1.90309715271,0.741093635559,0.0,0.0,0.0,-0.551558358982,0.83413630579
1565344935879974815,99839,1565344935820195066,map,1.90427398682,0.741740226746,0.0,0.0,0.0,-0.55284858647,0.833281729332
1565344935946756638,99840,1565344935886904285,map,1.90443992615,0.743275642395,0.0,0.0,0.0,-0.553835190223,0.832626315985
1565344936013951846,99841,1565344935953646993,map,1.90565776825,0.743696212769,0.0,0.0,0.0,-0.555030662745,0.831829888507
1565344936080832627,99842,1565344936020310899,map,1.90621471405,0.7447681427,0.0,0.0,0.0,-0.556130873052,0.831094731086
1565344936147797992,99843,1565344936087092306,map,1.90697193146,0.745246887207,0.0,0.0,0.0,-0.557107360394,0.8304404789
1565344936212820284,99844,1565344936153605379,map,1.90760612488,0.746536254883,0.0,0.0,0.0,-0.558336875756,0.829614327969
1565344936279386481,99845,1565344936220156941,map,1.90747833252,0.748022079468,0.0,0.0,0.0,-0.559069687719,0.829120669308
1565344936346427159,99846,1565344936286793972,map,1.90787220001,0.748708724976,0.0,0.0,0.0,-0.560327459986,0.828271173943
1565344936412963565,99847,1565344936353786733,map,1.90712833405,0.750020027161,0.0,0.0,0.0,-0.560091256826,0.82843091687
1565344936479365804,99848,1565344936420261003,map,1.90593528748,0.750246047974,0.0,0.0,0.0,-0.559812138725,0.828619556453
1565344936546240648,99849,1565344936486977201,map,1.90429401398,0.750116348267,0.0,0.0,0.0,-0.559919210647,0.828547209004
1565344936613546794,99850,1565344936553565847,map,1.90120410919,0.750215530396,0.0,0.0,0.0,-0.560063999685,0.828449344412
1565344936680439919,99851,1565344936620273764,map,1.89437103271,0.749116897583,0.0,0.0,0.0,-0.559671666733,0.828714441443
1565344936747650179,99852,1565344936686799597,map,1.88656330109,0.748258590698,0.0,0.0,0.0,-0.558980531812,0.829180779478
1565344936813701846,99853,1565344936753568972,map,1.87712955475,0.747337341309,0.0,0.0,0.0,-0.558136097008,0.829749418329
1565344936880677002,99854,1565344936820700430,map,1.86659812927,0.745748519897,0.0,0.0,0.0,-0.55728811429,0.830319190234
1565344936947660127,99855,1565344936887351837,map,1.854429245,0.744520187378,0.0,0.0,0.0,-0.55644588908,0.830883850202
1565344937014594398,99856,1565344936954279337,map,1.8430223465,0.741694450378,0.0,0.0,0.0,-0.555881180946,0.831261759417
1565344937082011846,99857,1565344937020911368,map,1.83049488068,0.738492965698,0.0,0.0,0.0,-0.554674819267,0.832067211751
1565344937146516481,99858,1565344937087178503,map,1.8177947998,0.735325813293,0.0,0.0,0.0,-0.553824271928,0.832633578366
1565344937213135127,99859,1565344937153697930,map,1.80565738678,0.732019424438,0.0,0.0,0.0,-0.553065713838,0.833137633394
1565344937279866742,99860,1565344937220500639,map,1.79278564453,0.728558540344,0.0,0.0,0.0,-0.552385600449,0.833588716584
1565344937346508616,99861,1565344937286734909,map,1.77783966064,0.725461006165,0.0,0.0,0.0,-0.551411581733,0.834233341176
1565344937413772471,99862,1565344937353449180,map,1.76394462585,0.722587585449,0.0,0.0,0.0,-0.550975922755,0.834521139663
1565344937481775387,99863,1565344937420919441,map,1.74894714355,0.719278335571,0.0,0.0,0.0,-0.550580118748,0.834782326622
1565344937547427106,99864,1565344937486999388,map,1.73394775391,0.714909553528,0.0,0.0,0.0,-0.550262231743,0.834991901947
1565344937613878616,99865,1565344937553739545,map,1.71977806091,0.712466239929,0.0,0.0,0.0,-0.550340466817,0.834940339535
1565344937680694658,99866,1565344937620438972,map,1.70236968994,0.707967758179,0.0,0.0,0.0,-0.549817812686,0.8352846059
1565344937746718148,99867,1565344937686745951,map,1.68474388123,0.703562736511,0.0,0.0,0.0,-0.549662667404,0.835386708096
1565344937812940023,99868,1565344937753403920,map,1.66661930084,0.700803756714,0.0,0.0,0.0,-0.549100878983,0.835756079667
1565344937881097470,99869,1565344937820622565,map,1.65009307861,0.697830200195,0.0,0.0,0.0,-0.549548536884,0.835461791831
1565344937946964918,99870,1565344937886889857,map,1.6310634613,0.692805290222,0.0,0.0,0.0,-0.549403120143,0.835557425661
1565344938013484450,99871,1565344937953504701,map,1.61424541473,0.688079833984,0.0,0.0,0.0,-0.550130634628,0.835078609979
1565344938080460231,99872,1565344938020149128,map,1.59522247314,0.683576583862,0.0,0.0,0.0,-0.5507468929,0.834672306933
1565344938146664814,99873,1565344938086798763,map,1.57744312286,0.677577018738,0.0,0.0,0.0,-0.551519578035,0.834161947732
1565344938216566793,99874,1565344938153514544,map,1.55825996399,0.671155929565,0.0,0.0,0.0,-0.552185450292,0.833721313441
1565344938281730543,99875,1565344938220528867,map,1.54029369354,0.665529251099,0.0,0.0,0.0,-0.553011882465,0.833173366024
1565344938347623460,99876,1565344938287592565,map,1.5232219696,0.659327507019,0.0,0.0,0.0,-0.553606878788,0.832778135975
1565344938416236845,99877,1565344938353953451,map,1.50409412384,0.653142929077,0.0,0.0,0.0,-0.55382288232,0.832634502659
1565344938483726272,99878,1565344938420212878,map,1.48624897003,0.647791862488,0.0,0.0,0.0,-0.554155550133,0.832413134361
1565344938548093147,99879,1565344938486844440,map,1.46954059601,0.642974853516,0.0,0.0,0.0,-0.554510946399,0.832176429806
1565344938613228772,99880,1565344938553766315,map,1.45306396484,0.638158798218,0.0,0.0,0.0,-0.554900555609,0.831916686565
1565344938679715803,99881,1565344938620137461,map,1.43860912323,0.63429069519,0.0,0.0,0.0,-0.555620337855,0.831436131138
1565344938746469241,99882,1565344938687041940,map,1.42531871796,0.63087272644,0.0,0.0,0.0,-0.556599009497,0.830781284471
1565344938813214397,99883,1565344938753775638,map,1.41156196594,0.626745223999,0.0,0.0,0.0,-0.556557809484,0.830808885787
1565344938880435647,99884,1565344938820372825,map,1.39886951447,0.624501228333,0.0,0.0,0.0,-0.555279732423,0.831663645208
1565344938947002001,99885,1565344938886920950,map,1.38840484619,0.623151779175,0.0,0.0,0.0,-0.552653080129,0.833411406824
1565344939013923147,99886,1565344938953733815,map,1.3759098053,0.619733810425,0.0,0.0,0.0,-0.54841364581,0.836207195072
1565344939080911897,99887,1565344939020584544,map,1.36603546143,0.616617202759,0.0,0.0,0.0,-0.543587859614,0.839352273411
1565344939147377210,99888,1565344939086966367,map,1.35496711731,0.613912582397,0.0,0.0,0.0,-0.537321782186,0.843377319109
1565344939214213355,99889,1565344939153650065,map,1.34279346466,0.610717773438,0.0,0.0,0.0,-0.529749511091,0.848154146072
1565344939281857782,99890,1565344939220777304,map,1.33190727234,0.607974052429,0.0,0.0,0.0,-0.521199513239,0.853434864181
1565344939349252314,99891,1565344939287173711,map,1.32184410095,0.605508804321,0.0,0.0,0.0,-0.511555127455,0.859250459165
1565344939413706949,99892,1565344939353643763,map,1.31129169464,0.602971076965,0.0,0.0,0.0,-0.500734321394,0.865601027829
1565344939482484553,99893,1565344939420370898,map,1.30246734619,0.601336479187,0.0,0.0,0.0,-0.489282523659,0.872125341933
1565344939547065803,99894,1565344939486990325,map,1.29309368134,0.598844528198,0.0,0.0,0.0,-0.47694268398,0.878934398119
1565344939614593043,99895,1565344939553873763,map,1.28528594971,0.598281860352,0.0,0.0,0.0,-0.464036811785,0.885815916152
1565344939681372261,99896,1565344939620648554,map,1.27672863007,0.597050666809,0.0,0.0,0.0,-0.450009559067,0.893023738065
1565344939748375491,99897,1565344939687685065,map,1.26982879639,0.595029830933,0.0,0.0,0.0,-0.435799783717,0.900043637004
1565344939818767886,99898,1565344939755195898,map,1.2632598877,0.592814445496,0.0,0.0,0.0,-0.422827688591,0.906210100231
1565344939882639918,99899,1565344939821755846,map,1.25681495667,0.591258049011,0.0,0.0,0.0,-0.410463537786,0.911877011525
1565344939947644345,99900,1565344939886912721,map,1.25015544891,0.588991165161,0.0,0.0,0.0,-0.39834954225,0.917233690064
1565344940013225438,99901,1565344939953551367,map,1.24416351318,0.587022781372,0.0,0.0,0.0,-0.386616237948,0.92224068689
1565344940080943511,99902,1565344940020526523,map,1.23729705811,0.584772109985,0.0,0.0,0.0,-0.375382265437,0.926870085177
1565344940146627261,99903,1565344940087045169,map,1.23085594177,0.583208084106,0.0,0.0,0.0,-0.364508301033,0.931200138788
1565344940214333928,99904,1565344940153735064,map,1.22498130798,0.581746101379,0.0,0.0,0.0,-0.354538954734,0.935041244853
1565344940280780178,99905,1565344940220315898,map,1.21930217743,0.580302238464,0.0,0.0,0.0,-0.345072521631,0.938576025059
1565344940347548980,99906,1565344940287394439,map,1.21240520477,0.578531265259,0.0,0.0,0.0,-0.335693479264,0.941971277683
1565344940414076324,99907,1565344940353693085,map,1.20640850067,0.577033996582,0.0,0.0,0.0,-0.326489497219,0.945200829563
1565344940479626688,99908,1565344940420330846,map,1.20060920715,0.575487136841,0.0,0.0,0.0,-0.317895378491,0.948125797737
1565344940546047626,99909,1565344940486939596,map,1.19627189636,0.573202133179,0.0,0.0,0.0,-0.309452357759,0.950914947973
1565344940613895959,99910,1565344940553686210,map,1.19237041473,0.571825027466,0.0,0.0,0.0,-0.301440698608,0.953484926584
1565344940679693355,99911,1565344940620306835,map,1.18793773651,0.568511962891,0.0,0.0,0.0,-0.293235839716,0.956040136347
1565344940748131115,99912,1565344940686960585,map,1.18479347229,0.565956115723,0.0,0.0,0.0,-0.285583799166,0.958353741399
1565344940813838876,99913,1565344940753817721,map,1.18290424347,0.562728881836,0.0,0.0,0.0,-0.278475491001,0.960443335607
1565344940881165178,99914,1565344940820271523,map,1.18078899384,0.559015274048,0.0,0.0,0.0,-0.271185065012,0.962527225856
1565344940946824448,99915,1565344940886919543,map,1.18035697937,0.555707931519,0.0,0.0,0.0,-0.264498987026,0.96438596312
1565344941013363980,99916,1565344940953603814,map,1.17914390564,0.552095413208,0.0,0.0,0.0,-0.257443096155,0.966293460726
1565344941080577625,99917,1565344941020852668,map,1.1781206131,0.548060417175,0.0,0.0,0.0,-0.250457932527,0.968127483359
1565344941147481792,99918,1565344941087642564,map,1.17772102356,0.544878005981,0.0,0.0,0.0,-0.244071300037,0.969757289479
1565344941213649136,99919,1565344941154207304,map,1.17746734619,0.54100227356,0.0,0.0,0.0,-0.237837097464,0.971305057677
1565344941280762573,99920,1565344941220390533,map,1.17961120605,0.537554740906,0.0,0.0,0.0,-0.232273063095,0.972650617725
1565344941346251167,99921,1565344941286989074,map,1.18079662323,0.532835006714,0.0,0.0,0.0,-0.226625483621,0.973981976308
1565344941414552730,99922,1565344941353696054,map,1.1823091507,0.528335571289,0.0,0.0,0.0,-0.221003990187,0.97527290351
1565344941480296636,99923,1565344941420449335,map,1.18567180634,0.524434089661,0.0,0.0,0.0,-0.215630544173,0.976475021913
1565344941546636323,99924,1565344941487194595,map,1.1890668869,0.519353866577,0.0,0.0,0.0,-0.210103245607,0.977679204129
1565344941614574292,99925,1565344941553762147,map,1.19301795959,0.515497207642,0.0,0.0,0.0,-0.204637135586,0.978837904221
1565344941680804188,99926,1565344941620515949,map,1.19703674316,0.511510848999,0.0,0.0,0.0,-0.197832459354,0.980235848164
1565344941750031479,99927,1565344941687911262,map,1.20213127136,0.507580757141,0.0,0.0,0.0,-0.189359404595,0.981907844908
1565344941814497886,99928,1565344941754279126,map,1.20657539368,0.503021240234,0.0,0.0,0.0,-0.179834523746,0.98369687611
1565344941883390802,99929,1565344941821987095,map,1.21186256409,0.498733520508,0.0,0.0,0.0,-0.17074710046,0.985314887579
1565344941947069865,99930,1565344941887026887,map,1.21662330627,0.494424819946,0.0,0.0,0.0,-0.16140513609,0.986888231789
1565344942014645125,99931,1565344941953764283,map,1.22198677063,0.490552902222,0.0,0.0,0.0,-0.15217451997,0.988353638872
1565344942080693250,99932,1565344942020492720,map,1.22543525696,0.485326766968,0.0,0.0,0.0,-0.141075159756,0.989998888535
1565344942147589031,99933,1565344942087203032,map,1.2322769165,0.483080863953,0.0,0.0,0.0,-0.129762771638,0.991545068616
1565344942214591896,99934,1565344942153958605,map,1.23763561249,0.478506088257,0.0,0.0,0.0,-0.116267247877,0.99321796554
1565344942281543667,99935,1565344942220931470,map,1.24552345276,0.475664138794,0.0,0.0,0.0,-0.103996400428,0.994577673537
1565344942348550594,99936,1565344942287153345,map,1.25317573547,0.471250534058,0.0,0.0,0.0,-0.0921346639835,0.995746555953
1565344942417771010,99937,1565344942353823866,map,1.26151561737,0.468174934387,0.0,0.0,0.0,-0.0815920288825,0.996665812007
1565344942483088875,99938,1565344942420788762,map,1.27113628387,0.465797424316,0.0,0.0,0.0,-0.0716145704331,0.997432380315
1565344942547226010,99939,1565344942487819126,map,1.28022289276,0.463460922241,0.0,0.0,0.0,-0.0615342820537,0.998104970498
1565344942614727573,99940,1565344942555166939,map,1.28964233398,0.459892272949,0.0,0.0,0.0,-0.0514460427626,0.998675775557
1565344942680988146,99941,1565344942620990636,map,1.2990398407,0.457448005676,0.0,0.0,0.0,-0.0421210190347,0.999112516064
1565344942746952781,99942,1565344942687168345,map,1.30810832977,0.454403877258,0.0,0.0,0.0,-0.0330963815645,0.999452164702
1565344942813700698,99943,1565344942753838241,map,1.31748962402,0.451591491699,0.0,0.0,0.0,-0.0252483792582,0.999681208859
1565344942882671427,99944,1565344942820438449,map,1.32795524597,0.449529647827,0.0,0.0,0.0,-0.0171571020628,0.999852806091
1565344942947395698,99945,1565344942887089751,map,1.33697319031,0.447555541992,0.0,0.0,0.0,-0.00950623327708,0.999954814744
1565344943014652260,99946,1565344942953974126,map,1.34770011902,0.445411682129,0.0,0.0,0.0,-0.0020801132911,0.999997836562
1565344943080092000,99947,1565344943020466470,map,1.35719776154,0.443967819214,0.0,0.0,0.0,0.00535487106161,0.999985662575
1565344943146762729,99948,1565344943087093084,map,1.3645658493,0.441843986511,0.0,0.0,0.0,0.0130577586006,0.999914743836
1565344943213355437,99949,1565344943153771418,map,1.37664318085,0.440510749817,0.0,0.0,0.0,0.0190854870595,0.999817855504
1565344943280406948,99950,1565344943220656313,map,1.38650989532,0.439639091492,0.0,0.0,0.0,0.0254754203888,0.999675448811
1565344943346999604,99951,1565344943287139699,map,1.39490699768,0.439033508301,0.0,0.0,0.0,0.0314678932942,0.999504763216
1565344943414773145,99952,1565344943354067667,map,1.40388011932,0.438390731812,0.0,0.0,0.0,0.0376783659609,0.999289918261
1565344943481596895,99953,1565344943420688761,map,1.41401863098,0.438261032104,0.0,0.0,0.0,0.0439900688531,0.999031968379
1565344943546888406,99954,1565344943487228136,map,1.4244556427,0.438577651978,0.0,0.0,0.0,0.0500091769107,0.998748758309
1565344943613973562,99955,1565344943553963084,map,1.43343162537,0.438639640808,0.0,0.0,0.0,0.0560537846802,0.998427750627
1565344943680238302,99956,1565344943620655584,map,1.44297790527,0.438738822937,0.0,0.0,0.0,0.0616215895947,0.998099584058
1565344943746980906,99957,1565344943687433917,map,1.45398235321,0.439412117004,0.0,0.0,0.0,0.0667609454611,0.997768999399
1565344943815278041,99958,1565344943754232303,map,1.46321678162,0.43953704834,0.0,0.0,0.0,0.0718811117022,0.997413207142
1565344943881458874,99959,1565344943821208032,map,1.47280406952,0.440693855286,0.0,0.0,0.0,0.0771001956501,0.997023349692
1565344943947282104,99960,1565344943887793657,map,1.48348808289,0.441581726074,0.0,0.0,0.0,0.0819971927241,0.996632560368
1565344944016871114,99961,1565344943954677146,map,1.49389362335,0.443117141724,0.0,0.0,0.0,0.08697905269,0.99621014068
1565344944083018770,99962,1565344944022013657,map,1.50572490692,0.445246696472,0.0,0.0,0.0,0.0913155726162,0.995822005279
1565344944148303614,99963,1565344944087359282,map,1.51625347137,0.446406364441,0.0,0.0,0.0,0.0958298299425,0.995397731408
1565344944213458562,99964,1565344944153834021,map,1.52867889404,0.449096679688,0.0,0.0,0.0,0.0987054784225,0.995116690911
1565344944280288197,99965,1565344944220633188,map,1.54029083252,0.451619148254,0.0,0.0,0.0,0.100704842286,0.994916345599
1565344944346714187,99966,1565344944287230115,map,1.55174064636,0.45349407196,0.0,0.0,0.0,0.100617327508,0.994925199905
1565344944413289655,99967,1565344944353707875,map,1.56316947937,0.456004142761,0.0,0.0,0.0,0.0990057266653,0.995086863589
1565344944479891270,99968,1565344944420436209,map,1.57565116882,0.458475112915,0.0,0.0,0.0,0.0950953834581,0.995468165259
1565344944546751166,99969,1565344944487341313,map,1.58679199219,0.460278511047,0.0,0.0,0.0,0.0909835025468,0.995852399839
1565344944613325489,99970,1565344944553826573,map,1.59931659698,0.462826728821,0.0,0.0,0.0,0.0857456971057,0.996317055674
1565344944679861166,99971,1565344944620459594,map,1.61170768738,0.465046882629,0.0,0.0,0.0,0.0793464064901,0.99684710351
1565344944746633457,99972,1565344944687333032,map,1.62503528595,0.467349052429,0.0,0.0,0.0,0.0710522955518,0.997472591752
1565344944814148041,99973,1565344944753854021,map,1.63907718658,0.468974113464,0.0,0.0,0.0,0.0638227822686,0.997961247977
1565344944880837520,99974,1565344944821049646,map,1.65157794952,0.471242904663,0.0,0.0,0.0,0.0574966090903,0.99834570162
1565344944948911062,99975,1565344944887651052,map,1.66509819031,0.472880363464,0.0,0.0,0.0,0.0523200278595,0.998630369398
1565344945014544447,99976,1565344944954228500,map,1.67876720428,0.475155830383,0.0,0.0,0.0,0.0472146138043,0.998884768251
1565344945079985853,99977,1565344945020742354,map,1.69232273102,0.477264404297,0.0,0.0,0.0,0.0425194912987,0.999095637494
1565344945146541426,99978,1565344945087279021,map,1.70753479004,0.478695869446,0.0,0.0,0.0,0.0378037108452,0.999285184242
1565344945213143093,99979,1565344945153916990,map,1.72260856628,0.481152534485,0.0,0.0,0.0,0.0338736333104,0.999426123816
1565344945281574551,99980,1565344945220898240,map,1.73732566833,0.483589172363,0.0,0.0,0.0,0.0300387083216,0.999548736182
1565344945348464030,99981,1565344945287855948,map,1.75163269043,0.486204147339,0.0,0.0,0.0,0.0263763489675,0.999652083585
1565344945415159759,99982,1565344945354407250,map,1.76610374451,0.488494873047,0.0,0.0,0.0,0.021104521558,0.999777274782
1565344945480272363,99983,1565344945421191312,map,1.7805147171,0.491134643555,0.0,0.0,0.0,0.0145630698878,0.999893952875
1565344945546287624,99984,1565344945487053760,map,1.7950925827,0.493664741516,0.0,0.0,0.0,0.00697186203085,0.999975696275
1565344945612761426,99985,1565344945553691625,map,1.80922222137,0.496157646179,0.0,0.0,0.0,-0.00160709152203,0.999998708628
1565344945679608613,99986,1565344945620512042,map,1.82555389404,0.498540878296,0.0,0.0,0.0,-0.0114053715736,0.999934956634
1565344945746403822,99987,1565344945687271521,map,1.83902454376,0.500175476074,0.0,0.0,0.0,-0.0218609161454,0.999761021617
1565344945816657051,99988,1565344945754115583,map,1.8551530838,0.50168132782,0.0,0.0,0.0,-0.0314457164456,0.999505461174
1565344945880228144,99989,1565344945820663760,map,1.87048912048,0.503793716431,0.0,0.0,0.0,-0.0397824278103,0.999208365876
1565344945947111582,99990,1565344945887284958,map,1.88457489014,0.50438117981,0.0,0.0,0.0,-0.0465852971636,0.998914315689
1565344946013681999,99991,1565344945953955219,map,1.9008769989,0.505518913269,0.0,0.0,0.0,-0.0532081610197,0.998583442483
1565344946079934603,99992,1565344946020686573,map,1.91631317139,0.507122993469,0.0,0.0,0.0,-0.0594438485406,0.998231650906
1565344946146469707,99993,1565344946087267927,map,1.93383312225,0.507853507996,0.0,0.0,0.0,-0.0662248582468,0.997804724458
1565344946213251061,99994,1565344946154088083,map,1.94874382019,0.509252548218,0.0,0.0,0.0,-0.0735211702212,0.997293656617
1565344946279835332,99995,1565344946220513812,map,1.96411418915,0.511637687683,0.0,0.0,0.0,-0.0822307444457,0.996613317525
1565344946346269030,99996,1565344946287040531,map,1.97769927979,0.512994766235,0.0,0.0,0.0,-0.0923687422519,0.995724869356
1565344946413664030,99997,1565344946353646364,map,1.99282360077,0.513580322266,0.0,0.0,0.0,-0.102904373679,0.994691253544
1565344946481113821,99998,1565344946420837770,map,2.00779533386,0.514862060547,0.0,0.0,0.0,-0.114378545957,0.993437239198
1565344946547666061,99999,1565344946486987197,map,2.02424621582,0.51601600647,0.0,0.0,0.0,-0.127161897932,0.99188197469
1565344946614438300,100000,1565344946553843395,map,2.04012584686,0.516192436218,0.0,0.0,0.0,-0.139955559924,0.990157786035
1565344946680813196,100001,1565344946620858916,map,2.05584049225,0.515394210815,0.0,0.0,0.0,-0.150862568024,0.988554745863
1565344946748898717,100002,1565344946687852718,map,2.07217216492,0.514554977417,0.0,0.0,0.0,-0.160480365888,0.987039032746
1565344946814156113,100003,1565344946754527614,map,2.08720970154,0.511451721191,0.0,0.0,0.0,-0.168627517527,0.985679846772
1565344946881746425,100004,1565344946821111416,map,2.10193443298,0.511529922485,0.0,0.0,0.0,-0.176861957592,0.984235666879
1565344946946825644,100005,1565344946887328187,map,2.11695575714,0.510447502136,0.0,0.0,0.0,-0.185103014694,0.982719122614
1565344947013015852,100006,1565344946953743291,map,2.13356304169,0.510168075562,0.0,0.0,0.0,-0.194940654532,0.980815039246
1565344947080400019,100007,1565344947020388343,map,2.1487865448,0.509243965149,0.0,0.0,0.0,-0.205671097594,0.978621172678
1565344947147285800,100008,1565344947087044489,map,2.16490459442,0.508624076843,0.0,0.0,0.0,-0.217611077565,0.976035562324
1565344947215985331,100009,1565344947153899853,map,2.18113517761,0.50616645813,0.0,0.0,0.0,-0.22992720595,0.97320782979
1565344947280399967,100010,1565344947220474281,map,2.19818687439,0.501546859741,0.0,0.0,0.0,-0.243607931053,0.969873793814
1565344947347807415,100011,1565344947287055010,map,2.21567821503,0.496083259583,0.0,0.0,0.0,-0.258078434874,0.966123967953
1565344947414947102,100012,1565344947353694176,map,2.23100376129,0.493139266968,0.0,0.0,0.0,-0.272805527878,0.962069199153
1565344947479884706,100013,1565344947420426937,map,2.2462720871,0.488965988159,0.0,0.0,0.0,-0.288067886302,0.957609989965
1565344947547042727,100014,1565344947486989280,map,2.26182079315,0.485956192017,0.0,0.0,0.0,-0.304040666677,0.952659053915
1565344947613688404,100015,1565344947553713760,map,2.27649211884,0.481287956238,0.0,0.0,0.0,-0.32041539628,0.947277136759
1565344947680688613,100016,1565344947620609697,map,2.29150867462,0.475898742676,0.0,0.0,0.0,-0.337043778611,0.941488975666
1565344947748265852,100017,1565344947687638916,map,2.30516052246,0.472627639771,0.0,0.0,0.0,-0.35410977484,0.935203864066
1565344947814349862,100018,1565344947754140166,map,2.31960296631,0.465721130371,0.0,0.0,0.0,-0.372126868601,0.928181875316
1565344947879986842,100019,1565344947820497978,map,2.33474445343,0.460363388062,0.0,0.0,0.0,-0.390723466612,0.920508105689
1565344947948344915,100020,1565344947887575478,map,2.34694480896,0.452056884766,0.0,0.0,0.0,-0.409581972452,0.912273318607
1565344948013863040,100021,1565344947954031207,map,2.35917472839,0.446553230286,0.0,0.0,0.0,-0.428308619684,0.90363251729
1565344948080835539,100022,1565344948020701416,map,2.37201690674,0.44179058075,0.0,0.0,0.0,-0.447897266817,0.894085028606
1565344948147791789,100023,1565344948087625999,map,2.3839597702,0.435198783875,0.0,0.0,0.0,-0.465730379074,0.884926671543
1565344948215439602,100024,1565344948154316676,map,2.39580631256,0.429815292358,0.0,0.0,0.0,-0.481778872406,0.876292826687
1565344948281236060,100025,1565344948221083655,map,2.40757465363,0.424715995789,0.0,0.0,0.0,-0.496630108657,0.867962289028
1565344948347201216,100026,1565344948287201207,map,2.41960430145,0.416875839233,0.0,0.0,0.0,-0.510608768221,0.859813169134
1565344948413633821,100027,1565344948354007718,map,2.43155956268,0.410725593567,0.0,0.0,0.0,-0.523845020241,0.851813591561
1565344948480555487,100028,1565344948420541728,map,2.44331932068,0.402188301086,0.0,0.0,0.0,-0.536095652062,0.844157243551
1565344948548901373,100029,1565344948487102718,map,2.45485401154,0.392420768738,0.0,0.0,0.0,-0.547144241325,0.837038337942
1565344948613892675,100030,1565344948553790061,map,2.46608066559,0.382741928101,0.0,0.0,0.0,-0.557431629517,0.830222848646
1565344948681545331,100031,1565344948620695061,map,2.47755718231,0.375020027161,0.0,0.0,0.0,-0.567206937771,0.823575309091
1565344948746814081,100032,1565344948687098967,map,2.48918437958,0.364593505859,0.0,0.0,0.0,-0.57636263678,0.817194047289
1565344948813351060,100033,1565344948753841051,map,2.50022602081,0.356242179871,0.0,0.0,0.0,-0.585234880435,0.810863820085
1565344948881819081,100034,1565344948820450738,map,2.51104736328,0.346074104309,0.0,0.0,0.0,-0.593912932478,0.804529321178
1565344948946810591,100035,1565344948887139332,map,2.52127552032,0.337428092957,0.0,0.0,0.0,-0.601907255179,0.798565999879
1565344949014637727,100036,1565344948953842978,map,2.53125095367,0.328631401062,0.0,0.0,0.0,-0.609259757633,0.792970710512
1565344949080058664,100037,1565344949020431572,map,2.54156970978,0.318639755249,0.0,0.0,0.0,-0.616266630275,0.787537580316
1565344949146983299,100038,1565344949087263030,map,2.5507183075,0.308349609375,0.0,0.0,0.0,-0.622600423739,0.782539911034
1565344949213591997,100039,1565344949153803759,map,2.55973625183,0.297075271606,0.0,0.0,0.0,-0.629194866273,0.777247592634
1565344949280796060,100040,1565344949220505113,map,2.56888389587,0.2867603302,0.0,0.0,0.0,-0.635487560024,0.772111106678
1565344949347833612,100041,1565344949287084071,map,2.57758140564,0.276774406433,0.0,0.0,0.0,-0.641183940973,0.767387225485
1565344949413556945,100042,1565344949354002665,map,2.58512210846,0.264862060547,0.0,0.0,0.0,-0.647058279656,0.762440543734
1565344949480077935,100043,1565344949420786051,map,2.59361839294,0.253400802612,0.0,0.0,0.0,-0.652619194364,0.757686074273
1565344949547407987,100044,1565344949487854801,map,2.60165977478,0.241688728333,0.0,0.0,0.0,-0.65836144939,0.752701934338
1565344949614814653,100045,1565344949554326988,map,2.60885620117,0.228569030762,0.0,0.0,0.0,-0.663776633018,0.747930866765
1565344949681981893,100046,1565344949621134071,map,2.61386680603,0.217656135559,0.0,0.0,0.0,-0.668881336583,0.743369193315
1565344949747651476,100047,1565344949687028394,map,2.61993694305,0.205454826355,0.0,0.0,0.0,-0.674676179954,0.738113847725
1565344949815255226,100048,1565344949753921571,map,2.62487030029,0.193163871765,0.0,0.0,0.0,-0.681193747477,0.732103188354
1565344949880191580,100049,1565344949820337561,map,2.63108348846,0.181791305542,0.0,0.0,0.0,-0.689017300946,0.724744892357
1565344949947376372,100050,1565344949886911207,map,2.63708019257,0.170600891113,0.0,0.0,0.0,-0.697676268126,0.716413166332
1565344950014858612,100051,1565344949953555946,map,2.64211368561,0.157315254211,0.0,0.0,0.0,-0.7071775998,0.70703595548
1565344950080720174,100052,1565344950020328759,map,2.64687347412,0.144513130188,0.0,0.0,0.0,-0.7175211072,0.696536761932
1565344950147610382,100053,1565344950087180165,map,2.65317058563,0.130457878113,0.0,0.0,0.0,-0.728685095053,0.684848911985
1565344950217083716,100054,1565344950153705113,map,2.65742588043,0.11675453186,0.0,0.0,0.0,-0.738487752434,0.674266890412
1565344950280387987,100055,1565344950220455686,map,2.66149234772,0.104377746582,0.0,0.0,0.0,-0.747553649431,0.664201431211
1565344950347529809,100056,1565344950287066259,map,2.66454601288,0.0929107666016,0.0,0.0,0.0,-0.755823963754,0.654774874148
1565344950413847778,100057,1565344950353950009,map,2.66836643219,0.0787906646729,0.0,0.0,0.0,-0.764441196149,0.644693460205
1565344950480037570,100058,1565344950420499175,map,2.67076396942,0.06578540802,0.0,0.0,0.0,-0.772068709366,0.635539068837
1565344950549287101,100059,1565344950487156467,map,2.6732301712,0.0529356002808,0.0,0.0,0.0,-0.77928981608,0.626663691747
1565344950613962466,100060,1565344950553803654,map,2.67514133453,0.0395917892456,0.0,0.0,0.0,-0.78610174011,0.618097123595
1565344950681716111,100061,1565344950621338550,map,2.67714500427,0.0257720947266,0.0,0.0,0.0,-0.792514111424,0.609853575208
1565344950747212778,100062,1565344950687094227,map,2.68051147461,0.0117015838623,0.0,0.0,0.0,-0.798900271618,0.601463511785
1565344950815842986,100063,1565344950754280633,map,2.68058872223,-0.00234031677246,0.0,0.0,0.0,-0.805120269333,0.593111584703
1565344950881423611,100064,1565344950821019852,map,2.68418598175,-0.0155992507935,0.0,0.0,0.0,-0.81091379476,0.585165632507
1565344950947485018,100065,1565344950887705946,map,2.68600177765,-0.0300416946411,0.0,0.0,0.0,-0.816799223469,0.576922029862
1565344951015274601,100066,1565344950954573394,map,2.68748950958,-0.0441036224365,0.0,0.0,0.0,-0.821731435844,0.569874940092
1565344951082071320,100067,1565344951021346831,map,2.68935108185,-0.0576314926147,0.0,0.0,0.0,-0.825601108904,0.564254205989
1565344951147767257,100068,1565344951087411987,map,2.690366745,-0.0719423294067,0.0,0.0,0.0,-0.828521334536,0.559957496796
1565344951214682309,100069,1565344951153940008,map,2.69202518463,-0.0863513946533,0.0,0.0,0.0,-0.83007292948,0.557654850015
1565344951280850747,100070,1565344951220569435,map,2.69188022614,-0.101320266724,0.0,0.0,0.0,-0.831188883753,0.55599014337
1565344951347635538,100071,1565344951287147091,map,2.69231128693,-0.115187644958,0.0,0.0,0.0,-0.832712687234,0.553705319209
1565344951413936892,100072,1565344951353709487,map,2.69211292267,-0.129470825195,0.0,0.0,0.0,-0.83440396918,0.551153350908
1565344951480445278,100073,1565344951420398758,map,2.69074821472,-0.143908500671,0.0,0.0,0.0,-0.836048712718,0.548655219571
1565344951547290278,100074,1565344951487031466,map,2.69199085236,-0.159013748169,0.0,0.0,0.0,-0.836782067591,0.547536091375
1565344951615705538,100075,1565344951553983810,map,2.69048309326,-0.174640655518,0.0,0.0,0.0,-0.83682292515,0.547473644975
1565344951681036267,100076,1565344951620472248,map,2.690574646,-0.190194129944,0.0,0.0,0.0,-0.837372156248,0.546633215183
1565344951747572101,100077,1565344951686976102,map,2.68950653076,-0.204809188843,0.0,0.0,0.0,-0.838015523318,0.545646389779
1565344951814795069,100078,1565344951753904852,map,2.68672657013,-0.218771934509,0.0,0.0,0.0,-0.839047083214,0.544058813135
1565344951880382569,100079,1565344951820569383,map,2.68608665466,-0.233726501465,0.0,0.0,0.0,-0.840045240547,0.542516353517
1565344951946793298,100080,1565344951887267456,map,2.68489360809,-0.248260498047,0.0,0.0,0.0,-0.841173384071,0.54076551104
1565344952013339600,100081,1565344951953789070,map,2.68318462372,-0.263016700745,0.0,0.0,0.0,-0.842367492018,0.538903524196
1565344952080928871,100082,1565344952020390841,map,2.68005371094,-0.277651786804,0.0,0.0,0.0,-0.844675513806,0.535278690382
1565344952146758507,100083,1565344952086962820,map,2.67729949951,-0.292531013489,0.0,0.0,0.0,-0.848582781625,0.529062626471
1565344952214182725,100084,1565344952153575581,map,2.67296409607,-0.306612968445,0.0,0.0,0.0,-0.85355859843,0.520996851283
1565344952281191996,100085,1565344952220748862,map,2.66886234283,-0.320287704468,0.0,0.0,0.0,-0.859238010427,0.511576036809
1565344952348256007,100086,1565344952287772560,map,2.66509246826,-0.33313369751,0.0,0.0,0.0,-0.865188851021,0.501446160688
1565344952417919444,100087,1565344952354085216,map,2.66129112244,-0.349695205688,0.0,0.0,0.0,-0.872321592703,0.488932550464
1565344952480197569,100088,1565344952420396622,map,2.65718078613,-0.363492965698,0.0,0.0,0.0,-0.879616656118,0.475683233128
1565344952546488819,100089,1565344952486949122,map,2.65244579315,-0.377596855164,0.0,0.0,0.0,-0.887243074077,0.46130220843
1565344952614205590,100090,1565344952554103810,map,2.64773654938,-0.391560554504,0.0,0.0,0.0,-0.894980225644,0.446105812232
1565344952679969913,100091,1565344952620510581,map,2.64309692383,-0.405494689941,0.0,0.0,0.0,-0.902041463279,0.431649393056
1565344952747479444,100092,1565344952687077508,map,2.63890075684,-0.419137001038,0.0,0.0,0.0,-0.908566473023,0.417740307006
1565344952814638246,100093,1565344952753857456,map,2.63373661041,-0.43080329895,0.0,0.0,0.0,-0.914379742526,0.404857612572
1565344952880001892,100094,1565344952820626258,map,2.62835502625,-0.443691253662,0.0,0.0,0.0,-0.920334074873,0.391133213405
1565344952946657829,100095,1565344952887131830,map,2.62349510193,-0.45611000061,0.0,0.0,0.0,-0.925583416493,0.378543708327
1565344953013343611,100096,1565344952953791362,map,2.61869812012,-0.469345092773,0.0,0.0,0.0,-0.930770555135,0.365603848028
1565344953080081735,100097,1565344953020697143,map,2.61369132996,-0.481857299805,0.0,0.0,0.0,-0.935711089068,0.352767285608
1565344953146461996,100098,1565344953087012039,map,2.60781574249,-0.494697570801,0.0,0.0,0.0,-0.940784268809,0.339005840012
1565344953216374548,100099,1565344953153713393,map,2.60126495361,-0.507140159607,0.0,0.0,0.0,-0.946081004619,0.323930135522
1565344953279771162,100100,1565344953220304903,map,2.59449291229,-0.519495010376,0.0,0.0,0.0,-0.951549451754,0.307495757478
1565344953347915173,100101,1565344953287715789,map,2.58748912811,-0.532068252563,0.0,0.0,0.0,-0.957193117172,0.289450058627
1565344953413159652,100102,1565344953353575893,map,2.57975101471,-0.543208122253,0.0,0.0,0.0,-0.962712710843,0.270525851596
1565344953479793402,100103,1565344953420435841,map,2.57210826874,-0.555093765259,0.0,0.0,0.0,-0.968133204188,0.250435818021
1565344953546393923,100104,1565344953486990476,map,2.56415557861,-0.565296173096,0.0,0.0,0.0,-0.972848672369,0.231442132444
1565344953613396579,100105,1565344953553712664,map,2.55646324158,-0.575180053711,0.0,0.0,0.0,-0.976951770768,0.213460154578
1565344953681056319,100106,1565344953620934330,map,2.54824638367,-0.584371566772,0.0,0.0,0.0,-0.980518329475,0.196427608966
1565344953747142777,100107,1565344953687761466,map,2.5402173996,-0.594058990479,0.0,0.0,0.0,-0.98370779943,0.179774762804
1565344953814448454,100108,1565344953754615476,map,2.5305185318,-0.602767944336,0.0,0.0,0.0,-0.986461294437,0.163994251658
1565344953881584704,100109,1565344953821158080,map,2.52203083038,-0.611715316772,0.0,0.0,0.0,-0.988868961152,0.148789037467
1565344953947522256,100110,1565344953887663913,map,2.51078033447,-0.61981678009,0.0,0.0,0.0,-0.990927520116,0.13439735815
1565344954015644183,100111,1565344953955687038,map,2.50479602814,-0.628023147583,0.0,0.0,0.0,-0.992767453471,0.120053252055
1565344954080081943,100112,1565344954020932090,map,2.4961271286,-0.636457443237,0.0,0.0,0.0,-0.994522647253,0.104521309316
1565344954146714548,100113,1565344954087227820,map,2.48767662048,-0.644511222839,0.0,0.0,0.0,-0.996076585144,0.0884954039896
1565344954214794183,100114,1565344954154639486,map,2.47739887238,-0.652626037598,0.0,0.0,0.0,-0.997508132515,0.0705515808902
1565344954279448245,100115,1565344954220335580,map,2.46842193604,-0.660217285156,0.0,0.0,0.0,-0.998674147694,0.0514776332804
1565344954346409235,100116,1565344954287160267,map,2.45830821991,-0.66734790802,0.0,0.0,0.0,-0.999517075323,0.0310743646363
1565344954414602620,100117,1565344954354256569,map,2.44815158844,-0.673819541931,0.0,0.0,0.0,-0.99993726567,0.0112011037348
1565344954482331527,100118,1565344954420958601,map,2.43929100037,-0.678546905518,0.0,0.0,0.0,0.999976563603,0.00684633072115
1565344954547006787,100119,1565344954487473861,map,2.42913532257,-0.682948112488,0.0,0.0,0.0,0.999718188081,0.0237390905301
1565344954612929339,100120,1565344954553820476,map,2.41927146912,-0.686643600464,0.0,0.0,0.0,0.999210307414,0.039733632583
1565344954681236422,100121,1565344954620493392,map,2.40730381012,-0.68984413147,0.0,0.0,0.0,0.998403631151,0.0564817608099
1565344954745829808,100122,1565344954687046517,map,2.3978729248,-0.692435264587,0.0,0.0,0.0,0.997433495285,0.0715990396828
1565344954813026683,100123,1565344954753977246,map,2.38833332062,-0.694814682007,0.0,0.0,0.0,0.996291116079,0.0860465689114
1565344954879911266,100124,1565344954820598496,map,2.37618255615,-0.698934555054,0.0,0.0,0.0,0.994942425823,0.100446848125
1565344954946935641,100125,1565344954887096986,map,2.36525821686,-0.701639175415,0.0,0.0,0.0,0.993551580678,0.113381023688
1565344955013038922,100126,1565344954953747715,map,2.35673332214,-0.704612731934,0.0,0.0,0.0,0.99208008942,0.125606911336
1565344955080855641,100127,1565344955021022507,map,2.345662117,-0.708078384399,0.0,0.0,0.0,0.990407510883,0.138177286076
1565344955147151943,100128,1565344955087623444,map,2.33380413055,-0.712404251099,0.0,0.0,0.0,0.988617902604,0.150448139408
1565344955214895745,100129,1565344955154222923,map,2.32238292694,-0.715315818787,0.0,0.0,0.0,0.986804065255,0.16191892044
1565344955280068453,100130,1565344955220470892,map,2.31155204773,-0.717133522034,0.0,0.0,0.0,0.984979633635,0.1726705572
1565344955346864235,100131,1565344955287059590,map,2.30252838135,-0.71839427948,0.0,0.0,0.0,0.98323230848,0.182357417073
1565344955413063766,100132,1565344955353640684,map,2.2886838913,-0.719732284546,0.0,0.0,0.0,0.981154903381,0.193222813279
1565344955479490641,100133,1565344955420351934,map,2.27963542938,-0.720777511597,0.0,0.0,0.0,0.979288022059,0.202472145868
1565344955546235589,100134,1565344955487162819,map,2.2686662674,-0.72075843811,0.0,0.0,0.0,0.977360440649,0.21158111696
1565344955613073401,100135,1565344955553814069,map,2.2570810318,-0.719827651978,0.0,0.0,0.0,0.975233675616,0.221177028519
1565344955679892932,100136,1565344955620689642,map,2.24387836456,-0.720049858093,0.0,0.0,0.0,0.972916198947,0.23115810569
1565344955745843141,100137,1565344955686990475,map,2.23328399658,-0.720388412476,0.0,0.0,0.0,0.970635356458,0.240555616839
1565344955812952724,100138,1565344955754175788,map,2.22104930878,-0.716820716858,0.0,0.0,0.0,0.968482656079,0.249081000627
1565344955879323662,100139,1565344955820495111,map,2.20915794373,-0.719741821289,0.0,0.0,0.0,0.965915452693,0.258857756787
1565344955945867776,100140,1565344955886963392,map,2.19703388214,-0.717832565308,0.0,0.0,0.0,0.963598149887,0.267354830765
1565344956012511005,100141,1565344955953680527,map,2.18672657013,-0.715393066406,0.0,0.0,0.0,0.961358327458,0.275300138445
1565344956079355120,100142,1565344956020376100,map,2.1744184494,-0.714267730713,0.0,0.0,0.0,0.958918440218,0.283681908146
1565344956146133088,100143,1565344956087037558,map,2.1640958786,-0.711898803711,0.0,0.0,0.0,0.95656867484,0.291507067351
1565344956212737099,100144,1565344956153795058,map,2.1524887085,-0.708721160889,0.0,0.0,0.0,0.954268308214,0.298951494292
1565344956279542411,100145,1565344956220580423,map,2.14083957672,-0.705721855164,0.0,0.0,0.0,0.951812807594,0.306679603658
1565344956346071578,100146,1565344956287024902,map,2.12920379639,-0.702157974243,0.0,0.0,0.0,0.949297608037,0.314378834172
1565344956414778818,100147,1565344956353729017,map,2.11876487732,-0.699945449829,0.0,0.0,0.0,0.946793550133,0.32184153465
1565344956480766422,100148,1565344956420943079,map,2.1065120697,-0.695923805237,0.0,0.0,0.0,0.944315230581,0.329042163397
1565344956547537411,100149,1565344956487776204,map,2.09539890289,-0.692413330078,0.0,0.0,0.0,0.941679056673,0.336512338888
1565344956614308297,100150,1565344956554206204,map,2.08423709869,-0.689133644104,0.0,0.0,0.0,0.938991457041,0.343940465202
1565344956681664599,100151,1565344956621077142,map,2.07284641266,-0.684541702271,0.0,0.0,0.0,0.936353489382,0.351058603258
1565344956749696942,100152,1565344956687152767,map,2.06253814697,-0.680025100708,0.0,0.0,0.0,0.933623131304,0.3582566799
1565344956813843713,100153,1565344956753835162,map,2.05098247528,-0.674035072327,0.0,0.0,0.0,0.931033905453,0.364932688173
1565344956881955224,100154,1565344956821236829,map,2.04078197479,-0.668989181519,0.0,0.0,0.0,0.928335002468,0.371744701634
1565344956950112047,100155,1565344956887160891,map,2.02907276154,-0.66420173645,0.0,0.0,0.0,0.925525734817,0.378684716078
1565344957014043088,100156,1565344956953982506,map,2.01712322235,-0.657175064087,0.0,0.0,0.0,0.922818274089,0.385235555221
1565344957080463036,100157,1565344957020454016,map,2.00676822662,-0.651864051819,0.0,0.0,0.0,0.919877019456,0.39220692125
1565344957147406369,100158,1565344957087375891,map,1.99616718292,-0.645112037659,0.0,0.0,0.0,0.917376453698,0.398020655495
1565344957215030432,100159,1565344957153938183,map,1.9855556488,-0.639533042908,0.0,0.0,0.0,0.914427854068,0.404748934161
1565344957282044651,100160,1565344957221483548,map,1.9757900238,-0.633275032043,0.0,0.0,0.0,0.91177156518,0.410697714785
1565344957347718036,100161,1565344957287140735,map,1.96503162384,-0.628045082092,0.0,0.0,0.0,0.909162033333,0.416442549634
1565344957416111994,100162,1565344957353763443,map,1.95484256744,-0.622650146484,0.0,0.0,0.0,0.907538585773,0.419968707565
1565344957481001473,100163,1565344957420620370,map,1.94463825226,-0.61615562439,0.0,0.0,0.0,0.90689304135,0.421360904156
1565344957546657359,100164,1565344957487143600,map,1.9335231781,-0.610136032104,0.0,0.0,0.0,0.906704084952,0.421767355697
1565344957615241786,100165,1565344957553870891,map,1.92015838623,-0.605253219604,0.0,0.0,0.0,0.905650803252,0.424024318369
1565344957682481473,100166,1565344957621162922,map,1.91008472443,-0.59805393219,0.0,0.0,0.0,0.905222203178,0.424938540113
1565344957749300015,100167,1565344957688655943,map,1.89804172516,-0.592401504517,0.0,0.0,0.0,0.904150078584,0.427214975624
1565344957818606473,100168,1565344957755290891,map,1.88734531403,-0.585343360901,0.0,0.0,0.0,0.903319524346,0.428968340247
1565344957883067515,100169,1565344957821802818,map,1.87611865997,-0.579145431519,0.0,0.0,0.0,0.902752651247,0.430160029136
1565344957948493192,100170,1565344957887660110,map,1.86420440674,-0.572688102722,0.0,0.0,0.0,0.901974095585,0.431790146824
1565344958014080119,100171,1565344957954543443,map,1.85294818878,-0.564610481262,0.0,0.0,0.0,0.901293065558,0.433209891366
1565344958080821421,100172,1565344958020454641,map,1.841796875,-0.557538032532,0.0,0.0,0.0,0.900441241275,0.434977667256
1565344958146480848,100173,1565344958086967818,map,1.82900810242,-0.550659179688,0.0,0.0,0.0,0.89902860398,0.437889905371
1565344958213080952,100174,1565344958153632297,map,1.81775951385,-0.544686317444,0.0,0.0,0.0,0.898095576035,0.439800336865
1565344958279709234,100175,1565344958220374381,map,1.80616283417,-0.53776550293,0.0,0.0,0.0,0.896864892482,0.442304606163
1565344958346506577,100176,1565344958287065110,map,1.79442882538,-0.530681610107,0.0,0.0,0.0,0.896138905848,0.443773660131
1565344958413408348,100177,1565344958353763235,map,1.78320121765,-0.523038864136,0.0,0.0,0.0,0.894958473978,0.446149447894
1565344958481021890,100178,1565344958420698495,map,1.77157878876,-0.51581287384,0.0,0.0,0.0,0.893913175444,0.448240153007
1565344958546485848,100179,1565344958487016307,map,1.75998210907,-0.509559631348,0.0,0.0,0.0,0.892687273069,0.450676638512
1565344958613454702,100180,1565344958553741932,map,1.74765014648,-0.502121925354,0.0,0.0,0.0,0.891258301899,0.453496019052
1565344958680867358,100181,1565344958620585735,map,1.73553562164,-0.495374679565,0.0,0.0,0.0,0.890132290857,0.455702210631
1565344958747701212,100182,1565344958687649484,map,1.72487354279,-0.486909866333,0.0,0.0,0.0,0.889273593767,0.457375639305
1565344958813573452,100183,1565344958753812089,map,1.7128534317,-0.478878974915,0.0,0.0,0.0,0.88807162437,0.459705111989
1565344958880838192,100184,1565344958820507089,map,1.70046234131,-0.471823692322,0.0,0.0,0.0,0.887056525385,0.461660828717
1565344958947828035,100185,1565344958887028287,map,1.68932819366,-0.463975906372,0.0,0.0,0.0,0.886146302784,0.463405578367
1565344959020220744,100186,1565344958953753859,map,1.67798709869,-0.456550598145,0.0,0.0,0.0,0.884925206752,0.465733162288
1565344959082924754,100187,1565344959020503911,map,1.66658496857,-0.449087142944,0.0,0.0,0.0,0.88498838005,0.465613108897
1565344959148820900,100188,1565344959087131516,map,1.65473651886,-0.441213607788,0.0,0.0,0.0,0.886067680314,0.463555892966
1565344959213714806,100189,1565344959153956880,map,1.64315032959,-0.434423446655,0.0,0.0,0.0,0.8867866511,0.462179007994
1565344959281329546,100190,1565344959221063911,map,1.63011264801,-0.426726341248,0.0,0.0,0.0,0.88669947341,0.462346238067
1565344959347239806,100191,1565344959287477505,map,1.61919403076,-0.419538497925,0.0,0.0,0.0,0.887010732518,0.461748806601
1565344959416228764,100192,1565344959354144536,map,1.60686206818,-0.412057876587,0.0,0.0,0.0,0.88717905542,0.461425317494
1565344959481107931,100193,1565344959420591984,map,1.59501457214,-0.403348922729,0.0,0.0,0.0,0.887544402971,0.46072218609
1565344959546603712,100194,1565344959486955995,map,1.58292102814,-0.396020889282,0.0,0.0,0.0,0.887695062452,0.460431836539
1565344959616817566,100195,1565344959553793963,map,1.57073402405,-0.388589859009,0.0,0.0,0.0,0.887885227623,0.460065019936
1565344959680812410,100196,1565344959620364120,map,1.55908203125,-0.380136489868,0.0,0.0,0.0,0.887766515612,0.460294051403
1565344959746690848,100197,1565344959687073338,map,1.54666423798,-0.37157535553,0.0,0.0,0.0,0.88752484981,0.460759851735
1565344959818558973,100198,1565344959753994588,map,1.53469276428,-0.362454414368,0.0,0.0,0.0,0.88771943137,0.460384851149
1565344959883471004,100199,1565344959820503859,map,1.52420520782,-0.355292320251,0.0,0.0,0.0,0.888365614932,0.459136727137
1565344959948302931,100200,1565344959887150942,map,1.51250648499,-0.347296714783,0.0,0.0,0.0,0.890356757912,0.455263488147
1565344960016813608,100201,1565344959953856567,map,1.50117015839,-0.339043617249,0.0,0.0,0.0,0.892398533985,0.451248109738
1565344960082375691,100202,1565344960020533494,map,1.48820018768,-0.329969406128,0.0,0.0,0.0,0.894115814085,0.447835808084
1565344960147927202,100203,1565344960087269015,map,1.47657966614,-0.322828292847,0.0,0.0,0.0,0.895244638519,0.445574951273
1565344960213759285,100204,1565344960154083911,map,1.46409034729,-0.314167022705,0.0,0.0,0.0,0.896261445464,0.443526122539
1565344960282396264,100205,1565344960220584067,map,1.45170021057,-0.304839134216,0.0,0.0,0.0,0.897360908306,0.441297405662
1565344960348931316,100206,1565344960287039848,map,1.4391374588,-0.297044754028,0.0,0.0,0.0,0.898683540737,0.438597644326
1565344960413777618,100207,1565344960353644796,map,1.4261302948,-0.287755012512,0.0,0.0,0.0,0.899654871138,0.436601778327
1565344960480628764,100208,1565344960420550526,map,1.41340065002,-0.278952598572,0.0,0.0,0.0,0.900287854894,0.435295047446
1565344960546726889,100209,1565344960486982869,map,1.40027046204,-0.270034790039,0.0,0.0,0.0,0.900923389842,0.433978162626
1565344960613105847,100210,1565344960553578494,map,1.38741111755,-0.261184692383,0.0,0.0,0.0,0.901050513897,0.433714158641
1565344960680350378,100211,1565344960620867348,map,1.37446117401,-0.252788543701,0.0,0.0,0.0,0.901421048313,0.432943522481
1565344960747152618,100212,1565344960687629171,map,1.36168384552,-0.243927955627,0.0,0.0,0.0,0.901653476924,0.432459255365
1565344960813955691,100213,1565344960754277765,map,1.3488740921,-0.234063148499,0.0,0.0,0.0,0.902537833332,0.430610565829
1565344960882235899,100214,1565344960820506984,map,1.33685493469,-0.227133750916,0.0,0.0,0.0,0.902874966593,0.429903238765
1565344960947072618,100215,1565344960887204432,map,1.32453727722,-0.217378616333,0.0,0.0,0.0,0.903437718806,0.428719358368
1565344961013386472,100216,1565344960953678025,map,1.31204509735,-0.208395957947,0.0,0.0,0.0,0.903615188193,0.428345178177
1565344961081081941,100217,1565344961020714223,map,1.29976081848,-0.199106216431,0.0,0.0,0.0,0.903588889187,0.428400652822
1565344961147674857,100218,1565344961087030890,map,1.28701591492,-0.190536499023,0.0,0.0,0.0,0.903682171435,0.428203845184
1565344961216523451,100219,1565344961153838286,map,1.27476978302,-0.181451797485,0.0,0.0,0.0,0.903719074247,0.428125956749
1565344961280612149,100220,1565344961220400942,map,1.26099205017,-0.172909736633,0.0,0.0,0.0,0.903871922233,0.427803165251
1565344961347477878,100221,1565344961287161150,map,1.24827289581,-0.164331436157,0.0,0.0,0.0,0.904047942131,0.427431068511
1565344961414556420,100222,1565344961353817817,map,1.23574256897,-0.155511856079,0.0,0.0,0.0,0.904230019698,0.427045748694
1565344961480835222,100223,1565344961420657661,map,1.22214221954,-0.146649360657,0.0,0.0,0.0,0.904263921456,0.426973957464
1565344961547103920,100224,1565344961487121202,map,1.20913982391,-0.137568473816,0.0,0.0,0.0,0.90429221946,0.426914021584
1565344961613604961,100225,1565344961553799431,map,1.19566059113,-0.128820419312,0.0,0.0,0.0,0.904422715464,0.426637494546
1565344961680426107,100226,1565344961620721202,map,1.18300151825,-0.120321273804,0.0,0.0,0.0,0.904503971979,0.426465197494
1565344961746916211,100227,1565344961687051931,map,1.17003917694,-0.112628936768,0.0,0.0,0.0,0.904626049246,0.426206183701
1565344961817242618,100228,1565344961754428442,map,1.15790367126,-0.104683876038,0.0,0.0,0.0,0.90480242698,0.42583161946
1565344961881300013,100229,1565344961820593285,map,1.14659404755,-0.0968379974365,0.0,0.0,0.0,0.904683301401,0.426084644369
1565344961947660951,100230,1565344961887405212,map,1.13602638245,-0.0897560119629,0.0,0.0,0.0,0.904589311893,0.426284150314
1565344962014629597,100231,1565344961953850369,map,1.12607765198,-0.0832319259644,0.0,0.0,0.0,0.904675225112,0.42610179191
1565344962081767774,100232,1565344962021004535,map,1.11527252197,-0.0781307220459,0.0,0.0,0.0,0.904574167847,0.426316285009
1565344962148372565,100233,1565344962087751098,map,1.10573768616,-0.0721778869629,0.0,0.0,0.0,0.9044276996,0.426626928589
1565344962216030951,100234,1565344962154658546,map,1.09682178497,-0.0677013397217,0.0,0.0,0.0,0.904218463292,0.427070217462
1565344962281360742,100235,1565344962220600994,map,1.08730125427,-0.0616664886475,0.0,0.0,0.0,0.904131590875,0.427254100485
1565344962347296524,100236,1565344962287170681,map,1.07791137695,-0.0565557479858,0.0,0.0,0.0,0.903699577332,0.428167109818
1565344962415286732,100237,1565344962354425316,map,1.0686750412,-0.0519256591797,0.0,0.0,0.0,0.903434192369,0.428726789527
1565344962480763399,100238,1565344962420576931,map,1.05907154083,-0.0472850799561,0.0,0.0,0.0,0.903398617941,0.428801745684
1565344962547103242,100239,1565344962487139639,map,1.05053520203,-0.0414924621582,0.0,0.0,0.0,0.902874556605,0.429904099813
1565344962614463867,100240,1565344962554249535,map,1.041223526,-0.0356502532959,0.0,0.0,0.0,0.90222569864,0.431264175087
1565344962682016367,100241,1565344962620709743,map,1.03172302246,-0.0304403305054,0.0,0.0,0.0,0.901579639661,0.432613168257
1565344962748618294,100242,1565344962687096306,map,1.02321147919,-0.0247020721436,0.0,0.0,0.0,0.900820568657,0.434191551144
1565344962815559805,100243,1565344962753857712,map,1.01350593567,-0.0188875198364,0.0,0.0,0.0,0.900194533813,0.435488003616
1565344962880541471,100244,1565344962820537452,map,1.00349140167,-0.0135011672974,0.0,0.0,0.0,0.899523047184,0.436873308391
1565344962948782982,100245,1565344962887128441,map,0.993272781372,-0.00646686553955,0.0,0.0,0.0,0.898552474644,0.438866096106
1565344963015561940,100246,1565344962953840733,map,0.982385635376,0.000589370727539,0.0,0.0,0.0,0.897665707874,0.440677066463
1565344963080031732,100247,1565344963020507452,map,0.970990180969,0.00815296173096,0.0,0.0,0.0,0.896750181508,0.442537130607
1565344963146930065,100248,1565344963087349379,map,0.959317207336,0.0164079666138,0.0,0.0,0.0,0.895765153791,0.444527602352
1565344963213863346,100249,1565344963153941045,map,0.946943283081,0.0244398117065,0.0,0.0,0.0,0.895383760536,0.445295319275
1565344963281326992,100250,1565344963220878910,map,0.935137748718,0.03342628479,0.0,0.0,0.0,0.894560985893,0.446945905583
1565344963347656679,100251,1565344963287430212,map,0.923350334167,0.0426149368286,0.0,0.0,0.0,0.893872615083,0.448321032302
1565344963414781471,100252,1565344963353912191,map,0.912419319153,0.05042552948,0.0,0.0,0.0,0.893168728063,0.449721717522
1565344963481616523,100253,1565344963420970524,map,0.901420593262,0.0581073760986,0.0,0.0,0.0,0.892751089229,0.450550211054
1565344963547980117,100254,1565344963487738545,map,0.89121055603,0.0650177001953,0.0,0.0,0.0,0.892271224331,0.45149979206
1565344963615771211,100255,1565344963554324639,map,0.882992744446,0.0717115402222,0.0,0.0,0.0,0.891708891436,0.452609382287
1565344963681095794,100256,1565344963620558545,map,0.874217033386,0.0787220001221,0.0,0.0,0.0,0.891182550095,0.453644863749
1565344963747949596,100257,1565344963687291983,map,0.865916252136,0.0859603881836,0.0,0.0,0.0,0.890422037536,0.455135798494
1565344963813968138,100258,1565344963754074743,map,0.857164382935,0.0927047729492,0.0,0.0,0.0,0.890021063257,0.455919408403
1565344963881068138,100259,1565344963820744118,map,0.848734855652,0.0991487503052,0.0,0.0,0.0,0.889496543338,0.456941899358
1565344963946903919,100260,1565344963887196774,map,0.839223861694,0.107130050659,0.0,0.0,0.0,0.88868996178,0.458508616966
1565344964013902929,100261,1565344963954040941,map,0.828882217407,0.115389823914,0.0,0.0,0.0,0.887969453159,0.459902435584
1565344964080426679,100262,1565344964020548649,map,0.818288803101,0.125070571899,0.0,0.0,0.0,0.887105941067,0.461565866723
1565344964147601679,100263,1565344964087407295,map,0.807307243347,0.134130477905,0.0,0.0,0.0,0.886486411255,0.462754624678
1565344964213554075,100264,1565344964153919899,map,0.795511245728,0.144002914429,0.0,0.0,0.0,0.886065856721,0.46355937867
1565344964281033190,100265,1565344964220940941,map,0.784509658813,0.155921936035,0.0,0.0,0.0,0.885206973733,0.46519739214
1565344964346707617,100266,1565344964287270368,map,0.772993087769,0.165613174438,0.0,0.0,0.0,0.884885951168,0.465807742986
1565344964413735533,100267,1565344964354137816,map,0.762738227844,0.176028251648,0.0,0.0,0.0,0.884289405447,0.466939233107
1565344964481811523,100268,1565344964420680420,map,0.75314617157,0.184478759766,0.0,0.0,0.0,0.884204504006,0.467099984046
1565344964546875481,100269,1565344964487385993,map,0.744966506958,0.192805290222,0.0,0.0,0.0,0.884618991045,0.466314529778
1565344964614275950,100270,1565344964554166878,map,0.736185073853,0.200772285461,0.0,0.0,0.0,0.886038943323,0.463610818375
1565344964681961679,100271,1565344964620689691,map,0.728976249695,0.207511901855,0.0,0.0,0.0,0.888089653256,0.459670281593
1565344964746993189,100272,1565344964687481826,map,0.72191619873,0.213908195496,0.0,0.0,0.0,0.890796593059,0.454402277496
1565344964814196835,100273,1565344964754185472,map,0.715092658997,0.218104362488,0.0,0.0,0.0,0.89390548076,0.448255497977
1565344964881704804,100274,1565344964821631461,map,0.708910942078,0.224329948425,0.0,0.0,0.0,0.897325921998,0.441368541823
1565344964947582200,100275,1565344964888053336,map,0.703022956848,0.229598999023,0.0,0.0,0.0,0.901378568212,0.433031958136
1565344965014571991,100276,1565344964954724534,map,0.695651054382,0.234616279602,0.0,0.0,0.0,0.905847033195,0.423604948569
1565344965082607148,100277,1565344965021611305,map,0.68923664093,0.240621566772,0.0,0.0,0.0,0.910363624664,0.413809220401
1565344965149749595,100278,1565344965087553180,map,0.681343078613,0.245839118958,0.0,0.0,0.0,0.915370333965,0.402612905526
1565344965214905741,100279,1565344965154219482,map,0.673795700073,0.250126838684,0.0,0.0,0.0,0.920678940524,0.390320750762
1565344965280361470,100280,1565344965220755940,map,0.666902542114,0.255732536316,0.0,0.0,0.0,0.925917573538,0.377725623984
1565344965347025272,100281,1565344965287399534,map,0.659492492676,0.259771347046,0.0,0.0,0.0,0.931594604448,0.363498958683
1565344965414047877,100282,1565344965354238753,map,0.653903007507,0.263223648071,0.0,0.0,0.0,0.937174384179,0.348861252704
1565344965481839231,100283,1565344965420728492,map,0.64790058136,0.267062187195,0.0,0.0,0.0,0.942936644937,0.33297219649
1565344965547241939,100284,1565344965487330055,map,0.64169883728,0.270277023315,0.0,0.0,0.0,0.948639772876,0.316358311598
1565344965614310949,100285,1565344965554426513,map,0.635778427124,0.274429321289,0.0,0.0,0.0,0.954181596993,0.299228140322
