%time,field.linear.x,field.linear.y,field.linear.z,field.angular.x,field.angular.y,field.angular.z
1565344933164525597,1550.0,1550.0,1550.0,1550.0,0.0,0.0
1565344933214228358,1550.0,1550.0,1550.0,1550.0,0.0,0.0
1565344933264241899,1550.0,1550.0,1550.0,1550.0,0.0,0.0
1565344933314299243,1550.0,1550.0,1550.0,1550.0,0.0,0.0
1565344933364247420,1550.0,1550.0,1550.0,1550.0,0.0,0.0
1565344933414269972,1550.0,1550.0,1550.0,1550.0,0.0,0.0
1565344933464267212,1550.0,1550.0,1550.0,1550.0,0.0,0.0
1565344933515066795,1550.0,1550.0,1550.0,1550.0,0.0,0.0
1565344933565804608,1550.0,1550.0,1550.0,1550.0,0.0,0.0
1565344933615377628,1550.0,1550.0,1550.0,1550.0,0.0,0.0
1565344933665788774,1550.0,1550.0,1550.0,1550.0,0.0,0.0
1565344933715167732,1550.0,1550.0,1550.0,1550.0,0.0,0.0
1565344933765631795,1550.0,1550.0,1550.0,1550.0,0.0,0.0
1565344933815335441,1550.0,1550.0,1550.0,1550.0,0.0,0.0
1565344933865202316,1550.0,1550.0,1550.0,1550.0,0.0,0.0
1565344933915159816,1550.0,1550.0,1550.0,1550.0,0.0,0.0
1565344933965213618,1550.0,1550.0,1550.0,1550.0,0.0,0.0
1565344934015296222,1550.0,1550.0,1550.0,1550.0,0.0,0.0
1565344934065624139,1550.0,1550.0,1550.0,1550.0,0.0,0.0
1565344934115281066,1550.0,1550.0,1550.0,1550.0,0.0,0.0
1565344934165357732,1550.0,1550.0,1550.0,1550.0,0.0,0.0
1565344934215438618,1550.0,1550.0,1550.0,1550.0,0.0,0.0
1565344934265400649,1550.0,1550.0,1550.0,1550.0,0.0,0.0
1565344934315319243,1550.0,1550.0,1550.0,1550.0,0.0,0.0
1565344934365525232,1550.0,1550.0,1550.0,1550.0,0.0,0.0
1565344934415398201,1550.0,1550.0,1550.0,1550.0,0.0,0.0
1565344934465587941,1550.0,1550.0,1550.0,1550.0,0.0,0.0
1565344934514920440,1550.0,1550.0,1550.0,1550.0,0.0,0.0
1565344934564861951,1550.0,1550.0,1550.0,1550.0,0.0,0.0
1565344934615632940,1550.0,1550.0,1550.0,1550.0,0.0,0.0
1565344934665357784,1550.0,1550.0,1550.0,1550.0,0.0,0.0
1565344934714957055,1550.0,1550.0,1550.0,1550.0,0.0,0.0
1565344934765038253,1550.0,1550.0,1550.0,1550.0,0.0,0.0
1565344934815133045,1550.0,1550.0,1550.0,1550.0,0.0,0.0
1565344934865411795,1550.0,1550.0,1550.0,1550.0,0.0,0.0
1565344934914952263,1550.0,1550.0,1550.0,1550.0,0.0,0.0
1565344934964948826,1550.0,1550.0,1550.0,1550.0,0.0,0.0
1565344935016166586,1550.0,1550.0,1550.0,1550.0,0.0,0.0
1565344935065074294,1550.0,1550.0,1550.0,1550.0,0.0,0.0
1565344935115084607,1550.0,1550.0,1550.0,1550.0,0.0,0.0
1565344935165063044,1550.0,1550.0,1550.0,1550.0,0.0,0.0
1565344935215651274,1550.0,1550.0,1550.0,1550.0,0.0,0.0
1565344935265225701,1550.0,1550.0,1550.0,1550.0,0.0,0.0
1565344935315083930,1550.0,1550.0,1550.0,1550.0,0.0,0.0
1565344935364940648,1550.0,1550.0,1550.0,1550.0,0.0,0.0
1565344935415442471,1550.0,1550.0,1550.0,1550.0,0.0,0.0
1565344935465125336,1550.0,1550.0,1550.0,1550.0,0.0,0.0
1565344935515218096,1550.0,1550.0,1550.0,1550.0,0.0,0.0
1565344935565093253,1550.0,1550.0,1550.0,1550.0,0.0,0.0
1565344935615949867,1550.0,1550.0,1550.0,1550.0,0.0,0.0
1565344935665492836,1550.0,1550.0,1550.0,1550.0,0.0,0.0
1565344935714949503,1550.0,1550.0,1550.0,1550.0,0.0,0.0
1565344935765195075,1550.0,1550.0,1550.0,1550.0,0.0,0.0
1565344935816263565,1550.0,1550.0,1550.0,1550.0,0.0,0.0
1565344935865174659,1550.0,1550.0,1550.0,1550.0,0.0,0.0
1565344935915188513,1550.0,1550.0,1550.0,1550.0,0.0,0.0
1565344935965840440,1550.0,1550.0,1550.0,1550.0,0.0,0.0
1565344936015021013,1550.0,1550.0,1550.0,1550.0,0.0,0.0
1565344936064915179,1550.0,1550.0,1550.0,1550.0,0.0,0.0
1565344936114973877,1550.0,1550.0,1550.0,1550.0,0.0,0.0
1565344936164833669,1582.71793127,1682.71793127,1550.0,1650.0,0.0,0.0
1565344936215302002,1582.71793127,1682.71793127,1550.0,1650.0,0.0,0.0
1565344936265210804,1567.52613783,1667.52613783,1550.0,1650.0,0.0,0.0
1565344936314724502,1567.52613783,1667.52613783,1550.0,1650.0,0.0,0.0
1565344936364737575,1567.52613783,1667.52613783,1550.0,1650.0,0.0,0.0
1565344936415157523,1557.75700212,1657.75700212,1550.0,1650.0,0.0,0.0
1565344936464908669,1557.75700212,1657.75700212,1550.0,1650.0,0.0,0.0
1565344936514747888,1558.84281844,1658.84281844,1550.0,1650.0,0.0,0.0
1565344936564747211,1558.84281844,1658.84281844,1550.0,1650.0,0.0,0.0
1565344936615220283,1558.84281844,1658.84281844,1550.0,1650.0,0.0,0.0
1565344936665702679,1558.84281844,1658.84281844,1550.0,1650.0,0.0,0.0
1565344936714814033,1558.84281844,1658.84281844,1550.0,1650.0,0.0,0.0
1565344936765024033,1557.75700212,1657.75700212,1550.0,1650.0,0.0,0.0
1565344936815727054,1557.75700212,1657.75700212,1550.0,1650.0,0.0,0.0
1565344936865063408,1557.75700212,1657.75700212,1550.0,1650.0,0.0,0.0
1565344936914878929,1558.84281844,1658.84281844,1550.0,1650.0,0.0,0.0
1565344936965413617,1558.84281844,1658.84281844,1550.0,1650.0,0.0,0.0
1565344937016577887,1558.84281844,1658.84281844,1550.0,1650.0,0.0,0.0
1565344937064963252,1558.84281844,1658.84281844,1550.0,1650.0,0.0,0.0
1565344937115769137,1558.84281844,1658.84281844,1550.0,1650.0,0.0,0.0
1565344937164940544,1558.84281844,1658.84281844,1550.0,1650.0,0.0,0.0
1565344937215225387,1558.84281844,1658.84281844,1550.0,1650.0,0.0,0.0
1565344937264926794,1558.84281844,1658.84281844,1550.0,1650.0,0.0,0.0
1565344937315179606,1557.75700212,1657.75700212,1550.0,1650.0,0.0,0.0
1565344937364970596,1557.75700212,1657.75700212,1550.0,1650.0,0.0,0.0
1565344937415158304,1550.0,1650.0,1550.0,1650.0,0.0,0.0
1565344937465058304,1550.0,1650.0,1550.0,1650.0,0.0,0.0
1565344937515220491,1550.0,1650.0,1550.0,1650.0,0.0,0.0
1565344937564707939,1550.0,1650.0,1550.0,1650.0,0.0,0.0
1565344937616086325,1550.0,1650.0,1550.0,1650.0,0.0,0.0
1565344937664914918,1550.0,1650.0,1550.0,1650.0,0.0,0.0
1565344937715178356,1550.0,1650.0,1550.0,1650.0,0.0,0.0
1565344937765091273,1550.0,1650.0,1550.0,1650.0,0.0,0.0
1565344937815085439,1550.0,1650.0,1550.0,1650.0,0.0,0.0
1565344937864965491,1550.0,1650.0,1550.0,1650.0,0.0,0.0
1565344937915071377,1550.0,1650.0,1550.0,1650.0,0.0,0.0
1565344937965673200,1550.0,1650.0,1550.0,1650.0,0.0,0.0
1565344938015714970,1550.0,1650.0,1550.0,1650.0,0.0,0.0
1565344938065212106,1550.0,1650.0,1550.0,1650.0,0.0,0.0
1565344938115160543,1550.0,1650.0,1550.0,1650.0,0.0,0.0
1565344938165191793,1550.0,1550.0,1550.0,1550.0,0.0,0.0
1565344938215294606,1550.0,1550.0,1550.0,1550.0,0.0,0.0
1565344938265076220,1550.0,1550.0,1550.0,1550.0,0.0,0.0
1565344938315213564,1550.0,1550.0,1550.0,1550.0,0.0,0.0
1565344938364767158,1550.0,1550.0,1550.0,1550.0,0.0,0.0
1565344938415370856,1550.0,1550.0,1550.0,1550.0,0.0,0.0
1565344938465255856,1550.0,1550.0,1550.0,1550.0,0.0,0.0
1565344938515951012,1550.0,1550.0,1550.0,1550.0,0.0,0.0
1565344938566524033,1550.0,1550.0,1550.0,1550.0,0.0,0.0
1565344938615202626,1550.0,1550.0,1550.0,1550.0,0.0,0.0
1565344938664890387,1550.0,1594.57573593,1594.57573593,1550.0,0.0,0.0
1565344938714961064,1550.0,1594.57573593,1594.57573593,1550.0,0.0,0.0
1565344938764984762,1550.0,1600.0,1600.0,1550.0,0.0,0.0
1565344938815258356,1550.0,1600.0,1600.0,1550.0,0.0,0.0
1565344938865082574,1550.0,1600.0,1600.0,1550.0,0.0,0.0
1565344938914984658,1550.0,1600.0,1600.0,1550.0,0.0,0.0
1565344938964916168,1550.0,1600.0,1600.0,1550.0,0.0,0.0
1565344939015445074,1550.0,1600.0,1600.0,1550.0,0.0,0.0
1565344939065311741,1550.0,1600.0,1600.0,1550.0,0.0,0.0
1565344939114770387,1550.0,1600.0,1600.0,1550.0,0.0,0.0
1565344939164999866,1550.0,1600.0,1600.0,1550.0,0.0,0.0
1565344939215528668,1550.0,1600.0,1600.0,1550.0,0.0,0.0
1565344939265291376,1550.0,1600.0,1600.0,1550.0,0.0,0.0
1565344939315257626,1550.0,1600.0,1600.0,1550.0,0.0,0.0
1565344939365105022,1550.0,1600.0,1600.0,1550.0,0.0,0.0
1565344939416160282,1550.0,1600.0,1600.0,1550.0,0.0,0.0
1565344939464943147,1550.0,1600.0,1600.0,1550.0,0.0,0.0
1565344939515056116,1550.0,1600.0,1600.0,1550.0,0.0,0.0
1565344939565355751,1550.0,1600.0,1600.0,1550.0,0.0,0.0
1565344939616038303,1550.0,1550.0,1550.0,1550.0,0.0,0.0
1565344939664877834,1550.0,1550.0,1550.0,1550.0,0.0,0.0
1565344939714912157,1550.0,1550.0,1550.0,1550.0,0.0,0.0
1565344939765097209,1550.0,1550.0,1550.0,1550.0,0.0,0.0
1565344939815057105,1550.0,1550.0,1550.0,1550.0,0.0,0.0
1565344939865785491,1550.0,1550.0,1550.0,1550.0,0.0,0.0
1565344939915024397,1550.0,1550.0,1550.0,1550.0,0.0,0.0
1565344939965143980,1550.0,1550.0,1550.0,1550.0,0.0,0.0
1565344940015974032,1550.0,1550.0,1550.0,1550.0,0.0,0.0
1565344940064972834,1550.0,1550.0,1550.0,1550.0,0.0,0.0
1565344940115452574,1550.0,1550.0,1550.0,1550.0,0.0,0.0
1565344940165181272,1550.0,1550.0,1550.0,1550.0,0.0,0.0
1565344940215472834,1550.0,1550.0,1615.27636051,1615.27636051,0.0,0.0
1565344940265219657,1550.0,1550.0,1615.27636051,1615.27636051,0.0,0.0
1565344940315238980,1550.0,1550.0,1616.36217833,1616.36217833,0.0,0.0
1565344940364985699,1550.0,1550.0,1616.36217833,1616.36217833,0.0,0.0
1565344940415171428,1550.0,1550.0,1616.36217833,1616.36217833,0.0,0.0
1565344940465834605,1550.0,1550.0,1616.36217833,1616.36217833,0.0,0.0
1565344940515041219,1550.0,1550.0,1616.36217833,1616.36217833,0.0,0.0
1565344940565141063,1550.0,1550.0,1614.19375539,1614.19375539,0.0,0.0
1565344940615399240,1550.0,1550.0,1614.19375539,1614.19375539,0.0,0.0
1565344940665168146,1550.0,1550.0,1614.19375539,1614.19375539,0.0,0.0
1565344940714947417,1550.0,1550.0,1630.47136664,1630.47136664,0.0,0.0
1565344940765060386,1550.0,1550.0,1630.47136664,1630.47136664,0.0,0.0
1565344940815293667,1550.0,1550.0,1638.06886673,1638.06886673,0.0,0.0
1565344940865204240,1550.0,1550.0,1638.06886673,1638.06886673,0.0,0.0
1565344940915141376,1550.0,1550.0,1640.23728967,1640.23728967,0.0,0.0
1565344940965148303,1550.0,1550.0,1640.23728967,1640.23728967,0.0,0.0
1565344941015322573,1550.0,1550.0,1640.23728967,1640.23728967,0.0,0.0
1565344941065115021,1550.0,1550.0,1640.23728967,1640.23728967,0.0,0.0
1565344941115101167,1550.0,1550.0,1640.23728967,1640.23728967,0.0,0.0
1565344941165346428,1550.0,1550.0,1640.23728967,1640.23728967,0.0,0.0
1565344941215200282,1550.0,1550.0,1641.32310748,1641.32310748,0.0,0.0
1565344941264989292,1550.0,1550.0,1641.32310748,1641.32310748,0.0,0.0
1565344941314973407,1550.0,1550.0,1641.32310748,1641.32310748,0.0,0.0
1565344941364963771,1550.0,1550.0,1641.32310748,1641.32310748,0.0,0.0
1565344941415271271,1550.0,1550.0,1641.32310748,1641.32310748,0.0,0.0
1565344941464960386,1550.0,1577.21230984,1669.62123513,1642.40892529,0.0,0.0
1565344941515043042,1550.0,1577.21230984,1669.62123513,1642.40892529,0.0,0.0
1565344941565039448,1550.0,1600.0,1692.40892529,1642.40892529,0.0,0.0
1565344941616486323,1550.0,1600.0,1692.40892529,1642.40892529,0.0,0.0
1565344941665614292,1550.0,1566.9034794,1659.31240469,1642.40892529,0.0,0.0
1565344941715015125,1550.0,1566.9034794,1659.31240469,1642.40892529,0.0,0.0
1565344941764924656,1550.0,1570.70223093,1663.11115623,1642.40892529,0.0,0.0
1565344941815622677,1550.0,1570.70223093,1663.11115623,1642.40892529,0.0,0.0
1565344941865157938,1550.0,1570.70223093,1663.11115623,1642.40892529,0.0,0.0
1565344941914942208,1550.0,1578.84103656,1671.24996185,1642.40892529,0.0,0.0
1565344941964887938,1550.0,1600.0,1692.40892529,1642.40892529,0.0,0.0
1565344942015391115,1550.0,1600.0,1692.40892529,1642.40892529,0.0,0.0
1565344942064617521,1550.0,1572.87225723,1665.28118253,1642.40892529,0.0,0.0
1565344942114971427,1550.0,1572.87225723,1665.28118253,1642.40892529,0.0,0.0
1565344942166451427,1550.0,1550.0,1642.40892529,1642.40892529,0.0,0.0
1565344942215401271,1550.0,1550.0,1642.40892529,1642.40892529,0.0,0.0
1565344942264979917,1550.0,1550.0,1642.40892529,1642.40892529,0.0,0.0
1565344942314915802,1550.0,1550.0,1646.7489779,1646.7489779,0.0,0.0
1565344942364950437,1550.0,1550.0,1646.7489779,1646.7489779,0.0,0.0
1565344942415087156,1550.0,1550.0,1646.7489779,1646.7489779,0.0,0.0
1565344942464914292,1550.0,1550.0,1646.7489779,1646.7489779,0.0,0.0
1565344942514804500,1550.0,1550.0,1646.7489779,1646.7489779,0.0,0.0
1565344942565113146,1550.0,1550.0,1646.7489779,1646.7489779,0.0,0.0
1565344942615568927,1550.0,1550.0,1646.7489779,1646.7489779,0.0,0.0
1565344942665228719,1550.0,1550.0,1646.7489779,1646.7489779,0.0,0.0
1565344942714993198,1550.0,1550.0,1646.7489779,1646.7489779,0.0,0.0
1565344942765114760,1550.0,1550.0,1646.7489779,1646.7489779,0.0,0.0
1565344942815200594,1550.0,1550.0,1647.83478975,1647.83478975,0.0,0.0
1565344942865031427,1550.0,1550.0,1647.83478975,1647.83478975,0.0,0.0
1565344942914902573,1550.0,1550.0,1646.7489779,1646.7489779,0.0,0.0
1565344942965040489,1550.0,1550.0,1646.7489779,1646.7489779,0.0,0.0
1565344943015910958,1550.0,1550.0,1646.7489779,1646.7489779,0.0,0.0
1565344943066027468,1550.0,1550.0,1646.7489779,1646.7489779,0.0,0.0
1565344943115487885,1550.0,1550.0,1646.7489779,1646.7489779,0.0,0.0
1565344943164928666,1550.0,1550.0,1646.7489779,1646.7489779,0.0,0.0
1565344943215095750,1550.0,1550.0,1631.55718446,1631.55718446,0.0,0.0
1565344943265064916,1550.0,1550.0,1631.55718446,1631.55718446,0.0,0.0
1565344943314844864,1550.0,1550.0,1588.1470114,1588.1470114,0.0,0.0
1565344943365231895,1550.0,1550.0,1588.1470114,1588.1470114,0.0,0.0
1565344943414997520,1550.0,1550.0,1613.10794353,1613.10794353,0.0,0.0
1565344943464944031,1550.0,1550.0,1613.10794353,1613.10794353,0.0,0.0
1565344943515825854,1552.33434476,1550.0,1650.16913451,1647.83478975,0.0,0.0
1565344943566257052,1552.33434476,1550.0,1650.16913451,1647.83478975,0.0,0.0
1565344943615323614,1552.33434476,1550.0,1652.33434476,1650.0,0.0,0.0
1565344943665170072,1552.33434476,1550.0,1652.33434476,1650.0,0.0,0.0
1565344943715500697,1552.33434476,1550.0,1652.33434476,1650.0,0.0,0.0
1565344943765109812,1552.33434476,1550.0,1652.33434476,1650.0,0.0,0.0
1565344943815609031,1550.0,1550.0,1650.0,1650.0,0.0,0.0
1565344943864970802,1550.0,1550.0,1650.0,1650.0,0.0,0.0
1565344943915194239,1550.0,1550.0,1650.0,1650.0,0.0,0.0
1565344943965155176,1550.0,1550.0,1650.0,1650.0,0.0,0.0
1565344944015768249,1575.5835861,1550.0,1650.0,1675.5835861,0.0,0.0
1565344944065348145,1575.5835861,1550.0,1650.0,1675.5835861,0.0,0.0
1565344944115216999,1575.5835861,1550.0,1650.0,1675.5835861,0.0,0.0
1565344944165393978,1600.0,1550.0,1650.0,1700.0,0.0,0.0
1565344944216535176,1600.0,1550.0,1650.0,1700.0,0.0,0.0
1565344944265438353,1600.0,1550.0,1650.0,1700.0,0.0,0.0
1565344944315888301,1600.0,1550.0,1650.0,1700.0,0.0,0.0
1565344944365029655,1587.52114177,1550.0,1650.0,1687.52114177,0.0,0.0
1565344944415380228,1587.52114177,1550.0,1650.0,1687.52114177,0.0,0.0
1565344944465099135,1600.0,1550.0,1650.0,1700.0,0.0,0.0
1565344944515083093,1600.0,1550.0,1650.0,1700.0,0.0,0.0
1565344944565040385,1600.0,1550.0,1650.0,1700.0,0.0,0.0
1565344944616093353,1550.0,1550.0,1650.0,1650.0,0.0,0.0
1565344944664825020,1550.0,1550.0,1650.0,1650.0,0.0,0.0
1565344944715031947,1550.0,1550.0,1650.0,1650.0,0.0,0.0
1565344944765695801,1550.0,1550.0,1650.0,1650.0,0.0,0.0
1565344944815469030,1550.0,1550.0,1650.0,1650.0,0.0,0.0
1565344944865255749,1550.0,1550.0,1650.0,1650.0,0.0,0.0
1565344944915162937,1550.0,1550.0,1650.0,1650.0,0.0,0.0
1565344944965177312,1550.0,1550.0,1650.0,1650.0,0.0,0.0
1565344945015936686,1550.0,1550.0,1650.0,1650.0,0.0,0.0
1565344945065276218,1550.0,1550.0,1650.0,1650.0,0.0,0.0
1565344945115234603,1557.13434443,1550.0,1650.0,1657.13434443,0.0,0.0
1565344945165269551,1557.13434443,1550.0,1650.0,1657.13434443,0.0,0.0
1565344945215202520,1594.57412958,1550.0,1650.0,1694.57412958,0.0,0.0
1565344945265213093,1594.57412958,1550.0,1650.0,1694.57412958,0.0,0.0
1565344945315141947,1600.0,1550.0,1650.0,1700.0,0.0,0.0
1565344945364950488,1600.0,1550.0,1650.0,1700.0,0.0,0.0
1565344945415265957,1600.0,1550.0,1650.0,1700.0,0.0,0.0
1565344945465196270,1600.0,1550.0,1650.0,1700.0,0.0,0.0
1565344945515054343,1600.0,1550.0,1650.0,1700.0,0.0,0.0
1565344945564949603,1600.0,1550.0,1650.0,1700.0,0.0,0.0
1565344945614972624,1550.0,1550.0,1650.0,1650.0,0.0,0.0
1565344945665156426,1550.0,1550.0,1650.0,1650.0,0.0,0.0
1565344945715157676,1550.0,1550.0,1650.0,1650.0,0.0,0.0
1565344945764662520,1550.0,1550.0,1650.0,1650.0,0.0,0.0
1565344945815213822,1550.0,1550.0,1650.0,1650.0,0.0,0.0
1565344945865028509,1550.0,1550.0,1650.0,1650.0,0.0,0.0
1565344945914914238,1550.0,1550.0,1650.0,1650.0,0.0,0.0
1565344945964640228,1593.48992109,1550.0,1650.0,1693.48992109,0.0,0.0
1565344946015486530,1593.48992109,1550.0,1650.0,1693.48992109,0.0,0.0
1565344946065150801,1600.0,1550.0,1650.0,1700.0,0.0,0.0
1565344946115381374,1600.0,1550.0,1650.0,1700.0,0.0,0.0
1565344946165779915,1600.0,1550.0,1650.0,1700.0,0.0,0.0
1565344946215516790,1600.0,1550.0,1650.0,1700.0,0.0,0.0
1565344946265181842,1600.0,1550.0,1650.0,1700.0,0.0,0.0
1565344946315505332,1600.0,1550.0,1650.0,1700.0,0.0,0.0
1565344946364918457,1600.0,1550.0,1650.0,1700.0,0.0,0.0
1565344946415287207,1600.0,1550.0,1650.0,1700.0,0.0,0.0
1565344946465272259,1550.0,1550.0,1650.0,1650.0,0.0,0.0
1565344946514759967,1550.0,1550.0,1650.0,1650.0,0.0,0.0
1565344946565571321,1550.0,1550.0,1650.0,1650.0,0.0,0.0
1565344946614817623,1550.0,1550.0,1650.0,1650.0,0.0,0.0
1565344946665129134,1550.0,1550.0,1650.0,1650.0,0.0,0.0
1565344946715191946,1559.30437073,1550.0,1650.0,1659.30437073,0.0,0.0
1565344946765068144,1559.30437073,1550.0,1650.0,1659.30437073,0.0,0.0
1565344946815574342,1600.0,1550.0,1650.0,1700.0,0.0,0.0
1565344946865101165,1600.0,1550.0,1650.0,1700.0,0.0,0.0
1565344946915031321,1600.0,1550.0,1650.0,1700.0,0.0,0.0
1565344946965132936,1600.0,1550.0,1650.0,1700.0,0.0,0.0
1565344947015718769,1600.0,1550.0,1650.0,1700.0,0.0,0.0
1565344947064925540,1600.0,1550.0,1650.0,1700.0,0.0,0.0
1565344947115538509,1600.0,1550.0,1650.0,1700.0,0.0,0.0
1565344947164923300,1600.0,1550.0,1650.0,1700.0,0.0,0.0
1565344947214848352,1600.0,1550.0,1650.0,1700.0,0.0,0.0
1565344947265063040,1600.0,1550.0,1650.0,1700.0,0.0,0.0
1565344947315569706,1600.0,1550.0,1650.0,1700.0,0.0,0.0
1565344947364948821,1600.0,1550.0,1650.0,1700.0,0.0,0.0
1565344947414992519,1600.0,1550.0,1650.0,1700.0,0.0,0.0
1565344947464939394,1600.0,1550.0,1650.0,1700.0,0.0,0.0
1565344947514976946,1600.0,1550.0,1650.0,1700.0,0.0,0.0
1565344947564919081,1600.0,1550.0,1650.0,1700.0,0.0,0.0
1565344947615237831,1600.0,1550.0,1650.0,1700.0,0.0,0.0
1565344947664916373,1600.0,1550.0,1650.0,1700.0,0.0,0.0
1565344947715336790,1600.0,1550.0,1650.0,1700.0,0.0,0.0
1565344947765321165,1600.0,1550.0,1650.0,1700.0,0.0,0.0
1565344947815532623,1600.0,1550.0,1650.0,1700.0,0.0,0.0
1565344947865038925,1600.0,1550.0,1650.0,1700.0,0.0,0.0
1565344947915040071,1600.0,1550.0,1650.0,1700.0,0.0,0.0
1565344947964963821,1550.0,1550.0,1650.0,1650.0,0.0,0.0
1565344948016163040,1550.0,1550.0,1650.0,1650.0,0.0,0.0
1565344948065514862,1550.0,1550.0,1650.0,1650.0,0.0,0.0
1565344948114965800,1550.0,1550.0,1650.0,1650.0,0.0,0.0
1565344948165016373,1550.0,1550.0,1650.0,1650.0,0.0,0.0
1565344948215097571,1550.0,1550.0,1650.0,1650.0,0.0,0.0
1565344948265123769,1550.0,1550.0,1650.0,1650.0,0.0,0.0
1565344948315111841,1550.0,1550.0,1650.0,1650.0,0.0,0.0
1565344948364959029,1550.0,1550.0,1650.0,1650.0,0.0,0.0
1565344948415420331,1550.0,1550.0,1650.0,1650.0,0.0,0.0
1565344948464968404,1550.0,1550.0,1650.0,1650.0,0.0,0.0
1565344948515173925,1550.0,1550.0,1650.0,1650.0,0.0,0.0
1565344948565139966,1550.0,1550.0,1650.0,1650.0,0.0,0.0
1565344948615480904,1550.0,1550.0,1650.0,1650.0,0.0,0.0
1565344948665527414,1550.0,1550.0,1650.0,1650.0,0.0,0.0
1565344948715195904,1550.0,1550.0,1650.0,1650.0,0.0,0.0
1565344948764990695,1550.0,1550.0,1650.0,1650.0,0.0,0.0
1565344948815571998,1550.0,1550.0,1650.0,1650.0,0.0,0.0
1565344948865062883,1550.0,1550.0,1650.0,1650.0,0.0,0.0
1565344948914670904,1550.0,1550.0,1650.0,1650.0,0.0,0.0
1565344948965240070,1550.0,1550.0,1650.0,1650.0,0.0,0.0
1565344949016023768,1550.0,1550.0,1650.0,1650.0,0.0,0.0
1565344949065584445,1550.0,1550.0,1650.0,1650.0,0.0,0.0
1565344949115201685,1550.0,1550.0,1650.0,1650.0,0.0,0.0
1565344949165030695,1550.0,1550.0,1650.0,1650.0,0.0,0.0
1565344949215555279,1550.0,1550.0,1650.0,1650.0,0.0,0.0
1565344949264828456,1550.0,1550.0,1650.0,1650.0,0.0,0.0
1565344949314988404,1550.0,1550.0,1650.0,1650.0,0.0,0.0
1565344949365017570,1550.0,1550.0,1650.0,1650.0,0.0,0.0
1565344949415048039,1550.0,1550.0,1650.0,1650.0,0.0,0.0
1565344949466147779,1550.0,1550.0,1650.0,1650.0,0.0,0.0
1565344949514671581,1550.0,1550.0,1650.0,1650.0,0.0,0.0
1565344949565511528,1567.98608303,1550.0,1650.0,1667.98608303,0.0,0.0
1565344949615452258,1567.98608303,1550.0,1650.0,1667.98608303,0.0,0.0
1565344949665108039,1595.6599474,1550.0,1650.0,1695.6599474,0.0,0.0
1565344949715038924,1595.6599474,1550.0,1650.0,1695.6599474,0.0,0.0
1565344949764972101,1599.45869744,1550.0,1650.0,1699.45869744,0.0,0.0
1565344949815341997,1599.45869744,1550.0,1650.0,1699.45869744,0.0,0.0
1565344949865046685,1599.45869744,1550.0,1650.0,1699.45869744,0.0,0.0
1565344949914914393,1590.77698588,1550.0,1650.0,1690.77698588,0.0,0.0
1565344949965230955,1590.77698588,1550.0,1650.0,1690.77698588,0.0,0.0
1565344950015315278,1550.0,1550.0,1650.0,1650.0,0.0,0.0
1565344950064976372,1550.0,1550.0,1650.0,1650.0,0.0,0.0
1565344950114989237,1550.0,1550.0,1650.0,1650.0,0.0,0.0
1565344950165060903,1550.0,1550.0,1650.0,1650.0,0.0,0.0
1565344950215458455,1550.0,1550.0,1650.0,1650.0,0.0,0.0
1565344950265099393,1550.0,1550.0,1650.0,1650.0,0.0,0.0
1565344950315073351,1550.0,1550.0,1650.0,1650.0,0.0,0.0
1565344950365107778,1550.0,1550.0,1650.0,1650.0,0.0,0.0
1565344950415267882,1550.0,1550.0,1650.0,1650.0,0.0,0.0
1565344950465526111,1550.0,1550.0,1650.0,1650.0,0.0,0.0
1565344950515034549,1550.0,1550.0,1650.0,1650.0,0.0,0.0
1565344950565162674,1550.0,1550.0,1650.0,1650.0,0.0,0.0
1565344950615493299,1550.0,1550.0,1650.0,1650.0,0.0,0.0
1565344950665233976,1550.0,1550.0,1650.0,1650.0,0.0,0.0
1565344950715113351,1550.0,1550.0,1650.0,1650.0,0.0,0.0
1565344950765173195,1550.0,1550.0,1650.0,1650.0,0.0,0.0
1565344950815409445,1550.0,1562.56182045,1662.56182045,1650.0,0.0,0.0
1565344950864707257,1550.0,1562.56182045,1662.56182045,1650.0,0.0,0.0
1565344950915059393,1550.0,1600.0,1700.0,1650.0,0.0,0.0
1565344950965039705,1550.0,1600.0,1700.0,1650.0,0.0,0.0
1565344951016207570,1550.0,1600.0,1700.0,1650.0,0.0,0.0
1565344951065096997,1550.0,1600.0,1700.0,1650.0,0.0,0.0
1565344951115098299,1550.0,1550.0,1650.0,1650.0,0.0,0.0
1565344951164980955,1550.0,1550.0,1650.0,1650.0,0.0,0.0
1565344951215684549,1550.0,1550.0,1650.0,1650.0,0.0,0.0
1565344951264647257,1550.0,1550.0,1650.0,1650.0,0.0,0.0
1565344951315172153,1550.0,1550.0,1650.0,1650.0,0.0,0.0
1565344951365091944,1550.0,1598.37448895,1698.37448895,1650.0,0.0,0.0
1565344951415487622,1550.0,1598.37448895,1698.37448895,1650.0,0.0,0.0
1565344951464963611,1550.0,1550.0,1650.0,1650.0,0.0,0.0
1565344951514977674,1550.0,1550.0,1650.0,1650.0,0.0,0.0
1565344951565097934,1550.0,1550.0,1650.0,1650.0,0.0,0.0
1565344951615413038,1550.0,1550.0,1650.0,1650.0,0.0,0.0
1565344951665335799,1550.0,1550.0,1650.0,1650.0,0.0,0.0
1565344951715149705,1550.0,1550.0,1650.0,1650.0,0.0,0.0
1565344951765172726,1550.0,1550.0,1650.0,1650.0,0.0,0.0
1565344951815378976,1550.0,1550.0,1650.0,1650.0,0.0,0.0
1565344951864925017,1600.0,1550.0,1650.0,1700.0,0.0,0.0
1565344951915275590,1600.0,1550.0,1650.0,1700.0,0.0,0.0
1565344951964735382,1600.0,1550.0,1650.0,1700.0,0.0,0.0
1565344952015917569,1600.0,1550.0,1650.0,1700.0,0.0,0.0
1565344952066156423,1600.0,1550.0,1650.0,1700.0,0.0,0.0
1565344952115456319,1600.0,1550.0,1650.0,1700.0,0.0,0.0
1565344952165824236,1600.0,1550.0,1650.0,1700.0,0.0,0.0
1565344952216483975,1600.0,1550.0,1650.0,1700.0,0.0,0.0
1565344952265623871,1600.0,1550.0,1650.0,1700.0,0.0,0.0
1565344952315434184,1600.0,1550.0,1650.0,1700.0,0.0,0.0
1565344952364679757,1600.0,1550.0,1650.0,1700.0,0.0,0.0
1565344952414804079,1600.0,1550.0,1650.0,1700.0,0.0,0.0
1565344952464898350,1550.0,1550.0,1650.0,1650.0,0.0,0.0
1565344952515019444,1550.0,1550.0,1650.0,1650.0,0.0,0.0
1565344952564911215,1550.0,1550.0,1650.0,1650.0,0.0,0.0
1565344952616217413,1550.0,1550.0,1650.0,1650.0,0.0,0.0
1565344952664958350,1550.0,1550.0,1650.0,1650.0,0.0,0.0
1565344952714994965,1550.0,1550.0,1650.0,1650.0,0.0,0.0
1565344952765056736,1550.0,1550.0,1650.0,1650.0,0.0,0.0
1565344952814928350,1550.0,1550.0,1650.0,1650.0,0.0,0.0
1565344952865054965,1564.18893784,1550.0,1650.0,1664.18893784,0.0,0.0
1565344952915018090,1564.18893784,1550.0,1650.0,1664.18893784,0.0,0.0
1565344952965283611,1591.86119437,1550.0,1650.0,1691.86119437,0.0,0.0
1565344953015820642,1591.86119437,1550.0,1650.0,1691.86119437,0.0,0.0
1565344953065155173,1600.0,1550.0,1650.0,1700.0,0.0,0.0
1565344953115094496,1600.0,1550.0,1650.0,1700.0,0.0,0.0
1565344953165184340,1600.0,1550.0,1650.0,1700.0,0.0,0.0
1565344953215323194,1600.0,1550.0,1650.0,1700.0,0.0,0.0
1565344953265138454,1600.0,1550.0,1650.0,1700.0,0.0,0.0
1565344953314895225,1600.0,1550.0,1650.0,1700.0,0.0,0.0
1565344953365041006,1550.0,1550.0,1650.0,1650.0,0.0,0.0
1565344953415457985,1550.0,1550.0,1650.0,1650.0,0.0,0.0
1565344953465813819,1550.0,1550.0,1650.0,1650.0,0.0,0.0
1565344953515194392,1550.0,1550.0,1650.0,1650.0,0.0,0.0
1565344953565017360,1550.0,1550.0,1650.0,1650.0,0.0,0.0
1565344953615965381,1550.0,1550.0,1650.0,1650.0,0.0,0.0
1565344953667167985,1550.0,1550.0,1650.0,1650.0,0.0,0.0
1565344953715098350,1550.0,1550.0,1650.0,1650.0,0.0,0.0
1565344953764943089,1550.0,1550.0,1650.0,1650.0,0.0,0.0
1565344953815716839,1567.98608303,1550.0,1650.0,1667.98608303,0.0,0.0
1565344953864762829,1567.98608303,1550.0,1650.0,1667.98608303,0.0,0.0
1565344953915023350,1593.48992109,1550.0,1650.0,1693.48992109,0.0,0.0
1565344953964960693,1593.48992109,1550.0,1650.0,1693.48992109,0.0,0.0
1565344954016439600,1600.0,1550.0,1650.0,1700.0,0.0,0.0
1565344954064982621,1600.0,1550.0,1650.0,1700.0,0.0,0.0
1565344954115124027,1600.0,1550.0,1650.0,1700.0,0.0,0.0
1565344954164968766,1600.0,1550.0,1650.0,1700.0,0.0,0.0
1565344954214950954,1600.0,1550.0,1650.0,1700.0,0.0,0.0
1565344954264774131,1550.0,1550.0,1650.0,1650.0,0.0,0.0
1565344954315283662,1550.0,1550.0,1650.0,1650.0,0.0,0.0
1565344954364957568,1550.0,1550.0,1650.0,1650.0,0.0,0.0
1565344954415869808,1550.0,1550.0,1650.0,1650.0,0.0,0.0
1565344954465668297,1550.0,1550.0,1650.0,1650.0,0.0,0.0
1565344954514887777,1550.0,1550.0,1650.0,1650.0,0.0,0.0
1565344954564877829,1550.0,1550.0,1650.0,1650.0,0.0,0.0
1565344954615906891,1550.0,1550.0,1650.0,1650.0,0.0,0.0
1565344954664879756,1550.0,1550.0,1650.0,1650.0,0.0,0.0
1565344954715049599,1550.0,1550.0,1650.0,1650.0,0.0,0.0
1565344954765156839,1550.0,1550.0,1650.0,1650.0,0.0,0.0
1565344954815212672,1550.0,1550.0,1650.0,1650.0,0.0,0.0
1565344954865213349,1550.0,1550.0,1650.0,1650.0,0.0,0.0
1565344954915109860,1550.0,1550.0,1650.0,1650.0,0.0,0.0
1565344954964824808,1550.0,1550.0,1650.0,1650.0,0.0,0.0
1565344955014816891,1550.0,1550.0,1650.0,1650.0,0.0,0.0
1565344955064925328,1550.0,1550.0,1650.0,1650.0,0.0,0.0
1565344955115347464,1550.0,1550.0,1650.0,1650.0,0.0,0.0
1565344955165095328,1550.0,1550.0,1650.0,1650.0,0.0,0.0
1565344955215264183,1550.0,1550.0,1650.0,1650.0,0.0,0.0
1565344955264964912,1550.0,1550.0,1650.0,1650.0,0.0,0.0
1565344955314985589,1550.0,1550.0,1650.0,1650.0,0.0,0.0
1565344955365055537,1550.0,1550.0,1650.0,1650.0,0.0,0.0
1565344955415173558,1550.0,1550.0,1650.0,1650.0,0.0,0.0
1565344955464926162,1550.0,1550.0,1650.0,1650.0,0.0,0.0
1565344955514643349,1550.0,1550.0,1650.0,1650.0,0.0,0.0
1565344955565064599,1550.0,1550.0,1650.0,1650.0,0.0,0.0
1565344955614745745,1550.0,1550.0,1650.0,1650.0,0.0,0.0
1565344955664799026,1550.0,1550.0,1650.0,1650.0,0.0,0.0
1565344955715306057,1550.0,1550.0,1650.0,1650.0,0.0,0.0
1565344955765031630,1550.0,1550.0,1650.0,1650.0,0.0,0.0
1565344955815273609,1550.0,1550.0,1650.0,1650.0,0.0,0.0
1565344955865114912,1550.0,1550.0,1650.0,1650.0,0.0,0.0
1565344955914937932,1550.0,1550.0,1650.0,1650.0,0.0,0.0
1565344955965078401,1550.0,1550.0,1650.0,1650.0,0.0,0.0
1565344956015296474,1550.0,1554.96592373,1654.96592373,1650.0,0.0,0.0
1565344956065753193,1550.0,1554.96592373,1654.96592373,1650.0,0.0,0.0
1565344956115547568,1550.0,1550.0,1650.0,1650.0,0.0,0.0
1565344956165001318,1550.0,1550.0,1650.0,1650.0,0.0,0.0
1565344956215322880,1550.0,1550.0,1650.0,1650.0,0.0,0.0
1565344956264960588,1550.0,1550.0,1650.0,1650.0,0.0,0.0
1565344956314972620,1550.0,1550.0,1650.0,1650.0,0.0,0.0
1565344956365103401,1550.0,1550.0,1650.0,1650.0,0.0,0.0
1565344956414893401,1550.0,1550.0,1650.0,1650.0,0.0,0.0
1565344956465152724,1550.0,1550.0,1650.0,1650.0,0.0,0.0
1565344956515001526,1550.0,1550.0,1650.0,1650.0,0.0,0.0
1565344956564900692,1550.0,1550.0,1650.0,1650.0,0.0,0.0
1565344956615800536,1550.0,1550.0,1650.0,1650.0,0.0,0.0
1565344956665097203,1550.0,1550.0,1650.0,1650.0,0.0,0.0
1565344956714787307,1550.0,1550.0,1650.0,1650.0,0.0,0.0
1565344956764957099,1550.0,1550.0,1650.0,1650.0,0.0,0.0
1565344956815355276,1550.0,1550.0,1650.0,1650.0,0.0,0.0
1565344956864680744,1550.0,1550.0,1650.0,1650.0,0.0,0.0
1565344956915292776,1550.0,1550.0,1650.0,1650.0,0.0,0.0
1565344956965042099,1550.0,1550.0,1650.0,1650.0,0.0,0.0
1565344957015410796,1550.0,1550.0,1650.0,1650.0,0.0,0.0
1565344957065476474,1550.0,1550.0,1650.0,1650.0,0.0,0.0
1565344957115174599,1550.0,1550.0,1650.0,1650.0,0.0,0.0
1565344957165036057,1550.0,1550.0,1650.0,1650.0,0.0,0.0
1565344957215235744,1550.0,1600.0,1700.0,1650.0,0.0,0.0
1565344957264803036,1550.0,1600.0,1700.0,1650.0,0.0,0.0
1565344957314852411,1550.0,1600.0,1700.0,1650.0,0.0,0.0
1565344957364901994,1550.0,1550.0,1650.0,1650.0,0.0,0.0
1565344957414969859,1550.0,1550.0,1650.0,1650.0,0.0,0.0
1565344957465352515,1550.0,1550.0,1650.0,1650.0,0.0,0.0
1565344957514815744,1550.0,1550.0,1650.0,1650.0,0.0,0.0
1565344957565424025,1550.0,1550.0,1650.0,1650.0,0.0,0.0
1565344957616152515,1550.0,1550.0,1650.0,1650.0,0.0,0.0
1565344957665404963,1550.0,1550.0,1650.0,1650.0,0.0,0.0
1565344957715087723,1550.0,1550.0,1650.0,1650.0,0.0,0.0
1565344957764962880,1550.0,1550.0,1650.0,1650.0,0.0,0.0
1565344957815723192,1550.0,1550.0,1650.0,1650.0,0.0,0.0
1565344957865259702,1550.0,1550.0,1650.0,1650.0,0.0,0.0
1565344957914932150,1550.0,1550.0,1650.0,1650.0,0.0,0.0
1565344957965115640,1550.0,1550.0,1650.0,1650.0,0.0,0.0
1565344958015450588,1550.0,1550.0,1650.0,1650.0,0.0,0.0
1565344958065339077,1550.0,1550.0,1650.0,1650.0,0.0,0.0
1565344958115123921,1550.0,1550.0,1650.0,1650.0,0.0,0.0
1565344958165079390,1550.0,1550.0,1650.0,1650.0,0.0,0.0
1565344958215611421,1550.0,1550.0,1650.0,1650.0,0.0,0.0
1565344958265175171,1550.0,1550.0,1650.0,1650.0,0.0,0.0
1565344958314647463,1550.0,1550.0,1650.0,1650.0,0.0,0.0
1565344958365283817,1550.0,1550.0,1650.0,1650.0,0.0,0.0
1565344958415464181,1550.0,1550.0,1650.0,1650.0,0.0,0.0
1565344958465153921,1550.0,1550.0,1650.0,1650.0,0.0,0.0
1565344958514672723,1550.0,1550.0,1650.0,1650.0,0.0,0.0
1565344958564833035,1550.0,1550.0,1650.0,1650.0,0.0,0.0
1565344958615143192,1550.0,1550.0,1650.0,1650.0,0.0,0.0
1565344958664861213,1550.0,1550.0,1650.0,1650.0,0.0,0.0
1565344958715099494,1550.0,1550.0,1650.0,1650.0,0.0,0.0
1565344958764961160,1550.0,1550.0,1650.0,1650.0,0.0,0.0
1565344958815586421,1550.0,1550.0,1650.0,1650.0,0.0,0.0
1565344958864983504,1550.0,1600.0,1700.0,1650.0,0.0,0.0
1565344958915681942,1550.0,1600.0,1700.0,1650.0,0.0,0.0
1565344958965298973,1550.0,1600.0,1700.0,1650.0,0.0,0.0
1565344959015881629,1550.0,1550.0,1650.0,1650.0,0.0,0.0
1565344959065298504,1550.0,1550.0,1650.0,1650.0,0.0,0.0
1565344959115962879,1550.0,1550.0,1650.0,1650.0,0.0,0.0
1565344959164785900,1550.0,1550.0,1650.0,1650.0,0.0,0.0
1565344959216890483,1550.0,1550.0,1650.0,1650.0,0.0,0.0
1565344959265050275,1550.0,1550.0,1650.0,1650.0,0.0,0.0
1565344959315951525,1550.0,1550.0,1650.0,1650.0,0.0,0.0
1565344959364720535,1550.0,1550.0,1650.0,1650.0,0.0,0.0
1565344959415221889,1550.0,1550.0,1650.0,1650.0,0.0,0.0
1565344959464680431,1550.0,1550.0,1650.0,1650.0,0.0,0.0
1565344959515733816,1550.0,1550.0,1650.0,1650.0,0.0,0.0
1565344959565501525,1550.0,1550.0,1650.0,1650.0,0.0,0.0
1565344959615801212,1550.0,1550.0,1650.0,1650.0,0.0,0.0
1565344959665334754,1550.0,1600.0,1700.0,1650.0,0.0,0.0
1565344959715286004,1550.0,1600.0,1700.0,1650.0,0.0,0.0
1565344959765375483,1550.0,1600.0,1700.0,1650.0,0.0,0.0
1565344959814828816,1550.0,1600.0,1700.0,1650.0,0.0,0.0
1565344959864811837,1550.0,1550.0,1650.0,1650.0,0.0,0.0
1565344959915418400,1550.0,1550.0,1650.0,1650.0,0.0,0.0
1565344959965402045,1550.0,1550.0,1650.0,1650.0,0.0,0.0
1565344960015034337,1550.0,1550.0,1650.0,1650.0,0.0,0.0
1565344960065236368,1550.0,1550.0,1650.0,1650.0,0.0,0.0
1565344960114857462,1550.0,1550.0,1650.0,1650.0,0.0,0.0
1565344960165231212,1550.0,1550.0,1650.0,1650.0,0.0,0.0
1565344960215519702,1550.0,1550.0,1650.0,1650.0,0.0,0.0
1565344960265448816,1550.0,1550.0,1650.0,1650.0,0.0,0.0
1565344960315278243,1550.0,1550.0,1650.0,1650.0,0.0,0.0
1565344960365408868,1550.0,1550.0,1650.0,1650.0,0.0,0.0
1565344960415391004,1550.0,1550.0,1650.0,1650.0,0.0,0.0
1565344960464846576,1550.0,1550.0,1650.0,1650.0,0.0,0.0
1565344960515837358,1550.0,1550.0,1650.0,1650.0,0.0,0.0
1565344960565343451,1550.0,1550.0,1650.0,1650.0,0.0,0.0
1565344960616044233,1550.0,1550.0,1650.0,1650.0,0.0,0.0
1565344960665648920,1550.0,1550.0,1650.0,1650.0,0.0,0.0
1565344960714915795,1550.0,1550.0,1650.0,1650.0,0.0,0.0
1565344960764990066,1550.0,1550.0,1650.0,1650.0,0.0,0.0
1565344960816423139,1550.0,1550.0,1650.0,1650.0,0.0,0.0
1565344960864676733,1550.0,1550.0,1650.0,1650.0,0.0,0.0
1565344960915861003,1550.0,1550.0,1650.0,1650.0,0.0,0.0
1565344960965058139,1550.0,1550.0,1650.0,1650.0,0.0,0.0
1565344961015273920,1550.0,1550.0,1650.0,1650.0,0.0,0.0
1565344961065187462,1550.0,1550.0,1650.0,1650.0,0.0,0.0
1565344961115593035,1550.0,1550.0,1650.0,1650.0,0.0,0.0
1565344961165199128,1550.0,1550.0,1650.0,1650.0,0.0,0.0
1565344961215679128,1550.0,1550.0,1650.0,1650.0,0.0,0.0
1565344961265394128,1550.0,1550.0,1650.0,1650.0,0.0,0.0
1565344961315337357,1550.0,1550.0,1650.0,1650.0,0.0,0.0
1565344961365214389,1550.0,1550.0,1650.0,1650.0,0.0,0.0
1565344961415423607,1550.0,1550.0,1650.0,1650.0,0.0,0.0
1565344961465847982,1550.0,1550.0,1550.0,1550.0,0.0,0.0
1565344961515279649,1550.0,1550.0,1550.0,1550.0,0.0,0.0
1565344961565302878,1550.0,1550.0,1550.0,1550.0,0.0,0.0
1565344961615418347,1550.0,1550.0,1550.0,1550.0,0.0,0.0
1565344961665252357,1550.0,1550.0,1550.0,1550.0,0.0,0.0
1565344961715241732,1550.0,1550.0,1550.0,1550.0,0.0,0.0
1565344961765229649,1550.0,1550.0,1550.0,1550.0,0.0,0.0
1565344961815363815,1550.0,1550.0,1550.0,1550.0,0.0,0.0
1565344961865252826,1550.0,1550.0,1550.0,1550.0,0.0,0.0
1565344961915375118,1550.0,1550.0,1550.0,1550.0,0.0,0.0
1565344961965333607,1550.0,1550.0,1550.0,1550.0,0.0,0.0
1565344962015969961,1550.0,1550.0,1550.0,1550.0,0.0,0.0
1565344962065302670,1550.0,1550.0,1550.0,1550.0,0.0,0.0
1565344962114934701,1550.0,1550.0,1550.0,1550.0,0.0,0.0
1565344962165337878,1550.0,1550.0,1550.0,1550.0,0.0,0.0
1565344962215433347,1550.0,1550.0,1550.0,1550.0,0.0,0.0
1565344962265277357,1550.0,1550.0,1550.0,1550.0,0.0,0.0
1565344962315547097,1557.76021481,1550.0,1657.76021481,1650.0,0.0,0.0
1565344962365612617,1557.76021481,1550.0,1657.76021481,1650.0,0.0,0.0
1565344962415375065,1558.84603113,1550.0,1658.84603113,1650.0,0.0,0.0
1565344962465469076,1558.84603113,1550.0,1658.84603113,1650.0,0.0,0.0
1565344962515062565,1551.24852825,1550.0,1651.24852825,1650.0,0.0,0.0
1565344962564940899,1551.24852825,1550.0,1651.24852825,1650.0,0.0,0.0
1565344962615092096,1551.24852825,1550.0,1651.24852825,1650.0,0.0,0.0
1565344962665141523,1551.24852825,1550.0,1651.24852825,1650.0,0.0,0.0
1565344962714978763,1551.24852825,1550.0,1651.24852825,1650.0,0.0,0.0
1565344962765011940,1550.16592431,1550.0,1650.16592431,1650.0,0.0,0.0
1565344962815925586,1550.16592431,1550.0,1650.16592431,1650.0,0.0,0.0
1565344962865337513,1551.24852825,1550.0,1651.24852825,1650.0,0.0,0.0
1565344962915092096,1551.24852825,1550.0,1651.24852825,1650.0,0.0,0.0
1565344962965026732,1551.24852825,1550.0,1651.24852825,1650.0,0.0,0.0
1565344963014851523,1551.24852825,1550.0,1651.24852825,1650.0,0.0,0.0
1565344963065100534,1550.0,1550.0,1588.1470114,1588.1470114,0.0,0.0
1565344963115081940,1550.0,1550.0,1588.1470114,1588.1470114,0.0,0.0
1565344963166276419,1550.0,1550.0,1588.1470114,1588.1470114,0.0,0.0
1565344963217394388,1550.0,1550.0,1550.0,1550.0,0.0,0.0
1565344963265650482,1550.0,1550.0,1550.0,1550.0,0.0,0.0
1565344963315280690,1550.0,1550.0,1550.0,1550.0,0.0,0.0
1565344963365271679,1550.0,1550.0,1550.0,1550.0,0.0,0.0
1565344963416071679,1550.0,1550.0,1650.0,1650.0,0.0,0.0
1565344963465172148,1550.0,1550.0,1650.0,1650.0,0.0,0.0
1565344963515308607,1550.0,1550.0,1650.0,1650.0,0.0,0.0
1565344963564831315,1550.0,1550.0,1650.0,1650.0,0.0,0.0
1565344963614953606,1550.0,1550.0,1650.0,1650.0,0.0,0.0
1565344963665042200,1550.0,1550.0,1650.0,1650.0,0.0,0.0
1565344963714880325,1550.0,1550.0,1650.0,1650.0,0.0,0.0
1565344963764837877,1550.0,1550.0,1650.0,1650.0,0.0,0.0
1565344963814952148,1550.0,1550.0,1650.0,1650.0,0.0,0.0
1565344963864898138,1550.0,1550.0,1650.0,1650.0,0.0,0.0
1565344963915146575,1550.0,1550.0,1650.0,1650.0,0.0,0.0
1565344963964831471,1550.0,1550.0,1650.0,1650.0,0.0,0.0
1565344964015077617,1550.0,1550.0,1650.0,1650.0,0.0,0.0
1565344964065010065,1550.0,1550.0,1650.0,1650.0,0.0,0.0
1565344964115199960,1550.0,1550.0,1650.0,1650.0,0.0,0.0
1565344964165159908,1550.0,1550.0,1550.0,1550.0,0.0,0.0
1565344964215030898,1550.0,1550.0,1550.0,1550.0,0.0,0.0
1565344964265118033,1550.0,1550.0,1550.0,1550.0,0.0,0.0
1565344964314931523,1550.0,1600.0,1600.0,1550.0,0.0,0.0
1565344964365291002,1550.0,1600.0,1600.0,1550.0,0.0,0.0
1565344964415604492,1550.0,1600.0,1600.0,1550.0,0.0,0.0
1565344964465367721,1550.0,1600.0,1600.0,1550.0,0.0,0.0
1565344964515291835,1550.0,1600.0,1600.0,1550.0,0.0,0.0
1565344964565462252,1550.0,1600.0,1600.0,1550.0,0.0,0.0
1565344964615568033,1550.0,1600.0,1600.0,1550.0,0.0,0.0
1565344964664946991,1550.0,1600.0,1600.0,1550.0,0.0,0.0
1565344964715262929,1550.0,1600.0,1600.0,1550.0,0.0,0.0
1565344964765434491,1550.0,1600.0,1600.0,1550.0,0.0,0.0
1565344964816059231,1550.0,1600.0,1600.0,1550.0,0.0,0.0
1565344964865054179,1550.0,1600.0,1600.0,1550.0,0.0,0.0
1565344964915044752,1550.0,1600.0,1600.0,1550.0,0.0,0.0
1565344964965035377,1550.0,1600.0,1600.0,1550.0,0.0,0.0
1565344965015014491,1550.0,1600.0,1600.0,1550.0,0.0,0.0
1565344965065011887,1550.0,1600.0,1600.0,1550.0,0.0,0.0
1565344965115412564,1550.0,1600.0,1600.0,1550.0,0.0,0.0
1565344965165001991,1550.0,1600.0,1600.0,1550.0,0.0,0.0
1565344965214968762,1550.0,1600.0,1600.0,1550.0,0.0,0.0
1565344965264955012,1550.0,1600.0,1600.0,1550.0,0.0,0.0
1565344965314827772,1550.0,1600.0,1600.0,1550.0,0.0,0.0
1565344965365236627,1550.0,1600.0,1600.0,1550.0,0.0,0.0
1565344965416456210,1550.0,1600.0,1600.0,1550.0,0.0,0.0
1565344965465094075,1550.0,1600.0,1600.0,1550.0,0.0,0.0
1565344965514880324,1550.0,1600.0,1600.0,1550.0,0.0,0.0
1565344965564895741,1550.0,1600.0,1600.0,1550.0,0.0,0.0
1565344965615883137,1550.0,1600.0,1600.0,1550.0,0.0,0.0
1565344965665259804,1550.0,1600.0,1600.0,1550.0,0.0,0.0
1565344965715096835,1550.0,1600.0,1600.0,1550.0,0.0,0.0
1565344965765316262,1550.0,1600.0,1600.0,1550.0,0.0,0.0
1565344965815407668,1550.0,1600.0,1600.0,1550.0,0.0,0.0
1565344965865203814,1550.0,1600.0,1600.0,1550.0,0.0,0.0
1565344965915196939,1550.0,1600.0,1600.0,1550.0,0.0,0.0
1565344965965551418,1550.0,1600.0,1639.23282921,1589.23282921,0.0,0.0
1565344966016327199,1550.0,1600.0,1639.23282921,1589.23282921,0.0,0.0
1565344966065541158,1550.0,1600.0,1667.44799614,1617.44799614,0.0,0.0
1565344966114875689,1550.0,1600.0,1667.44799614,1617.44799614,0.0,0.0
1565344966164990272,1550.0,1600.0,1694.57734227,1644.57734227,0.0,0.0
1565344966215180845,1550.0,1600.0,1694.57734227,1644.57734227,0.0,0.0
1565344966264896887,1550.0,1600.0,1696.7489779,1646.7489779,0.0,0.0
1565344966314748501,1550.0,1600.0,1696.7489779,1646.7489779,0.0,0.0
1565344966364972564,1550.0,1600.0,1696.7489779,1646.7489779,0.0,0.0
1565344966415139230,1550.0,1600.0,1700.0,1650.0,0.0,0.0
1565344966465179439,1550.0,1600.0,1700.0,1650.0,0.0,0.0
1565344966515060116,1556.67439774,1600.0,1706.67439774,1650.0,0.0,0.0
1565344966565035272,1556.67439774,1600.0,1706.67439774,1650.0,0.0,0.0
1565344966615383762,1556.67439774,1600.0,1706.67439774,1650.0,0.0,0.0
1565344966665143137,1556.67439774,1600.0,1706.67439774,1650.0,0.0,0.0
1565344966714964230,1556.67439774,1600.0,1706.67439774,1650.0,0.0,0.0
1565344966765047199,1556.67439774,1600.0,1706.67439774,1650.0,0.0,0.0
1565344966815215636,1556.67439774,1600.0,1706.67439774,1650.0,0.0,0.0
1565344966865029855,1556.67439774,1600.0,1706.67439774,1650.0,0.0,0.0
1565344966914903605,1556.67439774,1600.0,1706.67439774,1650.0,0.0,0.0
1565344966965036157,1556.67439774,1600.0,1706.67439774,1650.0,0.0,0.0
1565344967015344282,1556.67439774,1600.0,1706.67439774,1650.0,0.0,0.0
1565344967065384699,1556.67439774,1600.0,1706.67439774,1650.0,0.0,0.0
1565344967115036626,1556.67439774,1600.0,1706.67439774,1650.0,0.0,0.0
1565344967165103501,1556.67439774,1600.0,1706.67439774,1650.0,0.0,0.0
1565344967215285584,1556.67439774,1600.0,1706.67439774,1650.0,0.0,0.0
1565344967265102824,1556.67439774,1600.0,1706.67439774,1650.0,0.0,0.0
1565344967314747928,1556.67439774,1600.0,1706.67439774,1650.0,0.0,0.0
1565344967364629751,1556.67439774,1600.0,1706.67439774,1650.0,0.0,0.0
1565344967415080063,1556.67439774,1550.0,1656.67439774,1650.0,0.0,0.0
1565344967464697876,1556.67439774,1550.0,1656.67439774,1650.0,0.0,0.0
1565344967514844126,1556.67439774,1550.0,1656.67439774,1650.0,0.0,0.0
1565344967564772615,1556.67439774,1550.0,1656.67439774,1650.0,0.0,0.0
1565344967614815532,1556.67439774,1550.0,1656.67439774,1650.0,0.0,0.0
1565344967665107042,1556.67439774,1550.0,1656.67439774,1650.0,0.0,0.0
1565344967715078969,1555.5917941,1550.0,1655.5917941,1650.0,0.0,0.0
1565344967764691938,1555.5917941,1550.0,1655.5917941,1650.0,0.0,0.0
1565344967815282563,1555.5917941,1550.0,1655.5917941,1650.0,0.0,0.0
1565344967865088292,1556.67439774,1550.0,1656.67439774,1650.0,0.0,0.0
1565344967914916417,1556.67439774,1550.0,1656.67439774,1650.0,0.0,0.0
1565344967964777771,1556.67439774,1550.0,1656.67439774,1650.0,0.0,0.0
1565344968015766730,1556.67439774,1550.0,1656.67439774,1650.0,0.0,0.0
1565344968065184959,1556.67439774,1550.0,1656.67439774,1650.0,0.0,0.0
1565344968115041834,1556.67439774,1550.0,1656.67439774,1650.0,0.0,0.0
1565344968164889490,1556.67439774,1550.0,1656.67439774,1650.0,0.0,0.0
1565344968215300792,1556.67439774,1550.0,1656.67439774,1650.0,0.0,0.0
1565344968265035688,1556.67439774,1550.0,1656.67439774,1650.0,0.0,0.0
1565344968315069021,1556.67439774,1550.0,1656.67439774,1650.0,0.0,0.0
1565344968365266313,1556.67439774,1550.0,1656.67439774,1650.0,0.0,0.0
1565344968415028553,1556.67439774,1550.0,1656.67439774,1650.0,0.0,0.0
1565344968465214698,1556.67439774,1550.0,1656.67439774,1650.0,0.0,0.0
1565344968515045271,1556.67439774,1550.0,1656.67439774,1650.0,0.0,0.0
1565344968564945323,1556.67439774,1550.0,1656.67439774,1650.0,0.0,0.0
1565344968615264125,1556.67439774,1550.0,1656.67439774,1650.0,0.0,0.0
1565344968664895323,1556.67439774,1550.0,1656.67439774,1650.0,0.0,0.0
1565344968714924959,1556.67439774,1550.0,1656.67439774,1650.0,0.0,0.0
1565344968764954907,1556.67439774,1550.0,1656.67439774,1650.0,0.0,0.0
1565344968815278657,1556.67439774,1550.0,1656.67439774,1650.0,0.0,0.0
1565344968864968032,1556.67439774,1550.0,1656.67439774,1650.0,0.0,0.0
1565344968915398292,1556.67439774,1550.0,1656.67439774,1650.0,0.0,0.0
1565344968964737615,1556.67439774,1550.0,1656.67439774,1650.0,0.0,0.0
1565344969014736677,1556.67439774,1550.0,1656.67439774,1650.0,0.0,0.0
1565344969064693604,1556.67439774,1550.0,1656.67439774,1650.0,0.0,0.0
1565344969115262198,1556.67439774,1550.0,1656.67439774,1650.0,0.0,0.0
1565344969165609646,1556.67439774,1550.0,1656.67439774,1650.0,0.0,0.0
1565344969214635636,1556.67439774,1550.0,1656.67439774,1650.0,0.0,0.0
1565344969264701313,1556.67439774,1550.0,1656.67439774,1650.0,0.0,0.0
1565344969315069281,1556.67439774,1550.0,1656.67439774,1650.0,0.0,0.0
1565344969364714229,1556.67439774,1550.0,1656.67439774,1650.0,0.0,0.0
1565344969415101261,1556.67439774,1600.0,1706.67439774,1650.0,0.0,0.0
1565344969464709385,1556.67439774,1600.0,1706.67439774,1650.0,0.0,0.0
1565344969515223865,1556.67439774,1600.0,1706.67439774,1650.0,0.0,0.0
1565344969564781677,1556.67439774,1600.0,1706.67439774,1650.0,0.0,0.0
1565344969615382406,1556.67439774,1600.0,1706.67439774,1650.0,0.0,0.0
1565344969665317250,1556.67439774,1600.0,1706.67439774,1650.0,0.0,0.0
1565344969715349594,1556.67439774,1600.0,1706.67439774,1650.0,0.0,0.0
1565344969764661781,1556.67439774,1600.0,1706.67439774,1650.0,0.0,0.0
1565344969815454177,1556.67439774,1600.0,1706.67439774,1650.0,0.0,0.0
1565344969864974646,1556.67439774,1600.0,1706.67439774,1650.0,0.0,0.0
1565344969915052667,1556.67439774,1600.0,1706.67439774,1650.0,0.0,0.0
1565344969965532354,1556.67439774,1600.0,1706.67439774,1650.0,0.0,0.0
1565344970015333812,1556.67439774,1600.0,1706.67439774,1650.0,0.0,0.0
1565344970065228812,1556.67439774,1600.0,1706.67439774,1650.0,0.0,0.0
1565344970115200427,1556.67439774,1600.0,1706.67439774,1650.0,0.0,0.0
1565344970165950323,1556.67439774,1600.0,1706.67439774,1650.0,0.0,0.0
1565344970216886156,1556.67439774,1600.0,1706.67439774,1650.0,0.0,0.0
1565344970265478604,1556.67439774,1600.0,1706.67439774,1650.0,0.0,0.0
1565344970315177771,1556.67439774,1600.0,1706.67439774,1650.0,0.0,0.0
1565344970365064646,1556.67439774,1600.0,1706.67439774,1650.0,0.0,0.0
1565344970415704073,1556.67439774,1600.0,1706.67439774,1650.0,0.0,0.0
1565344970465360375,1556.67439774,1600.0,1706.67439774,1650.0,0.0,0.0
1565344970515059489,1556.67439774,1600.0,1706.67439774,1650.0,0.0,0.0
1565344970565151000,1556.67439774,1600.0,1706.67439774,1650.0,0.0,0.0
1565344970617102041,1556.67439774,1600.0,1706.67439774,1650.0,0.0,0.0
1565344970665273812,1556.67439774,1600.0,1706.67439774,1650.0,0.0,0.0
1565344970715193656,1556.67439774,1600.0,1706.67439774,1650.0,0.0,0.0
1565344970765935166,1556.67439774,1600.0,1706.67439774,1650.0,0.0,0.0
1565344970815405375,1556.67439774,1600.0,1706.67439774,1650.0,0.0,0.0
1565344970865001729,1556.67439774,1600.0,1706.67439774,1650.0,0.0,0.0
1565344970914935635,1556.67439774,1600.0,1706.67439774,1650.0,0.0,0.0
1565344970964619802,1556.67439774,1600.0,1706.67439774,1650.0,0.0,0.0
1565344971015044749,1556.67439774,1600.0,1706.67439774,1650.0,0.0,0.0
1565344971065666468,1556.67439774,1600.0,1706.67439774,1650.0,0.0,0.0
1565344971115233187,1556.67439774,1600.0,1706.67439774,1650.0,0.0,0.0
1565344971164766416,1556.67439774,1600.0,1706.67439774,1650.0,0.0,0.0
1565344971215259906,1556.67439774,1600.0,1706.67439774,1650.0,0.0,0.0
1565344971264666156,1556.67439774,1600.0,1706.67439774,1650.0,0.0,0.0
1565344971315147979,1556.67439774,1600.0,1706.67439774,1650.0,0.0,0.0
1565344971365161572,1556.67439774,1600.0,1706.67439774,1650.0,0.0,0.0
1565344971414974228,1556.67439774,1600.0,1706.67439774,1650.0,0.0,0.0
1565344971464921989,1556.67439774,1600.0,1706.67439774,1650.0,0.0,0.0
1565344971514922406,1556.67439774,1600.0,1706.67439774,1650.0,0.0,0.0
1565344971564902458,1556.67439774,1600.0,1706.67439774,1650.0,0.0,0.0
1565344971615162145,1556.67439774,1600.0,1706.67439774,1650.0,0.0,0.0
1565344971666311989,1556.67439774,1600.0,1706.67439774,1650.0,0.0,0.0
1565344971714988708,1556.67439774,1550.0,1656.67439774,1650.0,0.0,0.0
1565344971764881520,1556.67439774,1550.0,1656.67439774,1650.0,0.0,0.0
1565344971815643603,1556.67439774,1550.0,1656.67439774,1650.0,0.0,0.0
1565344971864922353,1556.67439774,1550.0,1656.67439774,1650.0,0.0,0.0
1565344971914919801,1556.67439774,1550.0,1656.67439774,1650.0,0.0,0.0
1565344971965054957,1556.67439774,1550.0,1656.67439774,1650.0,0.0,0.0
1565344972016507926,1556.67439774,1550.0,1656.67439774,1650.0,0.0,0.0
1565344972065166989,1556.67439774,1550.0,1656.67439774,1650.0,0.0,0.0
1565344972114921312,1556.67439774,1550.0,1656.67439774,1650.0,0.0,0.0
1565344972164945582,1556.67439774,1550.0,1656.67439774,1650.0,0.0,0.0
1565344972215657509,1556.67439774,1550.0,1656.67439774,1650.0,0.0,0.0
1565344972265323291,1556.67439774,1550.0,1656.67439774,1650.0,0.0,0.0
1565344972314933239,1556.67439774,1550.0,1656.67439774,1650.0,0.0,0.0
1565344972364965322,1556.67439774,1550.0,1656.67439774,1650.0,0.0,0.0
1565344972416077405,1556.67439774,1550.0,1656.67439774,1650.0,0.0,0.0
1565344972465204593,1606.67439774,1550.0,1656.67439774,1700.0,0.0,0.0
1565344972515684436,1606.67439774,1550.0,1656.67439774,1700.0,0.0,0.0
1565344972564962145,1606.67439774,1550.0,1656.67439774,1700.0,0.0,0.0
1565344972614748238,1606.67439774,1550.0,1656.67439774,1700.0,0.0,0.0
1565344972664992509,1556.67439774,1550.0,1656.67439774,1650.0,0.0,0.0
1565344972715034124,1556.67439774,1550.0,1656.67439774,1650.0,0.0,0.0
1565344972764998134,1556.67439774,1550.0,1656.67439774,1650.0,0.0,0.0
1565344972814929853,1556.67439774,1550.0,1656.67439774,1650.0,0.0,0.0
1565344972864938603,1556.67439774,1550.0,1656.67439774,1650.0,0.0,0.0
1565344972914907718,1606.67439774,1550.0,1656.67439774,1700.0,0.0,0.0
1565344972964583290,1606.67439774,1550.0,1656.67439774,1700.0,0.0,0.0
1565344973016042978,1606.67439774,1550.0,1656.67439774,1700.0,0.0,0.0
1565344973064659124,1606.67439774,1550.0,1656.67439774,1700.0,0.0,0.0
1565344973114927457,1556.67439774,1550.0,1656.67439774,1650.0,0.0,0.0
1565344973165116363,1556.67439774,1550.0,1656.67439774,1650.0,0.0,0.0
1565344973214962249,1556.67439774,1550.0,1656.67439774,1650.0,0.0,0.0
1565344973264669853,1556.67439774,1550.0,1656.67439774,1650.0,0.0,0.0
1565344973314935582,1556.67439774,1550.0,1656.67439774,1650.0,0.0,0.0
1565344973365032978,1556.67439774,1550.0,1656.67439774,1650.0,0.0,0.0
1565344973416165478,1556.67439774,1550.0,1656.67439774,1650.0,0.0,0.0
1565344973464975478,1556.67439774,1550.0,1656.67439774,1650.0,0.0,0.0
1565344973514909905,1556.67439774,1550.0,1656.67439774,1650.0,0.0,0.0
1565344973564965894,1556.67439774,1550.0,1656.67439774,1650.0,0.0,0.0
1565344973615217405,1556.67439774,1550.0,1656.67439774,1650.0,0.0,0.0
1565344973665010165,1556.67439774,1550.0,1656.67439774,1650.0,0.0,0.0
1565344973714671728,1556.67439774,1550.0,1656.67439774,1650.0,0.0,0.0
1565344973764903811,1556.67439774,1550.0,1656.67439774,1650.0,0.0,0.0
1565344973815281780,1556.67439774,1550.0,1656.67439774,1650.0,0.0,0.0
1565344973864845946,1556.67439774,1550.0,1656.67439774,1650.0,0.0,0.0
1565344973916078915,1556.67439774,1550.0,1656.67439774,1650.0,0.0,0.0
1565344973965592665,1556.67439774,1550.0,1656.67439774,1650.0,0.0,0.0
1565344974015485217,1556.67439774,1550.0,1656.67439774,1650.0,0.0,0.0
1565344974065180530,1556.67439774,1550.0,1656.67439774,1650.0,0.0,0.0
1565344974114967457,1556.67439774,1550.0,1656.67439774,1650.0,0.0,0.0
1565344974165058186,1556.67439774,1550.0,1656.67439774,1650.0,0.0,0.0
1565344974215323811,1556.67439774,1550.0,1656.67439774,1650.0,0.0,0.0
1565344974265470113,1556.67439774,1550.0,1656.67439774,1650.0,0.0,0.0
1565344974314878550,1556.67439774,1550.0,1656.67439774,1650.0,0.0,0.0
1565344974365266727,1556.67439774,1570.15932202,1676.83371976,1650.0,0.0,0.0
1565344974415160373,1556.67439774,1570.15932202,1676.83371976,1650.0,0.0,0.0
1565344974464942561,1556.67439774,1550.0,1656.67439774,1650.0,0.0,0.0
1565344974515185269,1556.67439774,1550.0,1656.67439774,1650.0,0.0,0.0
1565344974564961623,1556.67439774,1550.0,1656.67439774,1650.0,0.0,0.0
1565344974615263706,1556.67439774,1550.0,1656.67439774,1650.0,0.0,0.0
1565344974664918290,1556.67439774,1550.0,1656.67439774,1650.0,0.0,0.0
1565344974714574800,1556.67439774,1600.0,1706.67439774,1650.0,0.0,0.0
1565344974764900269,1556.67439774,1600.0,1706.67439774,1650.0,0.0,0.0
1565344974815895269,1556.67439774,1600.0,1706.67439774,1650.0,0.0,0.0
1565344974865221519,1556.67439774,1550.0,1656.67439774,1650.0,0.0,0.0
1565344974914965008,1556.67439774,1550.0,1656.67439774,1650.0,0.0,0.0
1565344974965063863,1556.67439774,1550.0,1656.67439774,1650.0,0.0,0.0
1565344975015518446,1556.67439774,1550.0,1656.67439774,1650.0,0.0,0.0
1565344975064937456,1556.67439774,1579.38394248,1686.05834022,1650.0,0.0,0.0
1565344975114921779,1556.67439774,1579.38394248,1686.05834022,1650.0,0.0,0.0
1565344975165142352,1556.67439774,1550.0,1656.67439774,1650.0,0.0,0.0
1565344975216199019,1556.67439774,1550.0,1656.67439774,1650.0,0.0,0.0
1565344975265751154,1556.67439774,1550.0,1656.67439774,1650.0,0.0,0.0
1565344975314863081,1556.67439774,1550.0,1656.67439774,1650.0,0.0,0.0
1565344975365123914,1556.67439774,1550.0,1656.67439774,1650.0,0.0,0.0
1565344975415068550,1556.67439774,1550.0,1656.67439774,1650.0,0.0,0.0
1565344975464860737,1556.67439774,1550.0,1656.67439774,1650.0,0.0,0.0
1565344975515094227,1556.67439774,1550.0,1656.67439774,1650.0,0.0,0.0
1565344975565773081,1556.67439774,1550.0,1656.67439774,1650.0,0.0,0.0
1565344975615370998,1556.67439774,1550.0,1656.67439774,1650.0,0.0,0.0
1565344975666039852,1556.67439774,1550.0,1656.67439774,1650.0,0.0,0.0
1565344975714920373,1556.67439774,1550.0,1656.67439774,1650.0,0.0,0.0
1565344975765177925,1556.67439774,1550.0,1656.67439774,1650.0,0.0,0.0
1565344975815135893,1556.67439774,1550.0,1656.67439774,1650.0,0.0,0.0
1565344975865706935,1576.83211416,1550.0,1657.76021481,1669.07189935,0.0,0.0
1565344975914667196,1576.83211416,1550.0,1657.76021481,1669.07189935,0.0,0.0
1565344975964937091,1589.85388055,1550.0,1656.67439774,1683.17948282,0.0,0.0
1565344976015281987,1589.85388055,1550.0,1656.67439774,1683.17948282,0.0,0.0
1565344976064949852,1556.67439774,1550.0,1656.67439774,1650.0,0.0,0.0
1565344976114628498,1556.67439774,1550.0,1656.67439774,1650.0,0.0,0.0
1565344976165012820,1556.67439774,1550.0,1656.67439774,1650.0,0.0,0.0
1565344976216052352,1556.67439774,1550.0,1656.67439774,1650.0,0.0,0.0
1565344976265280685,1556.67439774,1550.0,1656.67439774,1650.0,0.0,0.0
1565344976315194643,1556.67439774,1550.0,1656.67439774,1650.0,0.0,0.0
1565344976364974227,1556.67439774,1550.0,1656.67439774,1650.0,0.0,0.0
1565344976415884904,1556.67439774,1550.0,1656.67439774,1650.0,0.0,0.0
1565344976464967247,1580.6292586,1550.0,1656.67439774,1673.95486087,0.0,0.0
1565344976514958914,1580.6292586,1550.0,1656.67439774,1673.95486087,0.0,0.0
1565344976564940841,1588.22676316,1550.0,1656.67439774,1681.55236542,0.0,0.0
1565344976615959383,1588.22676316,1550.0,1656.67439774,1681.55236542,0.0,0.0
1565344976665215424,1556.67439774,1550.0,1656.67439774,1650.0,0.0,0.0
1565344976715073810,1556.67439774,1550.0,1656.67439774,1650.0,0.0,0.0
1565344976765071883,1556.67439774,1550.0,1656.67439774,1650.0,0.0,0.0
1565344976815054539,1556.67439774,1550.0,1656.67439774,1650.0,0.0,0.0
1565344976865110633,1556.67439774,1550.0,1656.67439774,1650.0,0.0,0.0
1565344976915037768,1556.67439774,1550.0,1656.67439774,1650.0,0.0,0.0
1565344976965043289,1590.93969539,1550.0,1656.67439774,1684.26529765,0.0,0.0
1565344977015078862,1590.93969539,1550.0,1656.67439774,1684.26529765,0.0,0.0
1565344977064960320,1606.67439774,1550.0,1656.67439774,1700.0,0.0,0.0
1565344977115050060,1606.67439774,1550.0,1656.67439774,1700.0,0.0,0.0
1565344977165147195,1606.67439774,1550.0,1656.67439774,1700.0,0.0,0.0
1565344977216132612,1556.67439774,1550.0,1656.67439774,1650.0,0.0,0.0
1565344977265305685,1556.67439774,1550.0,1656.67439774,1650.0,0.0,0.0
1565344977315301466,1556.67439774,1550.0,1656.67439774,1650.0,0.0,0.0
1565344977365199955,1556.67439774,1550.0,1656.67439774,1650.0,0.0,0.0
1565344977415739122,1556.67439774,1550.0,1656.67439774,1650.0,0.0,0.0
1565344977465311778,1556.67439774,1550.0,1656.67439774,1650.0,0.0,0.0
1565344977515348080,1556.67439774,1550.0,1656.67439774,1650.0,0.0,0.0
1565344977565209747,1556.67439774,1550.0,1656.67439774,1650.0,0.0,0.0
1565344977615633653,1556.67439774,1550.0,1656.67439774,1650.0,0.0,0.0
1565344977665423862,1556.67439774,1550.0,1656.67439774,1650.0,0.0,0.0
1565344977715172559,1556.67439774,1550.0,1656.67439774,1650.0,0.0,0.0
1565344977765206726,1556.67439774,1550.0,1656.67439774,1650.0,0.0,0.0
1565344977815556466,1556.67439774,1550.0,1656.67439774,1650.0,0.0,0.0
1565344977865841882,1557.76021481,1550.0,1657.76021481,1650.0,0.0,0.0
1565344977915272143,1557.76021481,1550.0,1657.76021481,1650.0,0.0,0.0
1565344977965421674,1557.76021481,1550.0,1657.76021481,1650.0,0.0,0.0
1565344978016199486,1556.67439774,1550.0,1656.67439774,1650.0,0.0,0.0
1565344978065267091,1556.67439774,1550.0,1656.67439774,1650.0,0.0,0.0
1565344978114983809,1560.00999063,1550.0,1656.67439774,1653.3355929,0.0,0.0
1565344978165152091,1560.00999063,1550.0,1656.67439774,1653.3355929,0.0,0.0
1565344978214967976,1569.77751926,1550.0,1656.67439774,1663.10312152,0.0,0.0
1565344978266442820,1569.77751926,1550.0,1656.67439774,1663.10312152,0.0,0.0
1565344978315111153,1574.1191797,1550.0,1656.67439774,1667.44478196,0.0,0.0
1565344978365157507,1574.1191797,1550.0,1656.67439774,1667.44478196,0.0,0.0
1565344978415471934,1574.1191797,1550.0,1656.67439774,1667.44478196,0.0,0.0
1565344978465392767,1576.289206,1550.0,1656.67439774,1669.61480826,0.0,0.0
1565344978515049538,1576.289206,1550.0,1656.67439774,1669.61480826,0.0,0.0
1565344978566303080,1576.289206,1550.0,1656.67439774,1669.61480826,0.0,0.0
1565344978615065944,1577.91632488,1550.0,1656.67439774,1671.24192715,0.0,0.0
1565344978664878653,1577.91632488,1550.0,1656.67439774,1671.24192715,0.0,0.0
1565344978714583080,1586.05673388,1550.0,1656.67439774,1679.38233614,0.0,0.0
1565344978765405684,1586.05673388,1550.0,1656.67439774,1679.38233614,0.0,0.0
1565344978814838757,1588.76966909,1550.0,1656.67439774,1682.09527135,0.0,0.0
1565344978865354330,1588.76966909,1550.0,1656.67439774,1682.09527135,0.0,0.0
1565344978914701257,1591.4826043,1550.0,1656.67439774,1684.80820656,0.0,0.0
1565344978964907871,1591.4826043,1550.0,1656.67439774,1684.80820656,0.0,0.0
1565344979016774278,1595.8226569,1550.0,1656.67439774,1689.14825916,0.0,0.0
1565344979065187559,1595.8226569,1550.0,1656.67439774,1689.14825916,0.0,0.0
1565344979114915788,1605.59018627,1550.0,1656.67439774,1698.91578853,0.0,0.0
1565344979164913653,1605.59018627,1550.0,1656.67439774,1698.91578853,0.0,0.0
1565344979214991361,1605.59018627,1550.0,1656.67439774,1698.91578853,0.0,0.0
1565344979264720840,1606.67439774,1550.0,1656.67439774,1700.0,0.0,0.0
1565344979314997975,1606.67439774,1550.0,1656.67439774,1700.0,0.0,0.0
1565344979364919955,1606.67439774,1550.0,1656.67439774,1700.0,0.0,0.0
1565344979415117142,1606.67439774,1550.0,1656.67439774,1700.0,0.0,0.0
1565344979465787142,1606.13309518,1550.0,1656.67439774,1699.45869744,0.0,0.0
1565344979514919382,1606.13309518,1550.0,1656.67439774,1699.45869744,0.0,0.0
1565344979565534694,1606.13309518,1550.0,1656.67439774,1699.45869744,0.0,0.0
1565344979615566048,1606.13309518,1550.0,1656.67439774,1699.45869744,0.0,0.0
1565344979665042975,1606.13309518,1550.0,1656.67439774,1699.45869744,0.0,0.0
1565344979714988548,1606.13309518,1550.0,1656.67439774,1699.45869744,0.0,0.0
1565344979765617663,1606.13309518,1550.0,1656.67439774,1699.45869744,0.0,0.0
1565344979815550059,1606.67439774,1550.0,1656.67439774,1700.0,0.0,0.0
1565344979865072142,1606.67439774,1550.0,1656.67439774,1700.0,0.0,0.0
1565344979914777402,1606.67439774,1550.0,1656.67439774,1700.0,0.0,0.0
1565344979964998027,1606.13309518,1550.0,1656.67439774,1699.45869744,0.0,0.0
1565344980015075215,1606.13309518,1550.0,1656.67439774,1699.45869744,0.0,0.0
1565344980064974590,1606.13309518,1550.0,1656.67439774,1699.45869744,0.0,0.0
1565344980115714069,1606.13309518,1550.0,1656.67439774,1699.45869744,0.0,0.0
1565344980164703496,1606.67439774,1550.0,1656.67439774,1700.0,0.0,0.0
1565344980216328236,1606.67439774,1550.0,1656.67439774,1700.0,0.0,0.0
1565344980265332715,1606.67439774,1550.0,1656.67439774,1700.0,0.0,0.0
1565344980314955840,1606.67439774,1550.0,1656.67439774,1700.0,0.0,0.0
1565344980365149277,1606.67439774,1550.0,1656.67439774,1700.0,0.0,0.0
1565344980415102454,1606.67439774,1550.0,1656.67439774,1700.0,0.0,0.0
1565344980465179850,1606.67439774,1550.0,1656.67439774,1700.0,0.0,0.0
1565344980514989798,1606.67439774,1550.0,1656.67439774,1700.0,0.0,0.0
1565344980564954225,1606.67439774,1550.0,1656.67439774,1700.0,0.0,0.0
1565344980615336100,1606.67439774,1550.0,1656.67439774,1700.0,0.0,0.0
1565344980664978444,1606.67439774,1550.0,1656.67439774,1700.0,0.0,0.0
