%time,field.linear.x,field.linear.y,field.linear.z,field.angular.x,field.angular.y,field.angular.z
1565340109148151917,0.218694031239,-0.0,0.0,0.0,0.0,0.0
1565340109252465823,0.348927766085,-0.0,0.0,0.0,0.0,0.0
1565340109356721656,0.511703848839,-0.0,0.0,0.0,0.0,0.0
1565340109464737958,0.598504900932,-0.0,0.0,0.0,0.0,0.0
1565340109583455927,0.663621783257,-0.0,0.0,0.0,0.0,0.0
1565340109674996604,0.815571844578,-0.0,0.0,0.0,0.0,0.0
1565340109723392958,0.815571844578,-0.0,0.0,0.0,0.0,0.0
1565340109851766604,0.826397895813,-0.0,0.0,0.0,0.0,0.0
1565340109972233010,0.826397895813,-0.0,0.0,0.0,0.0,0.0
1565340110072784989,0.804713666439,-0.0,0.0,0.0,0.0,0.0
1565340110208699104,0.815571844578,-0.0,0.0,0.0,0.0,0.0
1565340110324539416,0.804713666439,-0.0,0.0,0.0,0.0,0.0
1565340110375894312,0.804713666439,-0.0,0.0,0.0,0.0,0.0
1565340110424752281,0.804713666439,-0.0,0.0,0.0,0.0,0.0
1565340110475140614,0.804713666439,-0.0,0.0,0.0,0.0,0.0
1565340110601141864,0.804713666439,-0.0,0.0,0.0,0.0,0.0
1565340110707137906,0.804713666439,0.00165924313478,0.0,0.0,0.0,0.0
1565340110825147072,0.804713666439,-0.0,0.0,0.0,0.0,0.0
1565340110874885458,0.804713666439,-0.0,0.0,0.0,0.0,0.0
1565340110925022697,0.804713666439,-0.0,0.0,0.0,0.0,0.0
1565340110976462385,0.804713666439,-0.0,0.0,0.0,0.0,0.0
1565340111025235562,0.804713666439,-0.0,0.0,0.0,0.0,0.0
1565340111160927020,0.815571844578,0.00165924313478,0.0,0.0,0.0,0.0
1565340111211003791,0.815571844578,0.00165924313478,0.0,0.0,0.0,0.0
1565340111312550562,0.815571844578,0.0124852824956,0.0,0.0,0.0,0.0
1565340111424604728,0.815571844578,0.0233434475958,0.0,0.0,0.0,0.0
1565340111549109364,0.815571844578,0.0233434475958,0.0,0.0,0.0,0.0
1565340111700189728,0.815571844578,0.0233434475958,0.0,0.0,0.0,0.0
1565340111719971759,0.815571844578,0.0233434475958,0.0,0.0,0.0,0.0
1565340111863107228,0.815571844578,0.0233434475958,0.0,0.0,0.0,0.0
1565340111972761186,0.815571844578,0.0233434475958,0.0,0.0,0.0,0.0
1565340112023606707,0.815571844578,0.0233434475958,0.0,0.0,0.0,0.0
1565340112128853374,0.815571844578,0.0233434475958,0.0,0.0,0.0,0.0
1565340112232862645,0.815571844578,0.0342016108334,0.0,0.0,0.0,-0.0876467525959
1565340112336836811,0.815571844578,0.0233434475958,0.0,0.0,0.0,-0.201593220234
1565340112446645613,0.815571844578,0.0450597777963,0.0,0.0,0.0,0.0
1565340112496971707,0.815571844578,0.0450597777963,0.0,0.0,0.0,0.0
1565340112604600457,0.815571844578,0.0559179410338,0.0,0.0,0.0,0.0
1565340112654968061,0.815571844578,0.0559179410338,0.0,0.0,0.0,0.0
1565340112760525822,0.815571844578,0.0559179410338,0.0,0.0,0.0,0.0
1565340112881156707,0.815571844578,0.0559179410338,0.0,0.0,0.0,0.0
1565340113009637696,0.815571844578,0.0559179410338,0.0,0.0,0.0,0.179860830307
1565340113111266498,0.815571844578,0.0559179410338,0.0,0.0,0.0,0.358924180269
1565340113221082592,0.815571844578,0.0559179410338,0.0,0.0,0.0,0.0
1565340113270964259,0.815571844578,0.0559179410338,0.0,0.0,0.0,0.0
1565340113376922019,0.815571844578,0.0559179410338,0.0,0.0,0.0,0.0
1565340113480821446,0.815571844578,0.0450597777963,0.0,0.0,0.0,0.0225138254464
1565340113585185457,0.815571844578,0.0559179410338,0.0,0.0,0.0,0.342652976513
1565340113689008582,0.815571844578,0.0559179410338,0.0,0.0,0.0,0.228706508875
1565340113792771967,0.815571844578,0.0559179410338,0.0,0.0,0.0,0.0
1565340113912650561,0.815571844578,0.0559179410338,0.0,0.0,0.0,0.0
1565340114016513009,0.815571844578,0.0559179410338,0.0,0.0,0.0,0.0
1565340114066586759,0.815571844578,0.0559179410338,0.0,0.0,0.0,0.0
1565340114117941915,0.815571844578,0.0559179410338,0.0,0.0,0.0,0.0
1565340114167092696,0.815571844578,0.0559179410338,0.0,0.0,0.0,0.0
1565340114217395352,0.815571844578,0.0559179410338,0.0,0.0,0.0,0.0
1565340114332513998,0.522562026978,-0.0,0.0,0.0,0.0,0.0
1565340114437064258,-0.0,-0.0,0.0,0.0,0.0,0.0
1565340114486851081,-0.0,-0.0,0.0,0.0,0.0,0.0
1565340114537982331,-0.0,-0.0,0.0,0.0,0.0,0.0
1565340114647561915,-0.0,-0.0,0.0,0.0,0.0,0.114760033786
1565340114769004206,-0.0,-0.0,0.0,0.0,0.0,0.212419271469
1565340114872954414,-0.0,-0.0,0.0,0.0,0.0,0.407769858837
1565340114976984935,-0.0,-0.0,0.0,0.0,0.0,0.413182884455
1565340115106799935,-0.0,-0.0,0.0,0.0,0.0,0.413182884455
1565340115212819414,-0.0,-0.0,0.0,0.0,0.0,0.407769858837
1565340115341192331,-0.0,-0.0,0.0,0.0,0.0,0.445741295815
1565340115445143633,-0.0,-0.0,0.0,0.0,0.0,0.440328270197
1565340115549082904,0.0124852824956,-0.0,0.0,0.0,0.0,0.0
1565340115657609570,0.207835868001,-0.0,0.0,0.0,0.0,0.0
1565340115788792227,0.403186440468,-0.0,0.0,0.0,0.0,0.0
1565340115904640664,0.468303322792,-0.0,0.0,0.0,0.0,0.0
1565340116012862227,0.468303322792,-0.0,0.0,0.0,0.0,0.0
1565340116116877539,0.479129344225,-0.0,0.0,0.0,0.0,0.0
1565340116220984987,0.479129344225,-0.0,0.0,0.0,0.0,0.120173059404
1565340116335715560,0.468303322792,-0.0,0.0,0.0,0.0,0.250406771898
1565340116438104570,0.468303322792,-0.0,0.0,0.0,0.0,0.299236387014
1565340116549642174,0.479129344225,-0.0,0.0,0.0,0.0,0.255835860968
1565340116653664622,0.479129344225,-0.0,0.0,0.0,0.0,0.0876306891441
1565340116777412955,0.468303322792,-0.0,0.0,0.0,0.0,0.304665476084
1565340116885202903,0.468303322792,-0.0,0.0,0.0,0.0,0.331794828176
1565340116996643320,0.468303322792,-0.0,0.0,0.0,0.0,0.158160567284
1565340117104750091,0.468303322792,-0.0,0.0,0.0,0.0,0.0713434442878
1565340117150799518,0.468303322792,-0.0,0.0,0.0,0.0,0.0713434442878
1565340117260746132,0.468303322792,-0.0,0.0,0.0,0.0,0.24497769773
1565340117364453007,0.468303322792,-0.0,0.0,0.0,0.0,0.293823361397
1565340117492423268,0.468303322792,-0.0,0.0,0.0,0.0,0.0
1565340117617369413,0.468303322792,-0.0,0.0,0.0,0.0,0.0
1565340117744965507,0.457445144653,-0.0,0.0,0.0,0.0,-0.109347015619
1565340117870908892,0.457445144653,-0.0,0.0,0.0,0.0,-0.304681539536
1565340117953131861,0.457445144653,-0.0,0.0,0.0,0.0,-0.320968776941
1565340118060973424,0.457445144653,-0.0,0.0,0.0,0.0,-0.348098129034
1565340118208562382,0.457445144653,-0.0,0.0,0.0,0.0,0.0
1565340118258825767,0.457445144653,-0.0,0.0,0.0,0.0,0.0
1565340118333733528,0.457445144653,-0.0,0.0,0.0,0.0,0.0
1565340118359303684,0.457445144653,-0.0,0.0,0.0,0.0,0.0
1565340118409434517,0.457445144653,-0.0,0.0,0.0,0.0,0.0
1565340118529165767,0.468303322792,-0.0,0.0,0.0,0.0,-0.36436933279
1565340118633308215,0.457445144653,-0.0,0.0,0.0,0.0,-0.413198947906
1565340118742273059,0.457445144653,-0.0,0.0,0.0,0.0,0.0
1565340118791533944,0.457445144653,-0.0,0.0,0.0,0.0,0.0
1565340118844984413,0.457445144653,-0.0,0.0,0.0,0.0,0.0
1565340118893812538,0.457445144653,-0.0,0.0,0.0,0.0,0.0
1565340118942007798,0.457445144653,-0.0,0.0,0.0,0.0,0.0
1565340118992333996,0.457445144653,-0.0,0.0,0.0,0.0,0.0
1565340119092941340,0.457445144653,-0.0,0.0,0.0,0.0,0.0
1565340119143255975,0.457445144653,-0.0,0.0,0.0,0.0,0.0
1565340119192953215,0.457445144653,-0.0,0.0,0.0,0.0,0.0
1565340119303148371,0.457445144653,-0.0,0.0,0.0,0.0,0.0
1565340119350808475,0.457445144653,-0.0,0.0,0.0,0.0,0.0
1565340119492809725,0.479129344225,-0.0,0.0,0.0,0.0,0.0
1565340119542998215,0.479129344225,-0.0,0.0,0.0,0.0,0.0
1565340119593223475,0.479129344225,-0.0,0.0,0.0,0.0,0.0
1565340119729877225,0.511703848839,-0.0,0.0,0.0,0.0,0.0
1565340119834300142,0.511703848839,-0.0,0.0,0.0,0.0,0.0
1565340119944639829,0.576820731163,-0.0,0.0,0.0,0.0,0.0
1565340120085205767,0.576820731163,-0.0,0.0,0.0,0.0,0.0496431738138
1565340120188996287,0.576820731163,-0.0,0.0,0.0,0.0,0.169018730521
1565340120297090142,0.576820731163,-0.0,0.0,0.0,0.0,0.250406771898
1565340120412931548,0.576820731163,-0.0,0.0,0.0,0.0,0.266677975655
1565340120524808371,0.576820731163,-0.0,0.0,0.0,0.0,0.239548608661
1565340120633646808,0.576820731163,-0.0,0.0,0.0,0.0,0.0
1565340120686955089,0.576820731163,-0.0,0.0,0.0,0.0,0.0
1565340120793045402,0.565962553024,-0.0,0.0,0.0,0.0,0.141889378428
1565340120897389204,0.576820731163,-0.0,0.0,0.0,0.0,0.304665476084
1565340121027686652,0.576820731163,-0.0,0.0,0.0,0.0,0.315523654222
1565340121129479256,0.576820731163,-0.0,0.0,0.0,0.0,0.342652976513
1565340121233081391,0.565962553024,-0.0,0.0,0.0,0.0,0.266677975655
1565340121337542277,0.576820731163,-0.0,0.0,0.0,0.0,0.0
1565340121444695141,0.576820731163,-0.0,0.0,0.0,0.0,0.0
1565340121495138110,0.576820731163,-0.0,0.0,0.0,0.0,0.0
1565340121545504724,0.576820731163,-0.0,0.0,0.0,0.0,0.0
1565340121699406079,0.576820731163,-0.0,0.0,0.0,0.0,0.169018730521
1565340121819167328,0.576820731163,-0.0,0.0,0.0,0.0,0.239548608661
1565340121901271808,0.565962553024,-0.0,0.0,0.0,0.0,0.250406771898
1565340122001184516,0.576820731163,-0.0,0.0,0.0,0.0,0.277536123991
1565340122113385401,0.576820731163,-0.0,0.0,0.0,0.0,0.277536123991
1565340122256888162,0.576820731163,-0.0,0.0,0.0,0.0,0.277536123991
1565340122369363526,0.565962553024,-0.0,0.0,0.0,0.0,0.28296521306
1565340122475616859,0.576820731163,-0.0,0.0,0.0,0.0,0.0
1565340122523050766,0.576820731163,-0.0,0.0,0.0,0.0,0.0
1565340122573779047,0.576820731163,-0.0,0.0,0.0,0.0,0.0
1565340122623640453,0.576820731163,-0.0,0.0,0.0,0.0,0.0
1565340122753275141,0.565962553024,-0.0,0.0,0.0,0.0,0.0
1565340122803589411,0.565962553024,-0.0,0.0,0.0,0.0,0.0
1565340122853199307,0.565962553024,-0.0,0.0,0.0,0.0,0.0
1565340122990331599,0.576820731163,-0.0,0.0,0.0,0.0,0.0
1565340123039093891,0.576820731163,-0.0,0.0,0.0,0.0,0.0
1565340123089123005,0.576820731163,-0.0,0.0,0.0,0.0,0.0
1565340123216610193,0.565962553024,-0.0,0.0,0.0,0.0,0.0
1565340123336984776,0.565962553024,-0.0,0.0,0.0,0.0,0.0
1565340123456725817,0.565962553024,-0.0,0.0,0.0,0.0,0.0
1565340123560784359,0.576820731163,-0.0,0.0,0.0,0.0,0.0
1565340123673454619,0.565962553024,-0.0,0.0,0.0,0.0,0.114760033786
1565340123777121859,0.576820731163,-0.0,0.0,0.0,0.0,0.125602141023
1565340123827191026,0.576820731163,-0.0,0.0,0.0,0.0,0.125602141023
1565340123928685973,0.576820731163,-0.0,0.0,0.0,0.0,0.131031215191
1565340124033710296,0.576820731163,-0.0,0.0,0.0,0.0,0.174447819591
1565340124136953005,0.565962553024,-0.0,0.0,0.0,0.0,0.131031215191
1565340124241800400,0.565962553024,-0.0,0.0,0.0,0.0,0.0
1565340124291066442,0.565962553024,-0.0,0.0,0.0,0.0,0.0
1565340124392592275,0.565962553024,-0.0,0.0,0.0,0.0,0.0
1565340124501092900,0.576820731163,-0.0,0.0,0.0,0.0,0.0876306891441
1565340124605484202,0.565962553024,-0.0,0.0,0.0,0.0,0.169018730521
1565340124656239202,0.565962553024,-0.0,0.0,0.0,0.0,0.169018730521
1565340124769551598,0.565962553024,-0.0,0.0,0.0,0.0,0.174447819591
1565340124893283994,0.576820731163,-0.0,0.0,0.0,0.0,0.310094565153
1565340125004767744,0.576820731163,-0.0,0.0,0.0,0.0,0.331794828176
1565340125125111286,0.565962553024,-0.0,0.0,0.0,0.0,0.0550722554326
1565340125229028056,0.565962553024,-0.0,0.0,0.0,0.0,0.0
1565340125279364983,0.565962553024,-0.0,0.0,0.0,0.0,0.0
1565340125413640817,0.576820731163,-0.0,0.0,0.0,0.0,0.0
1565340125464489567,0.576820731163,-0.0,0.0,0.0,0.0,0.0
1565340125565935400,0.565962553024,-0.0,0.0,0.0,0.0,0.0
1565340125695477483,0.576820731163,-0.0,0.0,0.0,0.0,0.103901870549
1565340125788788369,0.565962553024,-0.0,0.0,0.0,0.0,0.24497769773
1565340125892979671,0.576820731163,-0.0,0.0,0.0,0.0,0.261264950037
1565340126015399202,0.576820731163,-0.0,0.0,0.0,0.0,0.250406771898
1565340126108359671,0.565962553024,-0.0,0.0,0.0,0.0,0.0
1565340126155721702,0.565962553024,-0.0,0.0,0.0,0.0,0.0
1565340126206820921,0.565962553024,-0.0,0.0,0.0,0.0,0.0
1565340126258714514,0.565962553024,-0.0,0.0,0.0,0.0,0.0
1565340126396865348,0.576820731163,-0.0,0.0,0.0,0.0,0.0
1565340126529080139,0.576820731163,-0.0,0.0,0.0,0.0,0.0116556612775
1565340126641433525,0.565962553024,-0.0,0.0,0.0,0.0,0.0984727889299
1565340126748902118,0.565962553024,-0.0,0.0,0.0,0.0,0.304665476084
1565340126841934722,0.576820731163,-0.0,0.0,0.0,0.0,0.266677975655
1565340126945576129,0.576820731163,-0.0,0.0,0.0,0.0,0.0
1565340126995525972,0.576820731163,-0.0,0.0,0.0,0.0,0.0
1565340127145322535,0.565962553024,-0.0,0.0,0.0,0.0,0.0
1565340127194965347,0.565962553024,-0.0,0.0,0.0,0.0,0.0
1565340127245217951,0.565962553024,-0.0,0.0,0.0,0.0,0.0
1565340127389266128,0.576820731163,-0.0,0.0,0.0,0.0,0.00622657919303
1565340127493277483,0.565962553024,-0.0,0.0,0.0,0.0,0.103901870549
1565340127601590503,0.576820731163,-0.0,0.0,0.0,0.0,0.239548608661
1565340127709355035,0.565962553024,-0.0,0.0,0.0,0.0,0.272107034922
1565340127810954462,0.565962553024,-0.0,0.0,0.0,0.0,0.0
1565340127937256545,0.576820731163,-0.0,0.0,0.0,0.0,0.0
1565340128025519566,0.565962553024,-0.0,0.0,0.0,0.0,0.0
1565340128075179514,0.565962553024,-0.0,0.0,0.0,0.0,0.0
1565340128125528368,0.565962553024,-0.0,0.0,0.0,0.0,0.0
1565340128257528264,0.565962553024,-0.0,0.0,0.0,0.0,0.152731493115
1565340128361442118,0.576820731163,-0.0,0.0,0.0,0.0,0.185289919376
1565340128484852534,0.576820731163,-0.0,0.0,0.0,0.0,0.163589656353
1565340128597214045,0.565962553024,-0.0,0.0,0.0,0.0,0.0
1565340128701147378,0.565962553024,-0.0,0.0,0.0,0.0,0.0
1565340128820982430,0.576820731163,-0.0,0.0,0.0,0.0,0.0
1565340128871484357,0.576820731163,-0.0,0.0,0.0,0.0,0.0
1565340128923294982,0.576820731163,-0.0,0.0,0.0,0.0,0.0
1565340128973450867,0.576820731163,-0.0,0.0,0.0,0.0,0.0
1565340129088695659,0.565962553024,-0.0,0.0,0.0,0.0,0.0
1565340129139932378,0.565962553024,-0.0,0.0,0.0,0.0,0.0
1565340129189931284,0.565962553024,-0.0,0.0,0.0,0.0,0.0
1565340129240294461,0.565962553024,-0.0,0.0,0.0,0.0,0.0
1565340129361956336,0.576820731163,-0.0,0.0,0.0,0.0,0.0
1565340129411812794,0.576820731163,-0.0,0.0,0.0,0.0,0.0
1565340129521729930,0.576820731163,-0.0,0.0,0.0,0.0,0.141889378428
1565340129625419513,0.576820731163,-0.0,0.0,0.0,0.0,0.158160567284
1565340129729419773,0.565962553024,-0.0,0.0,0.0,0.0,0.190718993545
1565340129847613523,0.565962553024,-0.0,0.0,0.0,0.0,0.207006245852
1565340129937265190,0.576820731163,-0.0,0.0,0.0,0.0,0.207006245852
1565340130057520659,0.565962553024,-0.0,0.0,0.0,0.0,0.212419271469
1565340130190094669,0.565962553024,-0.0,0.0,0.0,0.0,0.207006245852
1565340130313227690,0.576820731163,-0.0,0.0,0.0,0.0,0.212419271469
1565340130458395034,0.576820731163,-0.0,0.0,0.0,0.0,0.28296521306
1565340130563818002,0.565962553024,-0.0,0.0,0.0,0.0,0.299236387014
1565340130610852898,0.565962553024,-0.0,0.0,0.0,0.0,0.299236387014
1565340130661898211,0.565962553024,-0.0,0.0,0.0,0.0,0.299236387014
1565340130784430867,0.576820731163,-0.0,0.0,0.0,0.0,0.293823361397
1565340130889660554,0.565962553024,-0.0,0.0,0.0,0.0,0.293823361397
1565340131033808262,0.565962553024,-0.0,0.0,0.0,0.0,0.272107034922
1565340131137431492,0.565962553024,-0.0,0.0,0.0,0.0,0.0
1565340131187843054,0.565962553024,-0.0,0.0,0.0,0.0,0.0
1565340131333456544,0.576820731163,-0.0,0.0,0.0,0.0,0.0
1565340131383950398,0.576820731163,-0.0,0.0,0.0,0.0,0.0
1565340131485178210,0.576820731163,-0.0,0.0,0.0,0.0,0.174447819591
1565340131589502585,0.576820731163,-0.0,0.0,0.0,0.0,0.310094565153
1565340131701639148,0.565962553024,-0.0,0.0,0.0,0.0,0.310094565153
1565340131817579564,0.576820731163,-0.0,0.0,0.0,0.0,0.304665476084
1565340131937505241,0.565962553024,-0.0,0.0,0.0,0.0,0.234135597944
1565340132043342116,0.565962553024,-0.0,0.0,0.0,0.0,0.185289919376
1565340132157178106,0.565962553024,-0.0,0.0,0.0,0.0,0.185289919376
1565340132261767845,0.565962553024,-0.0,0.0,0.0,0.0,0.0
1565340132312005554,0.565962553024,-0.0,0.0,0.0,0.0,0.0
1565340132436859981,0.576820731163,-0.0,0.0,0.0,0.0,0.0
1565340132486816647,0.576820731163,-0.0,0.0,0.0,0.0,0.0
1565340132537436699,0.576820731163,-0.0,0.0,0.0,0.0,0.0
1565340132642453991,0.565962553024,-0.0,0.0,0.0,0.0,0.0
1565340132744946491,0.576820731163,-0.0,0.0,0.0,0.0,0.0
1565340132877135866,0.565962553024,-0.0,0.0,0.0,0.0,0.0
1565340132981810293,0.576820731163,-0.0,0.0,0.0,0.0,0.0
1565340133084992220,0.565962553024,-0.0,0.0,0.0,0.0,0.0
1565340133197022949,0.565962553024,-0.0,0.0,0.0,0.0,0.0
1565340133248290710,0.565962553024,-0.0,0.0,0.0,0.0,0.0
1565340133298028001,0.565962553024,-0.0,0.0,0.0,0.0,0.0
1565340133348364980,0.565962553024,-0.0,0.0,0.0,0.0,0.0
1565340133398321022,0.565962553024,-0.0,0.0,0.0,0.0,0.0
1565340133493784355,0.565962553024,-0.0,0.0,0.0,0.0,0.0
1565340133498759147,0.565962553024,-0.0,0.0,0.0,0.0,0.0
1565340133621452064,0.576820731163,-0.0,0.0,0.0,0.0,0.0
1565340133674536230,0.576820731163,-0.0,0.0,0.0,0.0,0.0
1565340133721921178,0.576820731163,-0.0,0.0,0.0,0.0,0.0
1565340133853130553,0.565962553024,-0.0,0.0,0.0,0.0,0.0
1565340133957175084,0.609363079071,-0.0,0.0,0.0,0.0,0.0
1565340134077173938,0.663621783257,-0.0,0.0,0.0,0.0,0.0
1565340134224970084,0.674479961395,-0.0,0.0,0.0,0.0,0.0
1565340134357265084,0.707054436207,-0.0,0.0,0.0,0.0,0.0
1565340134409001282,0.707054436207,-0.0,0.0,0.0,0.0,0.0
1565340134458449719,0.707054436207,-0.0,0.0,0.0,0.0,0.0
1565340134562048782,0.717880487442,-0.0,0.0,0.0,0.0,0.0
1565340134615882011,0.717880487442,-0.0,0.0,0.0,0.0,0.0
1565340134661271490,0.717880487442,-0.0,0.0,0.0,0.0,0.0
1565340134711757428,0.717880487442,-0.0,0.0,0.0,0.0,0.0
1565340134849801386,0.717880487442,-0.0,0.0,0.0,0.0,0.0
1565340134953585292,0.717880487442,-0.0,0.0,0.0,0.0,0.0
1565340135069453886,0.728738665581,-0.0,0.0,0.0,0.0,-0.0876467525959
1565340135173273000,0.728738665581,-0.0,0.0,0.0,0.0,-0.125618204474
1565340135289765969,0.717880487442,-0.0,0.0,0.0,0.0,-0.125618204474
1565340135400780969,0.717880487442,-0.0,0.0,0.0,0.0,-0.158176630735
1565340135497499146,0.717880487442,-0.0,0.0,0.0,0.0,-0.196164146066
1565340135601255240,0.728738665581,-0.0,0.0,0.0,0.0,0.0
1565340135653843938,0.728738665581,-0.0,0.0,0.0,0.0,0.0
1565340135769042948,0.728738665581,-0.0,0.0,0.0,0.0,0.0
1565340135901385917,0.728738665581,-0.0,0.0,0.0,0.0,-0.234151661396
1565340135951669042,0.728738665581,-0.0,0.0,0.0,0.0,-0.234151661396
1565340136061361958,0.728738665581,-0.0,0.0,0.0,0.0,-0.358940243721
1565340136165794823,0.728738665581,-0.0,0.0,0.0,0.0,-0.337239980698
1565340136269383052,0.728738665581,-0.0,0.0,0.0,0.0,0.0
1565340136320607792,0.728738665581,-0.0,0.0,0.0,0.0,0.0
1565340136369942635,0.728738665581,-0.0,0.0,0.0,0.0,0.0
1565340136420419771,0.728738665581,-0.0,0.0,0.0,0.0,0.0
1565340136470418625,0.728738665581,-0.0,0.0,0.0,0.0,0.0
1565340136520842010,0.728738665581,-0.0,0.0,0.0,0.0,0.0
1565340136642638469,0.739596784115,-0.0,0.0,0.0,0.0,0.0
1565340136745925552,0.739596784115,-0.0,0.0,0.0,0.0,0.0
1565340136849825708,0.728738665581,-0.0,0.0,0.0,0.0,0.0
1565340136899290344,0.728738665581,-0.0,0.0,0.0,0.0,0.0
1565340137025701177,0.739596784115,-0.0,0.0,0.0,0.0,0.0
1565340137133170708,0.728738665581,-0.0,0.0,0.0,0.0,0.0
1565340137241959562,0.728738665581,-0.0,0.0,0.0,0.0,0.0
1565340137345824770,0.739596784115,-0.0,0.0,0.0,0.0,-0.266694039106
1565340137450060291,0.750454962254,-0.0,0.0,0.0,0.0,-0.369798392057
1565340137557382479,0.750454962254,-0.0,0.0,0.0,0.0,0.0
1565340137660853729,0.761313140392,-0.0,0.0,0.0,0.0,0.0
1565340137712103937,0.761313140392,-0.0,0.0,0.0,0.0,0.0
1565340137761430135,0.761313140392,-0.0,0.0,0.0,0.0,0.0
1565340137897342895,0.761313140392,-0.0,0.0,0.0,0.0,0.0
1565340138030739979,0.782997310162,-0.0,0.0,0.0,0.0,0.0
1565340138081554041,0.782997310162,-0.0,0.0,0.0,0.0,0.0
1565340138133072843,0.782997310162,-0.0,0.0,0.0,0.0,0.0
1565340138250873885,0.782997310162,-0.0,0.0,0.0,0.0,0.0
1565340138369373051,0.7938554883,-0.0,0.0,0.0,0.0,0.0
1565340138481788468,0.782997310162,-0.0,0.0,0.0,0.0,0.0
1565340138531822270,0.782997310162,-0.0,0.0,0.0,0.0,0.0
1565340138582148572,0.782997310162,-0.0,0.0,0.0,0.0,0.0
1565340138631967426,0.782997310162,-0.0,0.0,0.0,0.0,0.0
1565340138682007895,0.782997310162,-0.0,0.0,0.0,0.0,0.0
1565340138732016749,0.782997310162,-0.0,0.0,0.0,0.0,0.0
1565340138783026749,0.782997310162,-0.0,0.0,0.0,0.0,0.0
1565340138831917530,0.782997310162,-0.0,0.0,0.0,0.0,0.0
1565340138882374509,0.782997310162,-0.0,0.0,0.0,0.0,0.0
1565340138932528259,0.782997310162,-0.0,0.0,0.0,0.0,0.0
1565340138982865343,0.782997310162,-0.0,0.0,0.0,0.0,0.0
1565340139033156905,0.782997310162,-0.0,0.0,0.0,0.0,0.0
1565340139082925811,0.782997310162,-0.0,0.0,0.0,0.0,0.0
1565340139133055239,0.782997310162,-0.0,0.0,0.0,0.0,0.0
1565340139185706853,0.782997310162,-0.0,0.0,0.0,0.0,0.0
1565340139305833311,0.782997310162,-0.0,0.0,0.0,0.0,0.0
1565340139411698988,0.7938554883,-0.0,0.0,0.0,0.0,0.0
1565340139459584301,0.7938554883,-0.0,0.0,0.0,0.0,0.0
1565340139510007322,0.7938554883,-0.0,0.0,0.0,0.0,0.0
1565340139560204040,0.7938554883,-0.0,0.0,0.0,0.0,0.0
1565340139609819822,0.7938554883,-0.0,0.0,0.0,0.0,0.0
1565340139660195811,0.7938554883,-0.0,0.0,0.0,0.0,0.0
1565340139710595655,0.7938554883,-0.0,0.0,0.0,0.0,0.0
1565340139816879665,0.7938554883,-0.0,0.0,0.0,0.0,-0.207022309303
1565340139921462009,0.7938554883,-0.0,0.0,0.0,0.0,-0.207022309303
1565340139971402426,0.7938554883,-0.0,0.0,0.0,0.0,-0.207022309303
1565340140101724874,0.7938554883,-0.0,0.0,0.0,0.0,-0.207022309303
1565340140205782061,0.782997310162,-0.0,0.0,0.0,0.0,-0.201593220234
1565340140310125290,0.7938554883,-0.0,0.0,0.0,0.0,-0.207022309303
1565340140413073571,0.782997310162,-0.0,0.0,0.0,0.0,-0.201593220234
1565340140517882269,0.7938554883,-0.0,0.0,0.0,0.0,-0.207022309303
1565340140621465082,0.7938554883,-0.0,0.0,0.0,0.0,-0.207022309303
1565340140749304873,0.7938554883,-0.0,0.0,0.0,0.0,-0.25042283535
1565340140865703675,0.782997310162,-0.0,0.0,0.0,0.0,-0.25042283535
1565340140977464925,0.717880487442,-0.0,0.0,0.0,0.0,0.0
1565340141082000498,0.0450597777963,-0.0,0.0,0.0,0.0,0.0
1565340141185018571,-0.0,-0.0,0.0,0.0,0.0,0.0
1565340141235489352,-0.0,-0.0,0.0,0.0,0.0,0.0
1565340141377096436,-0.0,-0.0,0.0,0.0,0.0,-0.25042283535
1565340141481396227,-0.0,-0.0,0.0,0.0,0.0,-0.39692774415
1565340141585405029,-0.0,-0.0,0.0,0.0,0.0,-0.39692774415
1565340141733549925,-0.0,-0.0,0.0,0.0,0.0,-0.39692774415
1565340141819723519,-0.0,-0.0,0.0,0.0,0.0,-0.5
1565340141867874873,-0.0,-0.0,0.0,0.0,0.0,-0.5
1565340141909358362,-0.0,-0.0,0.0,0.0,0.0,-0.5
1565340141959525081,-0.0,-0.0,0.0,0.0,0.0,-0.5
1565340142010047008,-0.0,-0.0,0.0,0.0,0.0,-0.5
1565340142059982946,-0.0,-0.0,0.0,0.0,0.0,-0.5
1565340142110419300,-0.0,-0.0,0.0,0.0,0.0,-0.5
1565340142161395706,-0.0,-0.0,0.0,0.0,0.0,-0.5
1565340142285309091,-0.0,-0.0,0.0,0.0,0.0,0.0
1565340142335518154,-0.0,-0.0,0.0,0.0,0.0,0.0
1565340142385748519,-0.0,-0.0,0.0,0.0,0.0,0.0
1565340142436059977,-0.0,-0.0,0.0,0.0,0.0,0.0
1565340142486243102,-0.0,-0.0,0.0,0.0,0.0,0.0
1565340142536505654,-0.0,-0.0,0.0,0.0,0.0,0.0
1565340142586767841,-0.0,-0.0,0.0,0.0,0.0,0.0
1565340142636776852,-0.0,-0.0,0.0,0.0,0.0,0.0
1565340142687069404,-0.0,-0.0,0.0,0.0,0.0,0.0
1565340142737727998,-0.0,-0.0,0.0,0.0,0.0,0.0
1565340142788690185,-0.0,-0.0,0.0,0.0,0.0,0.0
1565340142839667789,-0.0,-0.0,0.0,0.0,0.0,0.0
1565340142887858935,-0.0,-0.0,0.0,0.0,0.0,0.0
1565340142937961643,-0.0,-0.0,0.0,0.0,0.0,0.0
1565340142988265497,-0.0,-0.0,0.0,0.0,0.0,0.0
1565340143129374404,0.468303322792,-0.0,0.0,0.0,0.0,0.0
1565340143233520810,0.587678849697,-0.0,0.0,0.0,0.0,0.0
1565340143378845289,0.663621783257,-0.0,0.0,0.0,0.0,0.0
1565340143498157060,0.674479961395,-0.0,0.0,0.0,0.0,0.0
1565340143621620445,0.674479961395,-0.0,0.0,0.0,0.0,0.0
1565340143671825341,0.674479961395,-0.0,0.0,0.0,0.0,0.0
1565340143722541956,0.674479961395,-0.0,0.0,0.0,0.0,0.0
1565340143772266226,0.674479961395,-0.0,0.0,0.0,0.0,0.0
1565340143824220549,0.674479961395,-0.0,0.0,0.0,0.0,0.0
1565340143884562893,0.674479961395,-0.0,0.0,0.0,0.0,0.0
1565340143926405133,0.674479961395,-0.0,0.0,0.0,0.0,0.0
1565340143972336695,0.674479961395,-0.0,0.0,0.0,0.0,0.0
1565340144023815653,0.674479961395,-0.0,0.0,0.0,0.0,0.0
1565340144073142737,0.674479961395,-0.0,0.0,0.0,0.0,0.0
1565340144123130132,0.674479961395,-0.0,0.0,0.0,0.0,0.0
1565340144173690705,0.674479961395,-0.0,0.0,0.0,0.0,0.0
1565340144223469768,0.674479961395,-0.0,0.0,0.0,0.0,0.0
1565340144273657476,0.674479961395,-0.0,0.0,0.0,0.0,0.0
1565340144324088518,0.674479961395,-0.0,0.0,0.0,0.0,0.0
1565340144376508622,0.674479961395,-0.0,0.0,0.0,0.0,0.0
1565340144426025966,0.674479961395,-0.0,0.0,0.0,0.0,0.0
1565340144476908622,0.674479961395,-0.0,0.0,0.0,0.0,0.0
1565340144525257893,0.674479961395,-0.0,0.0,0.0,0.0,0.0
1565340144575203518,0.674479961395,-0.0,0.0,0.0,0.0,0.0
1565340144625822424,0.674479961395,-0.0,0.0,0.0,0.0,0.0
1565340144676268413,0.674479961395,-0.0,0.0,0.0,0.0,0.0
1565340144813532632,0.707054436207,-0.0,0.0,0.0,0.0,0.0
1565340144929642059,0.707054436207,-0.0,0.0,0.0,0.0,0.0
1565340145039409038,0.826397895813,-0.0,0.0,0.0,0.0,0.0
1565340145145188205,0.91323107481,-0.0,0.0,0.0,0.0,0.0
1565340145250692840,1.0,-0.0,0.0,0.0,0.0,0.0
1565340145300056382,1.0,-0.0,0.0,0.0,0.0,0.0
1565340145350194767,1.0,-0.0,0.0,0.0,0.0,0.0
1565340145457078569,1.0,-0.0,0.0,0.0,0.0,0.0
1565340145507505028,1.0,-0.0,0.0,0.0,0.0,0.0
1565340145558148153,1.0,-0.0,0.0,0.0,0.0,0.0
1565340145608462788,1.0,-0.0,0.0,0.0,0.0,0.0
1565340145658212059,1.0,-0.0,0.0,0.0,0.0,0.0
1565340145709617632,1.0,-0.0,0.0,0.0,0.0,0.0
1565340145758545392,1.0,-0.0,0.0,0.0,0.0,0.0
1565340145884801069,1.0,-0.0,0.0,0.0,0.0,0.0
1565340145935651746,1.0,-0.0,0.0,0.0,0.0,0.0
1565340145986454455,1.0,-0.0,0.0,0.0,0.0,0.0
1565340146101782892,-0.0,-0.0,0.0,0.0,0.0,0.0
1565340146151771903,-0.0,-0.0,0.0,0.0,0.0,0.0
1565340146202111121,-0.0,-0.0,0.0,0.0,0.0,0.0
1565340146253786746,-0.0,-0.0,0.0,0.0,0.0,0.0
1565340146302597944,-0.0,-0.0,0.0,0.0,0.0,0.0
1565340146413654142,-0.0,-0.0,0.0,0.0,0.0,-0.315539717674
1565340146518736538,-0.0,-0.0,0.0,0.0,0.0,-0.5
1565340146568143152,-0.0,-0.0,0.0,0.0,0.0,-0.5
1565340146618218986,-0.0,-0.0,0.0,0.0,0.0,-0.5
1565340146668568100,-0.0,-0.0,0.0,0.0,0.0,-0.5
1565340146719238986,-0.0,-0.0,0.0,0.0,0.0,-0.5
1565340146768758673,-0.0,-0.0,0.0,0.0,0.0,-0.5
1565340146818712267,-0.0,-0.0,0.0,0.0,0.0,-0.5
1565340146868790340,-0.0,-0.0,0.0,0.0,0.0,-0.5
1565340146919367527,-0.0,-0.0,0.0,0.0,0.0,-0.5
1565340146969303413,-0.0,-0.0,0.0,0.0,0.0,-0.5
1565340147019920548,-0.0,-0.0,0.0,0.0,0.0,-0.5
1565340147069587267,-0.0,-0.0,0.0,0.0,0.0,-0.5
1565340147121310600,-0.0,-0.0,0.0,0.0,0.0,-0.5
1565340147221744142,-0.0,-0.0,0.0,0.0,0.0,0.0
1565340147271971277,-0.0,-0.0,0.0,0.0,0.0,0.0
1565340147322034923,-0.0,-0.0,0.0,0.0,0.0,0.0
1565340147371935027,-0.0,-0.0,0.0,0.0,0.0,0.0
1565340147514107319,0.414044618607,-0.0,0.0,0.0,0.0,0.0
1565340147613406485,0.446586996317,-0.0,0.0,0.0,0.0,0.0
1565340147729672683,0.435728818178,-0.0,0.0,0.0,0.0,0.0
1565340147872879766,0.511703848839,-0.0,0.0,0.0,0.0,0.0
1565340147961890652,0.815571844578,-0.0,0.0,0.0,0.0,0.0
1565340148097912579,0.924089252949,-0.0,0.0,0.0,0.0,0.0
1565340148224855495,0.967489778996,-0.0,0.0,0.0,0.0,0.0
1565340148269431173,0.967489778996,-0.0,0.0,0.0,0.0,0.0
1565340148410180287,0.956631600857,-0.0,0.0,0.0,0.0,-0.228722572327
1565340148515326433,0.902372896671,-0.0,0.0,0.0,0.0,-0.239564672112
1565340148622302474,0.902372896671,-0.0,0.0,0.0,0.0,-0.304681539536
1565340148725687579,0.902372896671,-0.0,0.0,0.0,0.0,-0.386069595814
1565340148829632891,0.902372896671,-0.0,0.0,0.0,0.0,-0.391498655081
1565340148933937214,1.0,-0.0,0.0,0.0,0.0,-0.391498655081
1565340149044956797,0.956631600857,-0.0,0.0,0.0,0.0,-0.5
1565340149145164401,0.956631600857,-0.0,0.0,0.0,0.0,-0.5
1565340149195326589,0.956631600857,-0.0,0.0,0.0,0.0,-0.5
1565340149297658516,0.956631600857,-0.0,0.0,0.0,0.0,0.0
1565340149433739610,1.0,0.0884603112936,0.0,0.0,0.0,0.0
1565340149483764245,1.0,0.0884603112936,0.0,0.0,0.0,0.0
1565340149534035235,1.0,0.0884603112936,0.0,0.0,0.0,0.0
1565340149673980964,-0.0,-0.0,0.0,0.0,0.0,0.0
1565340149723549766,-0.0,-0.0,0.0,0.0,0.0,0.0
1565340149774436432,-0.0,-0.0,0.0,0.0,0.0,0.0
1565340149834708464,-0.0,-0.0,0.0,0.0,0.0,0.0
1565340149877406849,-0.0,-0.0,0.0,0.0,0.0,0.0
1565340149924142786,-0.0,-0.0,0.0,0.0,0.0,0.0
1565340149974750234,-0.0,-0.0,0.0,0.0,0.0,0.0
1565340150025101224,-0.0,-0.0,0.0,0.0,0.0,0.0
1565340150075833099,-0.0,-0.0,0.0,0.0,0.0,0.0
1565340150125066641,-0.0,-0.0,0.0,0.0,0.0,0.0
1565340150174955391,-0.0,-0.0,0.0,0.0,0.0,0.0
1565340150226070234,-0.0,-0.0,0.0,0.0,0.0,0.0
1565340150362269818,0.121034801006,-0.0,0.0,0.0,0.0,-0.277552187443
1565340150466354818,0.381470113993,-0.0,0.0,0.0,0.0,-0.331810891628
1565340150570824765,0.457445144653,-0.0,0.0,0.0,0.0,-0.358940243721
1565340150673942422,0.62022125721,-0.0,0.0,0.0,0.0,-0.445757359266
1565340150778276484,0.804713666439,-0.0,0.0,0.0,0.0,-0.5
1565340150924890755,0.837256014347,-0.0,0.0,0.0,0.0,-0.5
1565340151027427630,0.945773422718,-0.0,0.0,0.0,0.0,-0.315539717674
1565340151129958515,1.0,0.0559179410338,0.0,0.0,0.0,-0.234151661396
1565340151233916432,1.0,0.0884603112936,0.0,0.0,0.0,0.0
1565340151338169869,1.0,0.110176637769,0.0,0.0,0.0,0.223277434707
1565340151446198255,1.0,0.110176637769,0.0,0.0,0.0,0.46745762229
1565340151545394921,1.0,0.110176637769,0.0,0.0,0.0,0.5
1565340151657490494,1.0,0.121034801006,0.0,0.0,0.0,0.5
1565340151766014400,1.0,0.121034801006,0.0,0.0,0.0,0.5
1565340151883470494,1.0,0.13186083734,0.0,0.0,0.0,0.5
1565340151927427682,1.0,0.13186083734,0.0,0.0,0.0,0.5
1565340152038052682,0.97834789753,0.121034801006,0.0,0.0,0.0,0.0
1565340152153461067,0.97834789753,0.121034801006,0.0,0.0,0.0,0.0
1565340152257945390,1.0,0.142719000578,0.0,0.0,0.0,0.0
1565340152308711119,1.0,0.142719000578,0.0,0.0,0.0,0.0
1565340152431636744,-0.0,-0.0,0.0,0.0,0.0,0.0
1565340152480608931,-0.0,-0.0,0.0,0.0,0.0,0.0
1565340152533330963,-0.0,-0.0,0.0,0.0,0.0,0.0
1565340152581190077,-0.0,-0.0,0.0,0.0,0.0,0.0
1565340152631882004,-0.0,-0.0,0.0,0.0,0.0,0.0
1565340152681714452,-0.0,-0.0,0.0,0.0,0.0,0.0
1565340152731473046,-0.0,-0.0,0.0,0.0,0.0,0.0
1565340152781904921,-0.0,-0.0,0.0,0.0,0.0,0.0
1565340152906076640,-0.0,-0.0,0.0,0.0,0.0,-0.196164146066
1565340153010842733,0.153577163815,-0.0,0.0,0.0,0.0,-0.217864409089
1565340153124495858,0.229552194476,-0.0,0.0,0.0,0.0,-0.228722572327
1565340153233903775,0.403186440468,-0.0,0.0,0.0,0.0,0.0
1565340153342234191,0.479129344225,0.0667439773679,0.0,0.0,0.0,0.0
1565340153442651431,0.522562026978,0.121034801006,0.0,0.0,0.0,-0.293839424849
1565340153545857004,0.544246196747,0.13186083734,0.0,0.0,0.0,-0.418628007174
1565340153665906691,0.555104374886,0.13186083734,0.0,0.0,0.0,-0.478315800428
1565340153769514348,0.565962553024,0.142719000578,0.0,0.0,0.0,-0.489173948765
1565340153873995754,0.576820731163,0.153577163815,0.0,0.0,0.0,0.0
1565340153997769504,0.598504900932,0.164435341954,0.0,0.0,0.0,0.0
1565340154102199920,0.609363079071,0.164435341954,0.0,0.0,0.0,0.234135597944
1565340154215101431,0.609363079071,0.175293505192,0.0,0.0,0.0,0.342652976513
1565340154318686795,0.652763605118,0.175293505192,0.0,0.0,0.0,0.0
1565340154425838045,0.674479961395,0.207835868001,0.0,0.0,0.0,0.0
1565340154529919608,0.717880487442,0.229552194476,0.0,0.0,0.0,0.185289919376
1565340154634272785,0.717880487442,0.229552194476,0.0,0.0,0.0,0.310094565153
1565340154738251326,0.717880487442,0.24037823081,0.0,0.0,0.0,0.0
1565340154789940076,0.717880487442,0.24037823081,0.0,0.0,0.0,0.0
1565340154910766430,0.739596784115,0.24037823081,0.0,0.0,0.0,0.152731493115
1565340155013935024,0.739596784115,0.24037823081,0.0,0.0,0.0,0.494586974382
1565340155122068618,0.739596784115,0.24037823081,0.0,0.0,0.0,0.5
1565340155171943930,0.739596784115,0.24037823081,0.0,0.0,0.0,0.5
1565340155282058514,0.750454962254,0.251236408949,0.0,0.0,0.0,0.494586974382
1565340155389617211,0.750454962254,0.251236408949,0.0,0.0,0.0,0.494586974382
1565340155534486430,0.750454962254,0.24037823081,0.0,0.0,0.0,0.0
1565340155644194972,0.750454962254,0.251236408949,0.0,0.0,0.0,0.0
1565340155709199034,0.750454962254,0.251236408949,0.0,0.0,0.0,0.0
1565340155794091743,0.750454962254,0.251236408949,0.0,0.0,0.0,0.0
1565340155847537888,0.750454962254,0.251236408949,0.0,0.0,0.0,0.0
1565340155904462368,0.750454962254,0.251236408949,0.0,0.0,0.0,0.0
1565340156001709868,0.804713666439,0.272952735424,0.0,0.0,0.0,0.0
1565340156051903774,0.804713666439,0.272952735424,0.0,0.0,0.0,0.0
1565340156101806899,0.804713666439,0.272952735424,0.0,0.0,0.0,0.0
1565340156225684867,0.815571844578,0.272952735424,0.0,0.0,0.0,0.0
1565340156330036638,0.815571844578,0.28381088376,0.0,0.0,0.0,0.0
1565340156442253774,0.815571844578,0.28381088376,0.0,0.0,0.0,0.0
1565340156554094294,0.880688667297,0.316353261471,0.0,0.0,0.0,0.0
1565340156694657211,0.934947371483,0.338069587946,0.0,0.0,0.0,0.0
1565340156736363461,0.934947371483,0.338069587946,0.0,0.0,0.0,0.0
1565340156838204555,0.945773422718,0.348927766085,0.0,0.0,0.0,0.0550722554326
1565340156942929815,0.945773422718,0.338069587946,0.0,0.0,0.0,0.424041032791
1565340157046840544,0.945773422718,0.348927766085,0.0,0.0,0.0,0.5
1565340157150588565,0.945773422718,0.348927766085,0.0,0.0,0.0,0.5
1565340157289990075,0.956631600857,0.348927766085,0.0,0.0,0.0,0.5
1565340157402159971,0.956631600857,0.348927766085,0.0,0.0,0.0,0.0
1565340157505429086,0.945773422718,0.359753787518,0.0,0.0,0.0,0.0
1565340157614031950,0.956631600857,0.359753787518,0.0,0.0,0.0,0.0
1565340157718429502,0.956631600857,0.359753787518,0.0,0.0,0.0,0.0
1565340157768055961,0.956631600857,0.359753787518,0.0,0.0,0.0,0.0
1565340157819858252,0.956631600857,0.359753787518,0.0,0.0,0.0,0.0
1565340157896178929,0.956631600857,0.359753787518,0.0,0.0,0.0,0.0
1565340157920632575,0.956631600857,0.359753787518,0.0,0.0,0.0,0.0
1565340157968813096,0.956631600857,0.359753787518,0.0,0.0,0.0,0.0
1565340158018971065,0.956631600857,0.359753787518,0.0,0.0,0.0,0.0
1565340158138216794,0.956631600857,0.359753787518,0.0,0.0,0.0,0.5
1565340158189942263,0.956631600857,0.359753787518,0.0,0.0,0.0,0.5
1565340158240407783,0.956631600857,0.359753787518,0.0,0.0,0.0,0.5
1565340158288385387,0.956631600857,0.359753787518,0.0,0.0,0.0,0.5
1565340158338513565,0.956631600857,0.359753787518,0.0,0.0,0.0,0.5
1565340158389564346,0.956631600857,0.359753787518,0.0,0.0,0.0,0.5
1565340158438996585,0.956631600857,0.359753787518,0.0,0.0,0.0,0.5
1565340158575727835,0.956631600857,0.370611965656,0.0,0.0,0.0,0.5
1565340158677699294,0.956631600857,0.370611965656,0.0,0.0,0.0,0.5
1565340158787263981,0.609363079071,0.121034801006,0.0,0.0,0.0,0.0
1565340158891142471,-0.0,-0.0,0.0,0.0,0.0,0.0
1565340158941738096,-0.0,-0.0,0.0,0.0,0.0,0.0
1565340158991840127,-0.0,-0.0,0.0,0.0,0.0,0.0
1565340159040694241,-0.0,-0.0,0.0,0.0,0.0,0.0
1565340159090456273,-0.0,-0.0,0.0,0.0,0.0,0.0
1565340159140401481,-0.0,-0.0,0.0,0.0,0.0,0.0
1565340159191365804,-0.0,-0.0,0.0,0.0,0.0,0.0
1565340159240989033,-0.0,-0.0,0.0,0.0,0.0,0.0
1565340159292164398,-0.0,-0.0,0.0,0.0,0.0,0.0
1565340159341650700,-0.0,-0.0,0.0,0.0,0.0,0.0
1565340159391238512,-0.0,-0.0,0.0,0.0,0.0,0.0
1565340159510051585,-0.0,1.0,0.0,0.0,0.0,0.0
1565340159560600387,-0.0,1.0,0.0,0.0,0.0,0.0
1565340159610768147,-0.0,1.0,0.0,0.0,0.0,0.0
1565340159714870595,-0.0,1.0,0.0,0.0,0.0,0.0
1565340159765285908,-0.0,1.0,0.0,0.0,0.0,0.0
1565340159818021741,-0.0,1.0,0.0,0.0,0.0,0.0
1565340159882161585,-0.0,1.0,0.0,0.0,0.0,0.0
1565340159981957158,-0.0,1.0,0.0,0.0,0.0,0.0
1565340160032560543,-0.0,1.0,0.0,0.0,0.0,0.0
1565340160083299241,-0.0,1.0,0.0,0.0,0.0,0.0
1565340160217927522,-0.0,1.0,0.0,0.0,0.0,0.0
1565340160268588928,-0.0,1.0,0.0,0.0,0.0,0.0
1565340160320672626,-0.0,1.0,0.0,0.0,0.0,0.0
1565340160450803043,-0.0,-0.0,0.0,0.0,0.0,0.0
1565340160500403564,-0.0,-0.0,0.0,0.0,0.0,0.0
1565340160638565491,-0.0,-0.435696691275,0.0,0.0,0.0,0.0
1565340160749332887,-0.186087414622,-0.934915244579,0.0,0.0,0.0,0.0
1565340160852341168,-0.316321134567,-1.0,0.0,0.0,0.0,0.0
1565340160962060282,-0.316321134567,-1.0,0.0,0.0,0.0,0.0
1565340161074881116,-0.316321134567,-1.0,0.0,0.0,0.0,-0.0984888523817
1565340161178550907,-0.316321134567,-1.0,0.0,0.0,0.0,-0.201593220234
1565340161282298980,-0.305462986231,-1.0,0.0,0.0,0.0,-0.277552187443
1565340161388292626,-0.316321134567,-1.0,0.0,0.0,0.0,-0.342669039965
1565340161490295803,-0.327179312706,-0.924057126045,0.0,0.0,0.0,-0.342669039965
1565340161593968251,-0.0,-0.0,0.0,0.0,0.0,-0.342669039965
1565340161706865751,-0.0,-0.0,0.0,0.0,0.0,-0.5
1565340161750816844,-0.0,-0.0,0.0,0.0,0.0,-0.5
1565340161798857678,-0.0,-0.0,0.0,0.0,0.0,-0.5
1565340161854888667,-0.0,-0.0,0.0,0.0,0.0,-0.5
1565340161900739449,-0.0,-0.0,0.0,0.0,0.0,-0.5
1565340161949652626,-0.0,-0.0,0.0,0.0,0.0,-0.5
1565340161999618719,-0.0,-0.0,0.0,0.0,0.0,-0.5
1565340162050437678,-0.0,-0.0,0.0,0.0,0.0,-0.5
1565340162100048667,-0.0,-0.0,0.0,0.0,0.0,-0.5
1565340162149934344,-0.0,-0.0,0.0,0.0,0.0,-0.5
1565340162200031219,-0.0,-0.0,0.0,0.0,0.0,-0.5
1565340162251074605,-0.0,-0.0,0.0,0.0,0.0,-0.5
1565340162300266428,-0.0,-0.0,0.0,0.0,0.0,-0.5
1565340162351176688,-0.0,-0.0,0.0,0.0,0.0,-0.5
1565340162401423094,-0.0,-0.0,0.0,0.0,0.0,-0.5
1565340162451299344,-0.0,-0.0,0.0,0.0,0.0,-0.5
1565340162553816011,-0.0,-0.0,0.0,0.0,0.0,0.0
1565340162604044917,-0.0,-0.0,0.0,0.0,0.0,0.0
1565340162653975438,-0.0,-0.0,0.0,0.0,0.0,0.0
1565340162704892990,-0.0,-0.0,0.0,0.0,0.0,0.0
1565340162754779500,-0.0,-0.0,0.0,0.0,0.0,0.0
1565340162804570750,-0.0,-0.0,0.0,0.0,0.0,0.0
1565340162855466584,-0.0,-0.0,0.0,0.0,0.0,0.0
1565340162917028198,-0.0,-0.0,0.0,0.0,0.0,0.0
1565340162955051792,-0.0,-0.0,0.0,0.0,0.0,0.0
1565340163005679396,-0.0,-0.0,0.0,0.0,0.0,0.0
1565340163055986167,-0.0,-0.0,0.0,0.0,0.0,0.0
1565340163113610750,-0.0,-0.0,0.0,0.0,0.0,0.0
1565340163210619656,-0.902340769768,-0.0,0.0,0.0,0.0,0.0
1565340163314987417,-0.989173948765,-0.0,0.0,0.0,0.0,0.0
1565340163422102156,-0.837223887444,0.0559179410338,0.0,0.0,0.0,0.0
1565340163472446844,-0.837223887444,0.0559179410338,0.0,0.0,0.0,0.0
1565340163582667521,-0.782965183258,0.0993184745312,0.0,0.0,0.0,0.0
1565340163686321167,-0.587646722794,0.511703848839,0.0,0.0,0.0,0.0
1565340163795069917,-0.348895639181,0.967489778996,0.0,0.0,0.0,0.0
1565340163893946844,-0.359721660614,1.0,0.0,0.0,0.0,0.0
1565340163997778823,-0.359721660614,1.0,0.0,0.0,0.0,0.0
1565340164048902625,-0.359721660614,1.0,0.0,0.0,0.0,0.0
1565340164098622208,-0.359721660614,1.0,0.0,0.0,0.0,0.0
1565340164201740125,-0.348895639181,1.0,0.0,0.0,0.0,0.0
1565340164338820333,-0.348895639181,1.0,0.0,0.0,0.0,0.0
1565340164445515646,-0.359721660614,1.0,0.0,0.0,0.0,0.0
1565340164496553614,-0.359721660614,1.0,0.0,0.0,0.0,0.0
1565340164546124552,-0.359721660614,1.0,0.0,0.0,0.0,0.0
1565340164596402156,-0.359721660614,1.0,0.0,0.0,0.0,0.0
1565340164715507520,-0.359721660614,1.0,0.0,0.0,0.0,0.0
1565340164818952781,-0.359721660614,1.0,0.0,0.0,0.0,0.0
1565340164933715489,-0.359721660614,1.0,0.0,0.0,0.0,0.0
1565340165047510489,-0.359721660614,1.0,0.0,0.0,0.0,0.0
1565340165097957937,-0.359721660614,1.0,0.0,0.0,0.0,0.0
1565340165199992937,-0.348895639181,0.880688667297,0.0,0.0,0.0,0.0
1565340165302027729,-0.0,-0.0,0.0,0.0,0.0,0.0
1565340165353718562,-0.0,-0.0,0.0,0.0,0.0,0.0
1565340165470204187,-0.0,-0.0,0.0,0.0,0.0,0.293823361397
1565340165574142156,-0.0,-0.0,0.0,0.0,0.0,0.451170384884
1565340165691205749,-0.0,-0.0,0.0,0.0,0.0,0.5
1565340165735426895,-0.0,-0.0,0.0,0.0,0.0,0.5
1565340165784164708,-0.0,-0.0,0.0,0.0,0.0,0.5
1565340165835815645,-0.0,-0.0,0.0,0.0,0.0,0.5
1565340165882903197,-0.0,-0.0,0.0,0.0,0.0,0.5
1565340165933236270,-0.0,-0.0,0.0,0.0,0.0,0.5
1565340165983578510,-0.0,-0.0,0.0,0.0,0.0,0.5
1565340166034194343,-0.0,-0.0,0.0,0.0,0.0,0.5
1565340166083763093,-0.0,-0.0,0.0,0.0,0.0,0.5
1565340166134632728,-0.0,-0.0,0.0,0.0,0.0,0.5
1565340166185169916,-0.0,-0.0,0.0,0.0,0.0,0.5
1565340166234365905,-0.0,-0.0,0.0,0.0,0.0,0.5
1565340166284548509,-0.0,-0.0,0.0,0.0,0.0,0.5
1565340166334643249,-0.0,-0.0,0.0,0.0,0.0,0.5
1565340166386259707,-0.0,-0.0,0.0,0.0,0.0,0.5
1565340166434837884,-0.0,-0.0,0.0,0.0,0.0,0.5
1565340166485073145,-0.0,-0.0,0.0,0.0,0.0,0.5
1565340166605854343,-0.0,-0.0,0.0,0.0,0.0,0.0
1565340166655873770,-0.0,-0.0,0.0,0.0,0.0,0.0
1565340166706179707,-0.0,-0.0,0.0,0.0,0.0,0.0
1565340166756413613,-0.0,-0.0,0.0,0.0,0.0,0.0
1565340166806377415,-0.0,-0.0,0.0,0.0,0.0,0.0
1565340166856761738,-0.0,-0.0,0.0,0.0,0.0,0.0
1565340166906828613,-0.0,-0.0,0.0,0.0,0.0,0.0
1565340166979186061,-0.0,-0.0,0.0,0.0,0.0,0.0
1565340167007248457,-0.0,-0.0,0.0,0.0,0.0,0.0
1565340167057437832,-0.0,-0.0,0.0,0.0,0.0,0.0
1565340167107517311,-0.0,-0.0,0.0,0.0,0.0,0.0
1565340167157556426,-0.0,-0.0,0.0,0.0,0.0,0.0
1565340167208073926,-0.0,-0.0,0.0,0.0,0.0,0.0
1565340167258033717,-0.0,-0.0,0.0,0.0,0.0,0.0
1565340167307987103,-0.0,-0.0,0.0,0.0,0.0,0.0
1565340167422390905,-0.0,-0.631047308445,0.0,0.0,0.0,0.0
1565340167525899134,-0.0,-1.0,0.0,0.0,0.0,0.0
1565340167576322259,-0.0,-1.0,0.0,0.0,0.0,0.0
1565340167629306738,-0.0,-1.0,0.0,0.0,0.0,0.0
1565340167696863196,-0.0,-1.0,0.0,0.0,0.0,0.0
1565340167726988405,-0.0,-1.0,0.0,0.0,0.0,0.0
1565340167777842207,-0.0,-1.0,0.0,0.0,0.0,0.0
1565340167832912571,-0.0,-1.0,0.0,0.0,0.0,0.0
1565340167882800019,-0.0,-1.0,0.0,0.0,0.0,0.0
1565340167928169290,-0.0,-1.0,0.0,0.0,0.0,0.0
1565340167978465019,-0.0,-1.0,0.0,0.0,0.0,0.0
1565340168028812363,-0.0,-1.0,0.0,0.0,0.0,0.0
1565340168172566321,-0.0,-1.0,0.0,0.0,0.0,0.0
1565340168176295905,-0.0,-1.0,0.0,0.0,0.0,0.0
1565340168179006061,-0.0,-1.0,0.0,0.0,0.0,0.0
1565340168234174342,-0.0,-1.0,0.0,0.0,0.0,0.0
1565340168376070748,-0.0,-1.0,0.0,0.0,0.0,0.0
1565340168379772467,-0.0,-1.0,0.0,0.0,0.0,0.0
1565340168379850644,-0.0,-1.0,0.0,0.0,0.0,0.0
1565340168430422571,-0.0,-1.0,0.0,0.0,0.0,0.0
1565340168596641581,-0.0,-1.0,0.0,0.0,0.0,0.0
1565340168600297259,-0.0,-0.815539717674,0.0,0.0,0.0,0.0
1565340168803915540,-0.0,-0.728706538677,0.0,0.0,0.0,0.0
1565340168809775123,-0.0,-0.728706538677,0.0,0.0,0.0,0.0
1565340168866798508,-0.0,-0.696164131165,0.0,0.0,0.0,0.0
1565340168994360071,-0.0,-0.685305953026,0.0,0.0,0.0,0.0
1565340169044582727,-0.0,-0.685305953026,0.0,0.0,0.0,0.0
1565340169172326321,-0.0,-0.696164131165,0.0,0.0,0.0,0.0
1565340169367800696,-0.0,-0.707022309303,0.0,0.0,0.0,0.0
1565340169390306060,-0.0,-0.707022309303,0.0,0.0,0.0,0.0
1565340169563078196,-0.0,-0.696164131165,0.0,0.0,0.0,0.0
1565340169599739602,-0.0,-0.728706538677,0.0,0.0,0.0,0.0
1565340169757437675,-0.0,-0.772107064724,0.0,0.0,0.0,0.0
1565340169771926946,-0.0,-0.772107064724,0.0,0.0,0.0,0.0
1565340169974205904,-0.0,-0.86979842186,0.0,0.0,0.0,0.0
1565340170018689602,-0.0,-0.924057126045,0.0,0.0,0.0,0.0
1565340170156511945,-0.0,-0.924057126045,0.0,0.0,0.0,0.0
1565340170165940227,-0.0,-0.924057126045,0.0,0.0,0.0,0.0
1565340170255272570,-0.0,-0.924057126045,0.0,0.0,0.0,0.0
1565340170443186633,-0.0,-0.924057126045,0.0,0.0,0.0,0.0
1565340170474260227,-0.0,-0.913198947906,0.0,0.0,0.0,0.0
1565340170638319393,-0.0,-0.924057126045,0.0,0.0,0.0,0.0
1565340170702260851,-0.0,-0.924057126045,0.0,0.0,0.0,0.0
1565340170832953716,-0.0,-0.924057126045,0.0,0.0,0.0,0.0
1565340170837282570,-0.0,-0.924057126045,0.0,0.0,0.0,0.0
1565340170856234810,-0.0,-0.924057126045,0.0,0.0,0.0,0.0
1565340171028437153,-0.0,-0.0,0.0,0.0,0.0,0.0
1565340171034569810,-0.0,-0.0,0.0,0.0,0.0,0.0
1565340171062414862,-0.0,-0.0,0.0,0.0,0.0,0.0
1565340171112935278,-0.0,-0.0,0.0,0.0,0.0,0.0
1565340171222967518,-0.0,-0.0,0.0,0.0,0.0,0.0
1565340171225448143,-0.0,-0.0,0.0,0.0,0.0,0.0
1565340171262989237,-0.0,-0.0,0.0,0.0,0.0,0.0
1565340171418717570,-0.0,-0.0,0.0,0.0,0.0,-0.0225298888981
1565340171494066945,-0.0,-0.0,0.0,0.0,0.0,-0.0822176709771
1565340171613221216,-0.0,-0.0,0.0,0.0,0.0,-0.207022309303
1565340171809733611,-0.0,-0.0,0.0,0.0,0.0,-0.207022309303
1565340171853582361,-0.0,-0.0,0.0,0.0,0.0,-0.342669039965
1565340172004540799,-0.0,-0.0,0.0,0.0,0.0,-0.391498655081
1565340172011059028,-0.0,-0.0,0.0,0.0,0.0,-0.391498655081
1565340172292580330,-0.0,-0.0,0.0,0.0,0.0,-0.39692774415
1565340172300169184,-0.0,-0.0,0.0,0.0,0.0,-0.39692774415
1565340172300342570,-0.0,-0.0,0.0,0.0,0.0,-0.39692774415
1565340172338805851,-0.0,-0.0,0.0,0.0,0.0,-0.418628007174
1565340172486261892,-0.0,-0.0,0.0,0.0,0.0,-0.478315800428
1565340172567486892,-0.0,-0.0,0.0,0.0,0.0,-0.489173948765
1565340172681300590,-0.0,-0.0,0.0,0.0,0.0,-0.489173948765
1565340172729651215,-0.0,-0.0,0.0,0.0,0.0,-0.5
1565340172780252882,-0.0,-0.0,0.0,0.0,0.0,-0.5
1565340172830344132,-0.0,-0.0,0.0,0.0,0.0,-0.5
1565340172950032882,-0.0,-0.0,0.0,0.0,0.0,0.0
1565340173001017882,-0.0,-0.0,0.0,0.0,0.0,0.0
1565340173052542726,-0.0,-0.0,0.0,0.0,0.0,0.0
1565340173101199080,-0.0,-0.0,0.0,0.0,0.0,0.0
1565340173150824653,-0.0,-0.0,0.0,0.0,0.0,0.0
1565340173201683142,-0.0,-0.0,0.0,0.0,0.0,0.0
1565340173323488246,-0.0,0.305495113134,0.0,0.0,0.0,0.0
1565340173462516475,-0.0,0.316353261471,0.0,0.0,0.0,0.0
1565340173576147309,-0.0,0.544246196747,0.0,0.0,0.0,0.0
1565340173686168350,-0.0,0.641937553883,0.0,0.0,0.0,0.0
1565340173790669132,-0.0,0.869830548763,0.0,0.0,0.0,0.0
1565340173898335746,-0.0,0.880688667297,0.0,0.0,0.0,0.0
1565340173949229652,-0.0,0.880688667297,0.0,0.0,0.0,0.0
1565340174000081527,-0.0,0.880688667297,0.0,0.0,0.0,0.0
1565340174050065017,-0.0,0.880688667297,0.0,0.0,0.0,0.0
1565340174099320954,-0.0,0.880688667297,0.0,0.0,0.0,0.0
1565340174206341944,-0.0,0.869830548763,0.0,0.0,0.0,0.0
1565340174355282465,-0.0,0.880688667297,0.0,0.0,0.0,0.0
1565340174485839860,-0.0,0.880688667297,0.0,0.0,0.0,0.0
1565340174536590538,-0.0,0.880688667297,0.0,0.0,0.0,0.0
1565340174646059860,-0.0,0.880688667297,0.0,0.0,0.0,0.0
1565340174746391631,-0.0,0.880688667297,0.0,0.0,0.0,0.0
1565340174796110329,-0.0,0.880688667297,0.0,0.0,0.0,0.0
1565340174846422933,-0.0,0.880688667297,0.0,0.0,0.0,0.0
1565340174896788767,-0.0,0.880688667297,0.0,0.0,0.0,0.0
1565340174947387621,-0.0,0.880688667297,0.0,0.0,0.0,0.0
1565340174997353558,-0.0,0.880688667297,0.0,0.0,0.0,0.0
1565340175047798610,-0.0,0.880688667297,0.0,0.0,0.0,0.0
1565340175097871058,-0.0,0.880688667297,0.0,0.0,0.0,0.0
1565340175148074131,-0.0,0.880688667297,0.0,0.0,0.0,0.0
1565340175282130068,-0.0,0.880688667297,0.0,0.0,0.0,0.0
1565340175332334391,-0.0,0.880688667297,0.0,0.0,0.0,0.0
1565340175383229079,-0.0,0.880688667297,0.0,0.0,0.0,0.0
1565340175432812204,-0.0,0.880688667297,0.0,0.0,0.0,0.0
1565340175484326318,-0.0,0.880688667297,0.0,0.0,0.0,0.0
1565340175534973610,-0.0,0.880688667297,0.0,0.0,0.0,0.0
1565340175583662464,-0.0,0.880688667297,0.0,0.0,0.0,0.0
1565340175702722829,-0.0,0.880688667297,0.0,0.0,0.0,0.0
1565340175752798193,-0.0,0.880688667297,0.0,0.0,0.0,0.0
1565340175812173818,-0.0,0.880688667297,0.0,0.0,0.0,0.0
1565340175860205381,-0.0,0.880688667297,0.0,0.0,0.0,0.0
1565340175903490954,-0.0,0.880688667297,0.0,0.0,0.0,0.0
1565340175953348245,-0.0,0.880688667297,0.0,0.0,0.0,0.0
1565340176003521943,-0.0,0.880688667297,0.0,0.0,0.0,0.0
1565340176106144339,-0.0,0.880688667297,0.0,0.0,0.0,0.0
1565340176214335641,-0.0,-0.0,0.0,0.0,0.0,0.0
1565340176264420901,-0.0,-0.0,0.0,0.0,0.0,0.0
1565340176314526474,-0.0,-0.0,0.0,0.0,0.0,0.0
1565340176364597203,-0.0,-0.0,0.0,0.0,0.0,0.0
1565340176414962724,-0.0,-0.0,0.0,0.0,0.0,0.0
1565340176465406370,-0.0,-0.0,0.0,0.0,0.0,0.0
1565340176515545537,-0.0,-0.0,0.0,0.0,0.0,0.0
1565340176566146839,-0.0,-0.0,0.0,0.0,0.0,0.0
1565340176616332880,-0.0,-0.0,0.0,0.0,0.0,0.0
1565340176666150068,-0.0,-0.0,0.0,0.0,0.0,0.0
1565340176720424287,-0.0,-0.0,0.0,0.0,0.0,0.0
1565340176838458245,-0.0,-0.0,0.0,0.0,0.0,0.163589656353
1565340176946494443,-0.0,-0.0,0.0,0.0,0.0,0.255835860968
1565340177058163609,-0.0,-0.0,0.0,0.0,0.0,0.331794828176
1565340177172607412,-0.0,-0.0,0.0,0.0,0.0,0.396911680698
1565340177275288089,-0.0,-0.0,0.0,0.0,0.0,0.429470121861
1565340177378754234,-0.0,-0.0,0.0,0.0,0.0,0.478299736977
1565340177482186682,-0.0,-0.0,0.0,0.0,0.0,0.5
1565340177532298818,-0.0,-0.0,0.0,0.0,0.0,0.5
1565340177584104443,-0.0,-0.0,0.0,0.0,0.0,0.5
1565340177641469026,-0.0,-0.0,0.0,0.0,0.0,0.5
1565340177703762307,-0.0,-0.0,0.0,0.0,0.0,0.5
1565340177733305120,-0.0,-0.0,0.0,0.0,0.0,0.5
1565340177784112359,-0.0,-0.0,0.0,0.0,0.0,0.5
1565340177843016422,-0.0,-0.0,0.0,0.0,0.0,0.5
1565340177890127359,-0.0,-0.0,0.0,0.0,0.0,0.5
1565340177933775328,-0.0,-0.0,0.0,0.0,0.0,0.5
1565340178058541370,-0.0,-0.0,0.0,0.0,0.0,0.0
1565340178191421161,-0.0,-0.251204282045,0.0,0.0,0.0,0.0
1565340178294364442,-0.0,-0.446554869413,0.0,0.0,0.0,0.0
1565340178402947463,-0.0,-0.685305953026,0.0,0.0,0.0,0.0
1565340178546088401,-0.0,-0.761281013489,0.0,0.0,0.0,0.0
1565340178662540119,-0.0,-0.934915244579,0.0,0.0,0.0,0.0
1565340178767034598,-0.0,-1.0,0.0,0.0,0.0,0.0
1565340178820347723,-0.0,-1.0,0.0,0.0,0.0,0.0
1565340178866176369,-0.0,-1.0,0.0,0.0,0.0,0.0
1565340178917802723,-0.0,-1.0,0.0,0.0,0.0,0.0
1565340178966998557,-0.0,-1.0,0.0,0.0,0.0,0.0
1565340179017476994,-0.0,-1.0,0.0,0.0,0.0,0.0
1565340179067832827,-0.0,-1.0,0.0,0.0,0.0,0.0
1565340179119160171,-0.0,-1.0,0.0,0.0,0.0,0.0
1565340179168990744,-0.0,-1.0,0.0,0.0,0.0,0.0
1565340179219196109,-0.0,-1.0,0.0,0.0,0.0,0.0
1565340179362785275,-0.0,-1.0,0.0,0.0,0.0,-0.158176630735
1565340179470652463,-0.0,-1.0,0.0,0.0,0.0,-0.277552187443
1565340179575046421,-0.0,-1.0,0.0,0.0,0.0,-0.472886711359
1565340179682235692,-0.0,-1.0,0.0,0.0,0.0,-0.5
1565340179786850015,-0.0,-0.978315770626,0.0,0.0,0.0,-0.0116717237979
1565340179890865275,-0.0,-0.967457652092,0.0,0.0,0.0,0.0
1565340179998100275,-0.0,-0.956599473953,0.0,0.0,0.0,0.0
1565340180142806629,-0.0,-0.956599473953,0.0,0.0,0.0,-0.353527218103
1565340180193093244,-0.0,-0.956599473953,0.0,0.0,0.0,-0.353527218103
1565340180315291056,-0.0,-0.956599473953,0.0,0.0,0.0,-0.0767885819077
1565340180418386264,-0.0,-0.945741295815,0.0,0.0,0.0,-0.0116717237979
1565340180468742827,-0.0,-0.945741295815,0.0,0.0,0.0,-0.0116717237979
1565340180600925639,-0.0,-0.86979842186,0.0,0.0,0.0,0.0
1565340180710715119,-0.0,-0.848082065582,0.0,0.0,0.0,0.0
1565340180838801056,-0.0,-0.848082065582,0.0,0.0,0.0,-0.472886711359
1565340180942473243,-0.0,-0.761281013489,0.0,0.0,0.0,-0.456615537405
1565340181046445327,-0.0,-0.0,0.0,0.0,0.0,0.0
1565340181097232879,-0.0,-0.0,0.0,0.0,0.0,0.0
1565340181147170795,-0.0,-0.0,0.0,0.0,0.0,0.0
1565340181196965379,-0.0,-0.0,0.0,0.0,0.0,0.0
1565340181247860118,-0.0,-0.0,0.0,0.0,0.0,0.0
1565340181378773035,-0.0,-0.0,0.0,0.0,0.0,-0.5
1565340181429540170,-0.0,-0.0,0.0,0.0,0.0,-0.5
1565340181479484858,-0.0,-0.0,0.0,0.0,0.0,-0.5
1565340181529214649,-0.0,-0.0,0.0,0.0,0.0,-0.5
1565340181579407670,-0.0,-0.0,0.0,0.0,0.0,-0.5
1565340181644757879,-0.0,-0.0,0.0,0.0,0.0,-0.5
1565340181693973660,-0.0,-0.0,0.0,0.0,0.0,-0.5
1565340181731711212,-0.0,-0.0,0.0,0.0,0.0,-0.5
1565340181780258972,-0.0,-0.0,0.0,0.0,0.0,-0.5
1565340181833473191,-0.0,-0.0,0.0,0.0,0.0,-0.5
1565340181883961576,-0.0,-0.0,0.0,0.0,0.0,-0.5
1565340181931811212,-0.0,-0.0,0.0,0.0,0.0,-0.5
1565340181982839858,-0.0,-0.0,0.0,0.0,0.0,-0.5
1565340182034065639,-0.0,-0.0,0.0,0.0,0.0,-0.5
1565340182081023816,-0.0,-0.0,0.0,0.0,0.0,-0.5
1565340182132228399,-0.0,-0.0,0.0,0.0,0.0,-0.5
1565340182181783399,-0.0,-0.0,0.0,0.0,0.0,-0.5
1565340182231379180,-0.0,-0.0,0.0,0.0,0.0,-0.5
1565340182343086472,-0.0,-0.0,0.0,0.0,0.0,0.0
1565340182392689962,-0.0,-0.0,0.0,0.0,0.0,0.0
1565340182444126003,-0.0,-0.0,0.0,0.0,0.0,0.0
1565340182493927462,-0.0,-0.0,0.0,0.0,0.0,0.0
1565340182558681837,-0.0,-0.0,0.0,0.0,0.0,0.0
1565340182608049389,-0.0,-0.0,0.0,0.0,0.0,0.0
1565340182653776264,-0.0,-0.0,0.0,0.0,0.0,0.0
1565340182694286628,-0.0,-0.0,0.0,0.0,0.0,0.0
1565340182743857409,-0.0,-0.0,0.0,0.0,0.0,0.0
1565340182794694493,-0.0,-0.0,0.0,0.0,0.0,0.0
1565340182844941993,-0.0,-0.0,0.0,0.0,0.0,0.0
1565340182895112305,-0.0,-0.0,0.0,0.0,0.0,0.0
1565340182946993295,-0.0,-0.0,0.0,0.0,0.0,0.0
1565340183058318868,-0.0,-0.0,0.0,0.0,0.0,-0.5
1565340183108947566,-0.0,-0.0,0.0,0.0,0.0,-0.5
1565340183159232930,-0.0,-0.0,0.0,0.0,0.0,-0.5
1565340183210122253,-0.0,-0.0,0.0,0.0,0.0,-0.5
1565340183261610013,-0.0,-0.0,0.0,0.0,0.0,-0.5
1565340183309704232,-0.0,-0.0,0.0,0.0,0.0,-0.5
1565340183359901472,-0.0,-0.0,0.0,0.0,0.0,-0.5
1565340183410335326,-0.0,-0.0,0.0,0.0,0.0,-0.5
1565340183460144961,-0.0,-0.0,0.0,0.0,0.0,-0.5
1565340183511660795,-0.0,-0.0,0.0,0.0,0.0,-0.5
1565340183561661003,-0.0,-0.0,0.0,0.0,0.0,-0.5
1565340183610910065,-0.0,-0.0,0.0,0.0,0.0,-0.5
1565340183660816836,-0.0,-0.0,0.0,0.0,0.0,-0.5
1565340183770608659,-0.0,-0.0,0.0,0.0,0.0,0.0
1565340183830042409,-0.0,-0.0,0.0,0.0,0.0,0.0
1565340183883803659,-0.0,-0.0,0.0,0.0,0.0,0.0
1565340183921376784,-0.0,-0.0,0.0,0.0,0.0,0.0
1565340183971072253,-0.0,-0.0,0.0,0.0,0.0,0.0
1565340184021386992,-0.0,-0.0,0.0,0.0,0.0,0.0
1565340184073931263,-0.0,-0.0,0.0,0.0,0.0,0.0
1565340184124933867,-0.0,-0.0,0.0,0.0,0.0,0.0
1565340184172485013,-0.0,-0.0,0.0,0.0,0.0,0.0
1565340184222111367,-0.0,-0.0,0.0,0.0,0.0,0.0
1565340184272505950,-0.0,-0.0,0.0,0.0,0.0,0.0
1565340184322640794,-0.0,-0.0,0.0,0.0,0.0,0.0
1565340184372716107,-0.0,-0.0,0.0,0.0,0.0,0.0
1565340184423205482,-0.0,-0.0,0.0,0.0,0.0,0.0
1565340184473334544,-0.0,-0.0,0.0,0.0,0.0,0.0
1565340184523284752,-0.0,-0.0,0.0,0.0,0.0,0.0
1565340184573431055,-0.0,-0.0,0.0,0.0,0.0,0.0
1565340184623620430,-0.0,-0.0,0.0,0.0,0.0,0.0
1565340184673812617,-0.0,-0.0,0.0,0.0,0.0,0.0
1565340184723809648,-0.0,-0.0,0.0,0.0,0.0,0.0
1565340184773939544,-0.0,-0.0,0.0,0.0,0.0,0.0
1565340184824242669,-0.0,-0.0,0.0,0.0,0.0,0.0
1565340184874491054,-0.0,-0.0,0.0,0.0,0.0,0.0
1565340185018910169,-0.0,-0.0,0.0,0.0,0.0,0.0
1565340185073925169,-0.0,-0.0,0.0,0.0,0.0,0.0
1565340185120343606,-0.0,-0.0,0.0,0.0,0.0,0.0
1565340185172300846,-0.0,-0.0,0.0,0.0,0.0,0.0
1565340185219897304,-0.0,-0.0,0.0,0.0,0.0,0.0
1565340185269472096,-0.0,-0.0,0.0,0.0,0.0,0.0
1565340185320318242,-0.0,-0.0,0.0,0.0,0.0,0.0
1565340185426799856,-0.0992863476276,1.0,0.0,0.0,0.0,0.0
1565340185476708242,-0.0992863476276,1.0,0.0,0.0,0.0,0.0
1565340185526846731,-0.0992863476276,1.0,0.0,0.0,0.0,0.0
1565340185578366627,-0.0992863476276,1.0,0.0,0.0,0.0,0.0
1565340185627407721,-0.0992863476276,1.0,0.0,0.0,0.0,0.0
1565340185677643502,-0.0992863476276,1.0,0.0,0.0,0.0,0.0
1565340185841591158,-0.0775700211525,1.0,0.0,0.0,0.0,0.0
1565340185926301054,-0.0,1.0,0.0,0.0,0.0,0.0
1565340186031081106,-0.0,-0.0,0.0,0.0,0.0,0.0
1565340186157397096,0.0559179410338,-1.0,0.0,0.0,0.0,0.0
1565340186252234804,0.0124852824956,-1.0,0.0,0.0,0.0,0.0
1565340186362187825,0.00165924313478,-1.0,0.0,0.0,0.0,0.0
1565340186412499752,0.00165924313478,-1.0,0.0,0.0,0.0,0.0
1565340186531400064,0.00165924313478,-1.0,0.0,0.0,0.0,0.0
1565340186622310377,-0.0,-1.0,0.0,0.0,0.0,0.0
1565340186754651210,0.00165924313478,-1.0,0.0,0.0,0.0,0.0
1565340186805605845,0.00165924313478,-1.0,0.0,0.0,0.0,0.0
1565340186855606887,0.00165924313478,-1.0,0.0,0.0,0.0,0.0
1565340186959016835,0.00165924313478,-1.0,0.0,0.0,0.0,0.0
1565340187009121835,0.00165924313478,-1.0,0.0,0.0,0.0,0.0
1565340187058591054,0.00165924313478,-1.0,0.0,0.0,0.0,0.0
1565340187109386574,0.00165924313478,-1.0,0.0,0.0,0.0,0.0
1565340187159216991,0.00165924313478,-1.0,0.0,0.0,0.0,0.0
1565340187209653814,0.00165924313478,-1.0,0.0,0.0,0.0,0.0
1565340187357120585,0.00165924313478,-1.0,0.0,0.0,0.0,0.0
1565340187406209803,0.00165924313478,-1.0,0.0,0.0,0.0,0.0
1565340187457242668,0.00165924313478,-1.0,0.0,0.0,0.0,0.0
1565340187505150012,0.00165924313478,-1.0,0.0,0.0,0.0,0.0
1565340187554797095,0.00165924313478,-1.0,0.0,0.0,0.0,0.0
1565340187613848397,0.00165924313478,-1.0,0.0,0.0,0.0,0.0
1565340187657568241,0.00165924313478,-1.0,0.0,0.0,0.0,0.0
1565340187705602616,0.00165924313478,-1.0,0.0,0.0,0.0,0.0
1565340187755906418,0.00165924313478,-1.0,0.0,0.0,0.0,0.0
1565340187809351678,0.00165924313478,-1.0,0.0,0.0,0.0,0.0
1565340187883567303,0.00165924313478,-1.0,0.0,0.0,0.0,0.0
1565340187906477512,0.00165924313478,-1.0,0.0,0.0,0.0,0.0
1565340187970916314,0.00165924313478,-1.0,0.0,0.0,0.0,0.0
1565340188006985793,0.00165924313478,-1.0,0.0,0.0,0.0,0.0
1565340188057026939,0.00165924313478,-1.0,0.0,0.0,0.0,0.0
1565340188106753657,0.00165924313478,-1.0,0.0,0.0,0.0,0.0
1565340188156899907,0.00165924313478,-1.0,0.0,0.0,0.0,0.0
1565340188207355689,0.00165924313478,-1.0,0.0,0.0,0.0,0.0
1565340188354340272,0.00165924313478,-1.0,0.0,0.0,0.0,0.0
1565340188420646261,0.00165924313478,-1.0,0.0,0.0,0.0,0.0
1565340188459272563,0.00165924313478,-1.0,0.0,0.0,0.0,0.0
1565340188505144699,0.00165924313478,-1.0,0.0,0.0,0.0,0.0
1565340188555352928,0.00165924313478,-1.0,0.0,0.0,0.0,0.0
1565340188605749178,0.00165924313478,-1.0,0.0,0.0,0.0,0.0
1565340188738457199,-0.0,-0.0,0.0,0.0,0.0,0.0
1565340188789116157,-0.0,-0.0,0.0,0.0,0.0,0.0
1565340188839098240,-0.0,-0.0,0.0,0.0,0.0,0.0
1565340188889090063,-0.0,-0.0,0.0,0.0,0.0,0.0
1565340188940887251,-0.0,-0.0,0.0,0.0,0.0,0.0
1565340188993321522,-0.0,-0.0,0.0,0.0,0.0,0.0
1565340189040242824,-0.0,-0.0,0.0,0.0,0.0,0.0
1565340189090879594,-0.0,-0.0,0.0,0.0,0.0,0.0
1565340189140058969,-0.0,-0.0,0.0,0.0,0.0,0.0
1565340189190289126,-0.0,-0.0,0.0,0.0,0.0,0.0
1565340189241163553,-0.0,-0.0,0.0,0.0,0.0,0.0
1565340189290843449,-0.0,-0.0,0.0,0.0,0.0,0.0
1565340189340900428,-0.0,-0.0,0.0,0.0,0.0,0.0
1565340189391671990,-0.0,-0.0,0.0,0.0,0.0,0.0
1565340189442044646,-0.0,-0.0,0.0,0.0,0.0,0.0
1565340189491466209,-0.0,-0.0,0.0,0.0,0.0,0.0
1565340189602866626,-0.0,-0.272920608521,0.0,0.0,0.0,0.0
1565340189711644490,-0.0,-1.0,0.0,0.0,0.0,0.0
1565340189827553240,-0.0,-1.0,0.0,0.0,0.0,0.0
1565340189920267407,-0.0,-1.0,0.0,0.0,0.0,0.0
1565340189968883136,-0.0,-1.0,0.0,0.0,0.0,0.0
1565340190019497771,-0.0,-1.0,0.0,0.0,0.0,0.0
1565340190078858344,-0.0,-1.0,0.0,0.0,0.0,0.0
1565340190121130011,-0.0,-1.0,0.0,0.0,0.0,0.0
1565340190169537563,-0.0,-1.0,0.0,0.0,0.0,0.0
1565340190220959802,-0.0,-1.0,0.0,0.0,0.0,0.0
1565340190271740011,-0.0,-1.0,0.0,0.0,0.0,0.0
1565340190325360271,-0.0,-1.0,0.0,0.0,0.0,0.0
1565340190369886209,-0.0,-1.0,0.0,0.0,0.0,0.0
1565340190422074021,-0.0,-1.0,0.0,0.0,0.0,0.0
1565340190470628865,-0.0,-1.0,0.0,0.0,0.0,0.0
1565340190579108656,-0.0,-1.0,0.0,0.0,0.0,0.375211417675
1565340190686989229,-0.0,-1.0,0.0,0.0,0.0,0.0
1565340190733298240,-0.0,-1.0,0.0,0.0,0.0,0.0
1565340190783421365,-0.0,-1.0,0.0,0.0,0.0,0.0
1565340190886377510,0.00165924313478,-1.0,0.0,0.0,0.0,0.239548608661
1565340190991822458,0.00165924313478,-1.0,0.0,0.0,0.0,0.0984727889299
1565340191094427875,0.00165924313478,-1.0,0.0,0.0,0.0,0.0
1565340191198906365,0.00165924313478,-1.0,0.0,0.0,0.0,0.152731493115
1565340191302514281,0.00165924313478,-1.0,0.0,0.0,0.0,0.0
1565340191352558760,0.00165924313478,-1.0,0.0,0.0,0.0,0.0
1565340191471104958,-0.0,-0.0,0.0,0.0,0.0,0.5
1565340191615551260,-0.0,-0.0,0.0,0.0,0.0,0.0
1565340191665076156,-0.0,-0.0,0.0,0.0,0.0,0.0
1565340191715745323,-0.0,-0.0,0.0,0.0,0.0,0.0
1565340191766443968,-0.0,-0.0,0.0,0.0,0.0,0.0
1565340191816861104,-0.0,-0.0,0.0,0.0,0.0,0.0
1565340191865250583,-0.0,-0.0,0.0,0.0,0.0,0.0
1565340191916211989,-0.0,-0.0,0.0,0.0,0.0,0.0
1565340191965906416,-0.0,-0.0,0.0,0.0,0.0,0.0
1565340192016163708,-0.0,-0.0,0.0,0.0,0.0,0.0
1565340192066102614,-0.0,-0.0,0.0,0.0,0.0,0.0
1565340192120760218,-0.0,-0.0,0.0,0.0,0.0,0.0
1565340192166781781,-0.0,-0.0,0.0,0.0,0.0,0.0
1565340192216537614,-0.0,-0.0,0.0,0.0,0.0,0.0
1565340192267993135,-0.0,-0.0,0.0,0.0,0.0,0.0
1565340192320709385,-0.0,-0.0,0.0,0.0,0.0,0.0
1565340192374459749,-0.0,-0.0,0.0,0.0,0.0,0.0
1565340192417100947,-0.0,-0.0,0.0,0.0,0.0,0.0
1565340192472711989,-0.0,-0.0,0.0,0.0,0.0,0.0
1565340192519300426,-0.0,-0.0,0.0,0.0,0.0,0.0
1565340192567732458,-0.0,-0.0,0.0,0.0,0.0,0.0
1565340192618328499,-0.0,-0.0,0.0,0.0,0.0,0.0
1565340192668301572,-0.0,-0.0,0.0,0.0,0.0,0.0
1565340192718963031,-0.0,-0.0,0.0,0.0,0.0,0.0
1565340192768917145,-0.0,-0.0,0.0,0.0,0.0,0.0
1565340192819655114,-0.0,-0.0,0.0,0.0,0.0,0.0
1565340192869405478,-0.0,-0.0,0.0,0.0,0.0,0.0
1565340192920336051,-0.0,-0.0,0.0,0.0,0.0,0.0
1565340192969984072,-0.0,-0.0,0.0,0.0,0.0,0.0
1565340193020225999,-0.0,-0.0,0.0,0.0,0.0,0.0
1565340193127277041,-0.0,-0.175261378288,0.0,0.0,0.0,0.0
1565340193243249749,-0.0,-0.0,0.0,0.0,0.0,0.0
1565340193292725687,-0.0,-0.0,0.0,0.0,0.0,0.0
1565340193342753707,-0.0,-0.0,0.0,0.0,0.0,0.0
1565340193394433551,-0.0,-0.0,0.0,0.0,0.0,0.0
1565340193444561520,-0.0,-0.0,0.0,0.0,0.0,0.0
1565340193496892197,-0.0,-0.0,0.0,0.0,0.0,0.0
1565340193545958655,-0.0,-0.0,0.0,0.0,0.0,0.0
1565340193599033082,-0.0,-0.0,0.0,0.0,0.0,0.0
1565340193703223968,-0.0,-0.479097217321,0.0,0.0,0.0,0.0
1565340193811031780,-0.0,-0.0,0.0,0.0,0.0,0.0
1565340193860330999,-0.0,-0.0,0.0,0.0,0.0,0.0
1565340193974901988,-0.0,-0.0,0.0,0.0,0.0,-0.239564672112
1565340194122757874,-0.0,-0.0,0.0,0.0,0.0,-0.326381802559
1565340194227727145,-0.0,-0.0,0.0,0.0,0.0,-0.39692774415
1565340194277244072,-0.0,-0.0,0.0,0.0,0.0,-0.39692774415
1565340194327283342,-0.0,-0.0,0.0,0.0,0.0,-0.39692774415
1565340194377494072,-0.0,-0.0,0.0,0.0,0.0,-0.39692774415
1565340194478939488,-0.0,-0.0,0.0,0.0,0.0,-0.391498655081
1565340194623851363,-0.0,-0.0,0.0,0.0,0.0,-0.456615537405
