%time,field.linear.x,field.linear.y,field.linear.z,field.angular.x,field.angular.y,field.angular.z
1565340109114337958,1550.0,1550.0,1561.01766378,1561.01766378,0.0,0.0
1565340109164240198,1550.0,1550.0,1571.86940312,1571.86940312,0.0,0.0
1565340109214289208,1550.0,1550.0,1571.86940312,1571.86940312,0.0,0.0
1565340109264313635,1550.0,1550.0,1584.89277661,1584.89277661,0.0,0.0
1565340109314652073,1550.0,1550.0,1584.89277661,1584.89277661,0.0,0.0
1565340109364107021,1550.0,1550.0,1601.17038488,1601.17038488,0.0,0.0
1565340109415152125,1550.0,1550.0,1601.17038488,1601.17038488,0.0,0.0
1565340109466155614,1550.0,1550.0,1601.17038488,1601.17038488,0.0,0.0
1565340109515998219,1550.0,1550.0,1609.85049009,1609.85049009,0.0,0.0
1565340109565303114,1550.0,1550.0,1609.85049009,1609.85049009,0.0,0.0
1565340109615543739,1550.0,1550.0,1616.36217833,1616.36217833,0.0,0.0
1565340109665286604,1550.0,1550.0,1616.36217833,1616.36217833,0.0,0.0
1565340109715227541,1550.0,1550.0,1631.55718446,1631.55718446,0.0,0.0
1565340109765397177,1550.0,1550.0,1631.55718446,1631.55718446,0.0,0.0
1565340109815498323,1550.0,1550.0,1631.55718446,1631.55718446,0.0,0.0
1565340109865333896,1550.0,1550.0,1632.63978958,1632.63978958,0.0,0.0
1565340109916461604,1550.0,1550.0,1632.63978958,1632.63978958,0.0,0.0
1565340109965396604,1550.0,1550.0,1632.63978958,1632.63978958,0.0,0.0
1565340110015406187,1550.0,1550.0,1632.63978958,1632.63978958,0.0,0.0
1565340110065489468,1550.0,1550.0,1632.63978958,1632.63978958,0.0,0.0
1565340110115619833,1550.0,1550.0,1630.47136664,1630.47136664,0.0,0.0
1565340110165985093,1550.0,1550.0,1630.47136664,1630.47136664,0.0,0.0
1565340110215397802,1550.0,1550.0,1631.55718446,1631.55718446,0.0,0.0
1565340110265260302,1550.0,1550.0,1631.55718446,1631.55718446,0.0,0.0
1565340110315718479,1550.0,1550.0,1631.55718446,1631.55718446,0.0,0.0
1565340110365974677,1550.0,1550.0,1630.47136664,1630.47136664,0.0,0.0
1565340110415119364,1550.0,1550.0,1630.47136664,1630.47136664,0.0,0.0
1565340110465008062,1550.0,1550.0,1630.47136664,1630.47136664,0.0,0.0
1565340110515735093,1550.0,1550.0,1630.47136664,1630.47136664,0.0,0.0
1565340110565702020,1550.0,1550.0,1630.47136664,1630.47136664,0.0,0.0
1565340110615375822,1550.0,1550.0,1630.47136664,1630.47136664,0.0,0.0
1565340110665769624,1550.0,1550.0,1630.47136664,1630.47136664,0.0,0.0
1565340110716299937,1550.16592431,1550.0,1630.63729096,1630.47136664,0.0,0.0
1565340110765413895,1550.16592431,1550.0,1630.63729096,1630.47136664,0.0,0.0
1565340110815242437,1550.16592431,1550.0,1630.63729096,1630.47136664,0.0,0.0
1565340110865371603,1550.0,1550.0,1630.47136664,1630.47136664,0.0,0.0
1565340110915980874,1550.0,1550.0,1630.47136664,1630.47136664,0.0,0.0
1565340110965281708,1550.0,1550.0,1630.47136664,1630.47136664,0.0,0.0
1565340111015271708,1550.0,1550.0,1630.47136664,1630.47136664,0.0,0.0
1565340111065402176,1550.0,1550.0,1630.47136664,1630.47136664,0.0,0.0
1565340111115724312,1550.0,1550.0,1630.47136664,1630.47136664,0.0,0.0
1565340111165399728,1550.16592431,1550.0,1631.72310877,1631.55718446,0.0,0.0
1565340111215615353,1550.16592431,1550.0,1631.72310877,1631.55718446,0.0,0.0
1565340111265322176,1550.16592431,1550.0,1631.72310877,1631.55718446,0.0,0.0
1565340111315586864,1551.24852825,1550.0,1632.80571271,1631.55718446,0.0,0.0
1565340111365264989,1551.24852825,1550.0,1632.80571271,1631.55718446,0.0,0.0
1565340111415232593,1551.24852825,1550.0,1632.80571271,1631.55718446,0.0,0.0
1565340111465262905,1552.33434476,1550.0,1633.89152922,1631.55718446,0.0,0.0
1565340111515853687,1552.33434476,1550.0,1633.89152922,1631.55718446,0.0,0.0
1565340111565338582,1552.33434476,1550.0,1633.89152922,1631.55718446,0.0,0.0
1565340111615651707,1552.33434476,1550.0,1633.89152922,1631.55718446,0.0,0.0
1565340111665556968,1552.33434476,1550.0,1633.89152922,1631.55718446,0.0,0.0
1565340111716620509,1552.33434476,1550.0,1633.89152922,1631.55718446,0.0,0.0
1565340111765799051,1552.33434476,1550.0,1633.89152922,1631.55718446,0.0,0.0
1565340111815898843,1552.33434476,1550.0,1633.89152922,1631.55718446,0.0,0.0
1565340111865512384,1552.33434476,1550.0,1633.89152922,1631.55718446,0.0,0.0
1565340111915745926,1552.33434476,1550.0,1633.89152922,1631.55718446,0.0,0.0
1565340111965355666,1552.33434476,1550.0,1633.89152922,1631.55718446,0.0,0.0
1565340112015698791,1552.33434476,1550.0,1633.89152922,1631.55718446,0.0,0.0
1565340112065687020,1552.33434476,1550.0,1633.89152922,1631.55718446,0.0,0.0
1565340112116654416,1552.33434476,1550.0,1633.89152922,1631.55718446,0.0,0.0
1565340112165303374,1552.33434476,1550.0,1633.89152922,1631.55718446,0.0,0.0
1565340112215297645,1552.33434476,1550.0,1633.89152922,1631.55718446,0.0,0.0
1565340112265229572,1553.42016108,1558.76467526,1643.7420208,1631.55718446,0.0,0.0
1565340112315456499,1553.42016108,1558.76467526,1643.7420208,1631.55718446,0.0,0.0
1565340112365209624,1552.33434476,1570.15932202,1654.05085124,1631.55718446,0.0,0.0
1565340112415264467,1552.33434476,1570.15932202,1654.05085124,1631.55718446,0.0,0.0
1565340112465232592,1554.50597778,1550.0,1636.06316224,1631.55718446,0.0,0.0
1565340112515677436,1554.50597778,1550.0,1636.06316224,1631.55718446,0.0,0.0
1565340112565306342,1554.50597778,1550.0,1636.06316224,1631.55718446,0.0,0.0
1565340112615619988,1555.5917941,1550.0,1637.14897856,1631.55718446,0.0,0.0
1565340112665291394,1555.5917941,1550.0,1637.14897856,1631.55718446,0.0,0.0
1565340112715824103,1555.5917941,1550.0,1637.14897856,1631.55718446,0.0,0.0
1565340112765436655,1555.5917941,1550.0,1637.14897856,1631.55718446,0.0,0.0
1565340112815358165,1555.5917941,1550.0,1637.14897856,1631.55718446,0.0,0.0
1565340112865517592,1555.5917941,1550.0,1637.14897856,1631.55718446,0.0,0.0
1565340112916003321,1555.5917941,1550.0,1637.14897856,1631.55718446,0.0,0.0
1565340112965256863,1555.5917941,1550.0,1637.14897856,1631.55718446,0.0,0.0
1565340113015183946,1573.57787713,1550.0,1637.14897856,1649.54326749,0.0,0.0
1565340113065280613,1573.57787713,1550.0,1637.14897856,1649.54326749,0.0,0.0
1565340113115387280,1591.48421213,1550.0,1637.14897856,1667.44960248,0.0,0.0
1565340113165259780,1591.48421213,1550.0,1637.14897856,1667.44960248,0.0,0.0
1565340113215250457,1591.48421213,1550.0,1637.14897856,1667.44960248,0.0,0.0
1565340113265364936,1555.5917941,1550.0,1637.14897856,1631.55718446,0.0,0.0
1565340113316152488,1555.5917941,1550.0,1637.14897856,1631.55718446,0.0,0.0
1565340113364991342,1555.5917941,1550.0,1637.14897856,1631.55718446,0.0,0.0
1565340113414912123,1555.5917941,1550.0,1637.14897856,1631.55718446,0.0,0.0
1565340113464894519,1555.5917941,1550.0,1637.14897856,1631.55718446,0.0,0.0
1565340113515484884,1556.75736032,1550.0,1636.06316224,1633.808567,0.0,0.0
1565340113565743269,1556.75736032,1550.0,1636.06316224,1633.808567,0.0,0.0
1565340113615105873,1589.85709175,1550.0,1637.14897856,1665.82248211,0.0,0.0
1565340113665686811,1589.85709175,1550.0,1637.14897856,1665.82248211,0.0,0.0
1565340113716420821,1578.46244499,1550.0,1637.14897856,1654.42783535,0.0,0.0
1565340113765450925,1578.46244499,1550.0,1637.14897856,1654.42783535,0.0,0.0
1565340113815379936,1555.5917941,1550.0,1637.14897856,1631.55718446,0.0,0.0
1565340113865176654,1555.5917941,1550.0,1637.14897856,1631.55718446,0.0,0.0
1565340113915203998,1555.5917941,1550.0,1637.14897856,1631.55718446,0.0,0.0
1565340113965239675,1555.5917941,1550.0,1637.14897856,1631.55718446,0.0,0.0
1565340114015206290,1555.5917941,1550.0,1637.14897856,1631.55718446,0.0,0.0
1565340114065206342,1555.5917941,1550.0,1637.14897856,1631.55718446,0.0,0.0
1565340114116196654,1555.5917941,1550.0,1637.14897856,1631.55718446,0.0,0.0
1565340114165458217,1555.5917941,1550.0,1637.14897856,1631.55718446,0.0,0.0
1565340114215222696,1555.5917941,1550.0,1637.14897856,1631.55718446,0.0,0.0
1565340114265445248,1555.5917941,1550.0,1637.14897856,1631.55718446,0.0,0.0
1565340114316114831,1555.5917941,1550.0,1637.14897856,1631.55718446,0.0,0.0
1565340114365168894,1550.0,1550.0,1602.2562027,1602.2562027,0.0,0.0
1565340114415208685,1550.0,1550.0,1602.2562027,1602.2562027,0.0,0.0
1565340114465148373,1550.0,1550.0,1550.0,1550.0,0.0,0.0
1565340114515576967,1550.0,1550.0,1550.0,1550.0,0.0,0.0
1565340114565150300,1550.0,1550.0,1550.0,1550.0,0.0,0.0
1565340114615156758,1550.0,1550.0,1550.0,1550.0,0.0,0.0
1565340114664890717,1561.47600338,1550.0,1550.0,1561.47600338,0.0,0.0
1565340114715270873,1561.47600338,1550.0,1550.0,1561.47600338,0.0,0.0
1565340114765176394,1561.47600338,1550.0,1550.0,1561.47600338,0.0,0.0
1565340114814780456,1571.24192715,1550.0,1550.0,1571.24192715,0.0,0.0
1565340114865334362,1571.24192715,1550.0,1550.0,1571.24192715,0.0,0.0
1565340114916277592,1590.77698588,1550.0,1550.0,1590.77698588,0.0,0.0
1565340114965100404,1590.77698588,1550.0,1550.0,1590.77698588,0.0,0.0
1565340115015088477,1591.31828845,1550.0,1550.0,1591.31828845,0.0,0.0
1565340115065192696,1591.31828845,1550.0,1550.0,1591.31828845,0.0,0.0
1565340115115128373,1591.31828845,1550.0,1550.0,1591.31828845,0.0,0.0
1565340115164599102,1591.31828845,1550.0,1550.0,1591.31828845,0.0,0.0
1565340115215425143,1590.77698588,1550.0,1550.0,1590.77698588,0.0,0.0
1565340115265372279,1590.77698588,1550.0,1550.0,1590.77698588,0.0,0.0
1565340115315809935,1590.77698588,1550.0,1550.0,1590.77698588,0.0,0.0
1565340115365700612,1594.57412958,1550.0,1550.0,1594.57412958,0.0,0.0
1565340115414801237,1594.57412958,1550.0,1550.0,1594.57412958,0.0,0.0
1565340115466158164,1594.03282702,1550.0,1550.0,1594.03282702,0.0,0.0
1565340115515406445,1594.03282702,1550.0,1550.0,1594.03282702,0.0,0.0
1565340115565076393,1550.0,1550.0,1551.24852825,1551.24852825,0.0,0.0
1565340115615410977,1550.0,1550.0,1551.24852825,1551.24852825,0.0,0.0
1565340115665835664,1550.0,1550.0,1570.7835868,1570.7835868,0.0,0.0
1565340115715332904,1550.0,1550.0,1570.7835868,1570.7835868,0.0,0.0
1565340115765344570,1550.0,1550.0,1570.7835868,1570.7835868,0.0,0.0
1565340115815129310,1550.0,1550.0,1590.31864405,1590.31864405,0.0,0.0
1565340115865248268,1550.0,1550.0,1590.31864405,1590.31864405,0.0,0.0
1565340115914919154,1550.0,1550.0,1596.83033228,1596.83033228,0.0,0.0
1565340115965218164,1550.0,1550.0,1596.83033228,1596.83033228,0.0,0.0
1565340116014651810,1550.0,1550.0,1596.83033228,1596.83033228,0.0,0.0
1565340116064966237,1550.0,1550.0,1596.83033228,1596.83033228,0.0,0.0
1565340116114681758,1550.0,1550.0,1596.83033228,1596.83033228,0.0,0.0
1565340116165143529,1550.0,1550.0,1597.91293442,1597.91293442,0.0,0.0
1565340116214995195,1550.0,1550.0,1597.91293442,1597.91293442,0.0,0.0
1565340116265232695,1562.01730594,1550.0,1597.91293442,1609.93024036,0.0,0.0
1565340116315074674,1562.01730594,1550.0,1597.91293442,1609.93024036,0.0,0.0
1565340116364933216,1575.04067719,1550.0,1596.83033228,1621.87100947,0.0,0.0
1565340116415169310,1575.04067719,1550.0,1596.83033228,1621.87100947,0.0,0.0
1565340116464974987,1579.9236387,1550.0,1596.83033228,1626.75397098,0.0,0.0
1565340116516843789,1579.9236387,1550.0,1596.83033228,1626.75397098,0.0,0.0
1565340116565969101,1575.5835861,1550.0,1597.91293442,1623.49652052,0.0,0.0
1565340116615782226,1575.5835861,1550.0,1597.91293442,1623.49652052,0.0,0.0
1565340116664820560,1558.76306891,1550.0,1597.91293442,1606.67600334,0.0,0.0
1565340116715364830,1558.76306891,1550.0,1597.91293442,1606.67600334,0.0,0.0
1565340116765606966,1558.76306891,1550.0,1597.91293442,1606.67600334,0.0,0.0
1565340116814907487,1580.46654761,1550.0,1596.83033228,1627.29687989,0.0,0.0
1565340116866273216,1580.46654761,1550.0,1596.83033228,1627.29687989,0.0,0.0
1565340116915224570,1583.17948282,1550.0,1596.83033228,1630.0098151,0.0,0.0
1565340116965152695,1583.17948282,1550.0,1596.83033228,1630.0098151,0.0,0.0
1565340117014729049,1565.81605673,1550.0,1596.83033228,1612.64638901,0.0,0.0
1565340117065223268,1565.81605673,1550.0,1596.83033228,1612.64638901,0.0,0.0
1565340117115815299,1557.13434443,1550.0,1596.83033228,1603.96467671,0.0,0.0
1565340117165117278,1557.13434443,1550.0,1596.83033228,1603.96467671,0.0,0.0
1565340117214948997,1557.13434443,1550.0,1596.83033228,1603.96467671,0.0,0.0
1565340117264910247,1574.49776977,1550.0,1596.83033228,1621.32810205,0.0,0.0
1565340117316252434,1574.49776977,1550.0,1596.83033228,1621.32810205,0.0,0.0
1565340117366224674,1579.38233614,1550.0,1596.83033228,1626.21266842,0.0,0.0
1565340117415224205,1579.38233614,1550.0,1596.83033228,1626.21266842,0.0,0.0
1565340117465207382,1579.38233614,1550.0,1596.83033228,1626.21266842,0.0,0.0
1565340117515520663,1550.0,1550.0,1596.83033228,1596.83033228,0.0,0.0
1565340117565387903,1550.0,1550.0,1596.83033228,1596.83033228,0.0,0.0
1565340117615562903,1550.0,1550.0,1596.83033228,1596.83033228,0.0,0.0
1565340117665017590,1550.0,1550.0,1596.83033228,1596.83033228,0.0,0.0
1565340117716464049,1550.0,1550.0,1596.83033228,1596.83033228,0.0,0.0
1565340117765339049,1550.0,1560.93470156,1606.67921603,1595.74451447,0.0,0.0
1565340117814718528,1550.0,1560.93470156,1606.67921603,1595.74451447,0.0,0.0
1565340117865191965,1550.0,1560.93470156,1606.67921603,1595.74451447,0.0,0.0
1565340117916235195,1550.0,1580.46815395,1626.21266842,1595.74451447,0.0,0.0
1565340117965019778,1550.0,1582.09687769,1627.84139216,1595.74451447,0.0,0.0
1565340118016288267,1550.0,1582.09687769,1627.84139216,1595.74451447,0.0,0.0
1565340118067385403,1550.0,1584.8098129,1630.55432737,1595.74451447,0.0,0.0
1565340118117857278,1550.0,1584.8098129,1630.55432737,1595.74451447,0.0,0.0
1565340118165548476,1550.0,1584.8098129,1630.55432737,1595.74451447,0.0,0.0
1565340118214995142,1550.0,1550.0,1595.74451447,1595.74451447,0.0,0.0
1565340118264988007,1550.0,1550.0,1595.74451447,1595.74451447,0.0,0.0
1565340118314681236,1550.0,1550.0,1595.74451447,1595.74451447,0.0,0.0
1565340118365205246,1550.0,1550.0,1595.74451447,1595.74451447,0.0,0.0
1565340118415481080,1550.0,1550.0,1595.74451447,1595.74451447,0.0,0.0
1565340118465191965,1550.0,1550.0,1595.74451447,1595.74451447,0.0,0.0
1565340118515398215,1550.0,1550.0,1595.74451447,1595.74451447,0.0,0.0
1565340118564676392,1550.0,1586.43693328,1633.26726556,1596.83033228,0.0,0.0
1565340118614830923,1550.0,1586.43693328,1633.26726556,1596.83033228,0.0,0.0
1565340118665055819,1550.0,1591.31989479,1637.06440926,1595.74451447,0.0,0.0
1565340118715545194,1550.0,1591.31989479,1637.06440926,1595.74451447,0.0,0.0
1565340118765217850,1550.0,1550.0,1595.74451447,1595.74451447,0.0,0.0
1565340118815144986,1550.0,1550.0,1595.74451447,1595.74451447,0.0,0.0
1565340118865060350,1550.0,1550.0,1595.74451447,1595.74451447,0.0,0.0
1565340118915697902,1550.0,1550.0,1595.74451447,1595.74451447,0.0,0.0
1565340118965614725,1550.0,1550.0,1595.74451447,1595.74451447,0.0,0.0
1565340119014899465,1550.0,1550.0,1595.74451447,1595.74451447,0.0,0.0
1565340119064925871,1550.0,1550.0,1595.74451447,1595.74451447,0.0,0.0
1565340119116065559,1550.0,1550.0,1595.74451447,1595.74451447,0.0,0.0
1565340119164993632,1550.0,1550.0,1595.74451447,1595.74451447,0.0,0.0
1565340119215076340,1550.0,1550.0,1595.74451447,1595.74451447,0.0,0.0
1565340119265083684,1550.0,1550.0,1595.74451447,1595.74451447,0.0,0.0
1565340119315155246,1550.0,1550.0,1595.74451447,1595.74451447,0.0,0.0
1565340119365056288,1550.0,1550.0,1595.74451447,1595.74451447,0.0,0.0
1565340119415154256,1550.0,1550.0,1595.74451447,1595.74451447,0.0,0.0
1565340119464890767,1550.0,1550.0,1595.74451447,1595.74451447,0.0,0.0
1565340119515190871,1550.0,1550.0,1597.91293442,1597.91293442,0.0,0.0
1565340119564852798,1550.0,1550.0,1597.91293442,1597.91293442,0.0,0.0
1565340119614871913,1550.0,1550.0,1597.91293442,1597.91293442,0.0,0.0
1565340119665023631,1550.0,1550.0,1597.91293442,1597.91293442,0.0,0.0
1565340119715277225,1550.0,1550.0,1597.91293442,1597.91293442,0.0,0.0
1565340119764967329,1550.0,1550.0,1601.17038488,1601.17038488,0.0,0.0
1565340119814998788,1550.0,1550.0,1601.17038488,1601.17038488,0.0,0.0
1565340119864891965,1550.0,1550.0,1601.17038488,1601.17038488,0.0,0.0
1565340119915541288,1550.0,1550.0,1601.17038488,1601.17038488,0.0,0.0
1565340119964716131,1550.0,1550.0,1607.68207312,1607.68207312,0.0,0.0
1565340120015048371,1550.0,1550.0,1607.68207312,1607.68207312,0.0,0.0
1565340120065181340,1550.0,1550.0,1607.68207312,1607.68207312,0.0,0.0
1565340120116154256,1554.96431738,1550.0,1607.68207312,1612.6463905,0.0,0.0
1565340120164969048,1554.96431738,1550.0,1607.68207312,1612.6463905,0.0,0.0
1565340120215720767,1566.90187305,1550.0,1607.68207312,1624.58394617,0.0,0.0
1565340120264976704,1566.90187305,1550.0,1607.68207312,1624.58394617,0.0,0.0
1565340120317197954,1575.04067719,1550.0,1607.68207312,1632.72275031,0.0,0.0
1565340120365961496,1575.04067719,1550.0,1607.68207312,1632.72275031,0.0,0.0
1565340120414899517,1576.66779757,1550.0,1607.68207312,1634.34987068,0.0,0.0
1565340120465099829,1576.66779757,1550.0,1607.68207312,1634.34987068,0.0,0.0
1565340120515077641,1576.66779757,1550.0,1607.68207312,1634.34987068,0.0,0.0
1565340120564554360,1573.95486087,1550.0,1607.68207312,1631.63693398,0.0,0.0
1565340120615577798,1573.95486087,1550.0,1607.68207312,1631.63693398,0.0,0.0
1565340120665700923,1550.0,1550.0,1607.68207312,1607.68207312,0.0,0.0
1565340120715381860,1550.0,1550.0,1607.68207312,1607.68207312,0.0,0.0
1565340120765672641,1550.0,1550.0,1607.68207312,1607.68207312,0.0,0.0
1565340120815269360,1564.18893784,1550.0,1606.5962553,1620.78519315,0.0,0.0
1565340120864940870,1564.18893784,1550.0,1606.5962553,1620.78519315,0.0,0.0
1565340120914627902,1580.46654761,1550.0,1607.68207312,1638.14862072,0.0,0.0
1565340120964976443,1580.46654761,1550.0,1607.68207312,1638.14862072,0.0,0.0
1565340121015094777,1580.46654761,1550.0,1607.68207312,1638.14862072,0.0,0.0
1565340121065048891,1581.55236542,1550.0,1607.68207312,1639.23443854,0.0,0.0
1565340121116193735,1581.55236542,1550.0,1607.68207312,1639.23443854,0.0,0.0
1565340121165084464,1584.26529765,1550.0,1607.68207312,1641.94737077,0.0,0.0
1565340121215066756,1584.26529765,1550.0,1607.68207312,1641.94737077,0.0,0.0
1565340121265519881,1576.66779757,1550.0,1606.5962553,1633.26405287,0.0,0.0
1565340121315383162,1576.66779757,1550.0,1606.5962553,1633.26405287,0.0,0.0
1565340121365404568,1550.0,1550.0,1607.68207312,1607.68207312,0.0,0.0
1565340121415324360,1550.0,1550.0,1607.68207312,1607.68207312,0.0,0.0
1565340121465375089,1550.0,1550.0,1607.68207312,1607.68207312,0.0,0.0
1565340121515118891,1550.0,1550.0,1607.68207312,1607.68207312,0.0,0.0
1565340121565114151,1550.0,1550.0,1607.68207312,1607.68207312,0.0,0.0
1565340121615068631,1550.0,1550.0,1607.68207312,1607.68207312,0.0,0.0
1565340121664908318,1550.0,1550.0,1607.68207312,1607.68207312,0.0,0.0
1565340121715378891,1566.90187305,1550.0,1607.68207312,1624.58394617,0.0,0.0
1565340121765793214,1566.90187305,1550.0,1607.68207312,1624.58394617,0.0,0.0
1565340121815072849,1566.90187305,1550.0,1607.68207312,1624.58394617,0.0,0.0
1565340121866959724,1573.95486087,1550.0,1607.68207312,1631.63693398,0.0,0.0
1565340121915866651,1575.04067719,1550.0,1606.5962553,1631.63693249,0.0,0.0
1565340121965193891,1575.04067719,1550.0,1606.5962553,1631.63693249,0.0,0.0
1565340122015141287,1577.7536124,1550.0,1607.68207312,1635.43568552,0.0,0.0
1565340122065071183,1577.7536124,1550.0,1607.68207312,1635.43568552,0.0,0.0
1565340122115086183,1577.7536124,1550.0,1607.68207312,1635.43568552,0.0,0.0
1565340122164581808,1577.7536124,1550.0,1607.68207312,1635.43568552,0.0,0.0
1565340122215088057,1577.7536124,1550.0,1607.68207312,1635.43568552,0.0,0.0
1565340122264869828,1577.7536124,1550.0,1607.68207312,1635.43568552,0.0,0.0
1565340122315217432,1577.7536124,1550.0,1607.68207312,1635.43568552,0.0,0.0
1565340122365347068,1577.7536124,1550.0,1607.68207312,1635.43568552,0.0,0.0
1565340122414929984,1578.29652131,1550.0,1606.5962553,1634.89277661,0.0,0.0
1565340122464921339,1578.29652131,1550.0,1606.5962553,1634.89277661,0.0,0.0
1565340122514678787,1550.0,1550.0,1607.68207312,1607.68207312,0.0,0.0
1565340122564920297,1550.0,1550.0,1607.68207312,1607.68207312,0.0,0.0
1565340122615477484,1550.0,1550.0,1607.68207312,1607.68207312,0.0,0.0
1565340122664974568,1550.0,1550.0,1607.68207312,1607.68207312,0.0,0.0
1565340122715180974,1550.0,1550.0,1607.68207312,1607.68207312,0.0,0.0
1565340122764924464,1550.0,1550.0,1606.5962553,1606.5962553,0.0,0.0
1565340122815196547,1550.0,1550.0,1606.5962553,1606.5962553,0.0,0.0
1565340122865060401,1550.0,1550.0,1606.5962553,1606.5962553,0.0,0.0
1565340122915256443,1550.0,1550.0,1606.5962553,1606.5962553,0.0,0.0
1565340122966401391,1550.0,1550.0,1606.5962553,1606.5962553,0.0,0.0
1565340123015072068,1550.0,1550.0,1607.68207312,1607.68207312,0.0,0.0
1565340123064998213,1550.0,1550.0,1607.68207312,1607.68207312,0.0,0.0
1565340123115466911,1550.0,1550.0,1607.68207312,1607.68207312,0.0,0.0
1565340123165201338,1550.0,1550.0,1607.68207312,1607.68207312,0.0,0.0
1565340123216527745,1550.0,1550.0,1607.68207312,1607.68207312,0.0,0.0
1565340123267235922,1550.0,1550.0,1606.5962553,1606.5962553,0.0,0.0
1565340123314931130,1550.0,1550.0,1606.5962553,1606.5962553,0.0,0.0
1565340123365077380,1550.0,1550.0,1606.5962553,1606.5962553,0.0,0.0
1565340123415840661,1550.0,1550.0,1606.5962553,1606.5962553,0.0,0.0
1565340123464985974,1550.0,1550.0,1606.5962553,1606.5962553,0.0,0.0
1565340123516530713,1550.0,1550.0,1606.5962553,1606.5962553,0.0,0.0
1565340123564866130,1550.0,1550.0,1607.68207312,1607.68207312,0.0,0.0
1565340123615045244,1550.0,1550.0,1607.68207312,1607.68207312,0.0,0.0
1565340123664903057,1550.0,1550.0,1607.68207312,1607.68207312,0.0,0.0
1565340123714995921,1561.47600338,1550.0,1606.5962553,1618.07225868,0.0,0.0
1565340123765091442,1561.47600338,1550.0,1606.5962553,1618.07225868,0.0,0.0
1565340123814927015,1562.5602141,1550.0,1607.68207312,1620.24228722,0.0,0.0
1565340123865471442,1562.5602141,1550.0,1607.68207312,1620.24228722,0.0,0.0
1565340123919258630,1562.5602141,1550.0,1607.68207312,1620.24228722,0.0,0.0
1565340123965121546,1563.10312152,1550.0,1607.68207312,1620.78519464,0.0,0.0
1565340124015831598,1563.10312152,1550.0,1607.68207312,1620.78519464,0.0,0.0
1565340124066603942,1567.44478196,1550.0,1607.68207312,1625.12685508,0.0,0.0
1565340124116746494,1567.44478196,1550.0,1607.68207312,1625.12685508,0.0,0.0
1565340124165197380,1563.10312152,1550.0,1606.5962553,1619.69937682,0.0,0.0
1565340124215733213,1563.10312152,1550.0,1606.5962553,1619.69937682,0.0,0.0
1565340124265937692,1550.0,1550.0,1606.5962553,1606.5962553,0.0,0.0
1565340124315792744,1550.0,1550.0,1606.5962553,1606.5962553,0.0,0.0
1565340124365623109,1550.0,1550.0,1606.5962553,1606.5962553,0.0,0.0
1565340124415097171,1550.0,1550.0,1606.5962553,1606.5962553,0.0,0.0
1565340124465101598,1550.0,1550.0,1606.5962553,1606.5962553,0.0,0.0
1565340124515195348,1558.76306891,1550.0,1607.68207312,1616.44514203,0.0,0.0
1565340124564900609,1558.76306891,1550.0,1607.68207312,1616.44514203,0.0,0.0
1565340124615405140,1566.90187305,1550.0,1606.5962553,1623.49812835,0.0,0.0
1565340124665526129,1566.90187305,1550.0,1606.5962553,1623.49812835,0.0,0.0
1565340124715192119,1566.90187305,1550.0,1606.5962553,1623.49812835,0.0,0.0
1565340124765444567,1566.90187305,1550.0,1606.5962553,1623.49812835,0.0,0.0
1565340124815516077,1567.44478196,1550.0,1606.5962553,1624.04103726,0.0,0.0
1565340124865443369,1567.44478196,1550.0,1606.5962553,1624.04103726,0.0,0.0
1565340124915529306,1581.00945652,1550.0,1607.68207312,1638.69152963,0.0,0.0
1565340124964912744,1581.00945652,1550.0,1607.68207312,1638.69152963,0.0,0.0
1565340125014553890,1583.17948282,1550.0,1607.68207312,1640.86155593,0.0,0.0
1565340125064926077,1583.17948282,1550.0,1607.68207312,1640.86155593,0.0,0.0
1565340125115191702,1583.17948282,1550.0,1607.68207312,1640.86155593,0.0,0.0
1565340125164951077,1555.50722554,1550.0,1606.5962553,1612.10348085,0.0,0.0
1565340125215437067,1555.50722554,1550.0,1606.5962553,1612.10348085,0.0,0.0
1565340125264622327,1550.0,1550.0,1606.5962553,1606.5962553,0.0,0.0
1565340125316271025,1550.0,1550.0,1606.5962553,1606.5962553,0.0,0.0
1565340125365979619,1550.0,1550.0,1606.5962553,1606.5962553,0.0,0.0
1565340125415154254,1550.0,1550.0,1607.68207312,1607.68207312,0.0,0.0
1565340125464922692,1550.0,1550.0,1607.68207312,1607.68207312,0.0,0.0
1565340125515110348,1550.0,1550.0,1607.68207312,1607.68207312,0.0,0.0
1565340125565083681,1550.0,1550.0,1607.68207312,1607.68207312,0.0,0.0
1565340125615781181,1550.0,1550.0,1606.5962553,1606.5962553,0.0,0.0
1565340125664952067,1550.0,1550.0,1606.5962553,1606.5962553,0.0,0.0
1565340125715928473,1560.39018705,1550.0,1607.68207312,1618.07226017,0.0,0.0
1565340125765663264,1560.39018705,1550.0,1607.68207312,1618.07226017,0.0,0.0
1565340125815186494,1574.49776977,1550.0,1606.5962553,1631.09402508,0.0,0.0
1565340125864925556,1574.49776977,1550.0,1606.5962553,1631.09402508,0.0,0.0
1565340125915082691,1576.126495,1550.0,1607.68207312,1633.80856812,0.0,0.0
1565340125964914306,1576.126495,1550.0,1607.68207312,1633.80856812,0.0,0.0
1565340126015182014,1575.04067719,1550.0,1607.68207312,1632.72275031,0.0,0.0
1565340126065071546,1575.04067719,1550.0,1607.68207312,1632.72275031,0.0,0.0
1565340126115432118,1550.0,1550.0,1606.5962553,1606.5962553,0.0,0.0
1565340126165062691,1550.0,1550.0,1606.5962553,1606.5962553,0.0,0.0
1565340126214533160,1550.0,1550.0,1606.5962553,1606.5962553,0.0,0.0
1565340126265161337,1550.0,1550.0,1606.5962553,1606.5962553,0.0,0.0
1565340126315253473,1550.0,1550.0,1606.5962553,1606.5962553,0.0,0.0
1565340126365086598,1550.0,1550.0,1606.5962553,1606.5962553,0.0,0.0
1565340126415091233,1550.0,1550.0,1607.68207312,1607.68207312,0.0,0.0
1565340126465083993,1550.0,1550.0,1607.68207312,1607.68207312,0.0,0.0
1565340126515563993,1550.0,1550.0,1607.68207312,1607.68207312,0.0,0.0
1565340126565174827,1551.16556613,1550.0,1607.68207312,1608.84763924,0.0,0.0
1565340126615109670,1551.16556613,1550.0,1607.68207312,1608.84763924,0.0,0.0
1565340126664865816,1559.84727889,1550.0,1606.5962553,1616.4435342,0.0,0.0
1565340126715637483,1559.84727889,1550.0,1606.5962553,1616.4435342,0.0,0.0
1565340126765228160,1580.46654761,1550.0,1606.5962553,1637.06280291,0.0,0.0
1565340126815030608,1580.46654761,1550.0,1606.5962553,1637.06280291,0.0,0.0
1565340126864861285,1576.66779757,1550.0,1607.68207312,1634.34987068,0.0,0.0
1565340126915167170,1576.66779757,1550.0,1607.68207312,1634.34987068,0.0,0.0
1565340126964948160,1550.0,1550.0,1607.68207312,1607.68207312,0.0,0.0
1565340127014822795,1550.0,1550.0,1607.68207312,1607.68207312,0.0,0.0
1565340127064932431,1550.0,1550.0,1607.68207312,1607.68207312,0.0,0.0
1565340127114959931,1550.0,1550.0,1607.68207312,1607.68207312,0.0,0.0
1565340127165513681,1550.0,1550.0,1606.5962553,1606.5962553,0.0,0.0
1565340127214678003,1550.0,1550.0,1606.5962553,1606.5962553,0.0,0.0
1565340127265907066,1550.0,1550.0,1606.5962553,1606.5962553,0.0,0.0
1565340127314883264,1550.0,1550.0,1606.5962553,1606.5962553,0.0,0.0
1565340127365181493,1550.0,1550.0,1606.5962553,1606.5962553,0.0,0.0
1565340127414940660,1550.62265792,1550.0,1607.68207312,1608.30473104,0.0,0.0
1565340127465175816,1550.62265792,1550.0,1607.68207312,1608.30473104,0.0,0.0
1565340127515169358,1560.39018705,1550.0,1606.5962553,1616.98644236,0.0,0.0
1565340127564991441,1560.39018705,1550.0,1606.5962553,1616.98644236,0.0,0.0
1565340127614955087,1573.95486087,1550.0,1607.68207312,1631.63693398,0.0,0.0
1565340127665096649,1573.95486087,1550.0,1607.68207312,1631.63693398,0.0,0.0
1565340127715733003,1577.21070349,1550.0,1606.5962553,1633.80695879,0.0,0.0
1565340127765653680,1577.21070349,1550.0,1606.5962553,1633.80695879,0.0,0.0
1565340127816755399,1550.0,1550.0,1606.5962553,1606.5962553,0.0,0.0
1565340127865403264,1550.0,1550.0,1606.5962553,1606.5962553,0.0,0.0
1565340127915916545,1550.0,1550.0,1606.5962553,1606.5962553,0.0,0.0
1565340127965655034,1550.0,1550.0,1607.68207312,1607.68207312,0.0,0.0
1565340128015649201,1550.0,1550.0,1607.68207312,1607.68207312,0.0,0.0
1565340128065381389,1550.0,1550.0,1606.5962553,1606.5962553,0.0,0.0
1565340128115408784,1550.0,1550.0,1606.5962553,1606.5962553,0.0,0.0
1565340128165277743,1550.0,1550.0,1606.5962553,1606.5962553,0.0,0.0
1565340128215353420,1550.0,1550.0,1606.5962553,1606.5962553,0.0,0.0
1565340128265331857,1565.27314931,1550.0,1606.5962553,1621.86940461,0.0,0.0
1565340128315588211,1565.27314931,1550.0,1606.5962553,1621.86940461,0.0,0.0
1565340128365549774,1568.52899194,1550.0,1607.68207312,1626.21106505,0.0,0.0
1565340128415292013,1568.52899194,1550.0,1607.68207312,1626.21106505,0.0,0.0
1565340128465315347,1568.52899194,1550.0,1607.68207312,1626.21106505,0.0,0.0
1565340128516697013,1566.35896564,1550.0,1607.68207312,1624.04103875,0.0,0.0
1565340128566234149,1566.35896564,1550.0,1607.68207312,1624.04103875,0.0,0.0
1565340128615454097,1550.0,1550.0,1606.5962553,1606.5962553,0.0,0.0
1565340128665044357,1550.0,1550.0,1606.5962553,1606.5962553,0.0,0.0
1565340128715082013,1550.0,1550.0,1606.5962553,1606.5962553,0.0,0.0
1565340128765061649,1550.0,1550.0,1606.5962553,1606.5962553,0.0,0.0
1565340128815012378,1550.0,1550.0,1606.5962553,1606.5962553,0.0,0.0
1565340128864877534,1550.0,1550.0,1607.68207312,1607.68207312,0.0,0.0
1565340128914967586,1550.0,1550.0,1607.68207312,1607.68207312,0.0,0.0
1565340128965226388,1550.0,1550.0,1607.68207312,1607.68207312,0.0,0.0
1565340129015184201,1550.0,1550.0,1607.68207312,1607.68207312,0.0,0.0
1565340129065218784,1550.0,1550.0,1607.68207312,1607.68207312,0.0,0.0
1565340129115699357,1550.0,1550.0,1606.5962553,1606.5962553,0.0,0.0
1565340129165630763,1550.0,1550.0,1606.5962553,1606.5962553,0.0,0.0
1565340129215079669,1550.0,1550.0,1606.5962553,1606.5962553,0.0,0.0
1565340129264835659,1550.0,1550.0,1606.5962553,1606.5962553,0.0,0.0
1565340129314978471,1550.0,1550.0,1606.5962553,1606.5962553,0.0,0.0
1565340129365524617,1550.0,1550.0,1607.68207312,1607.68207312,0.0,0.0
1565340129415301336,1550.0,1550.0,1607.68207312,1607.68207312,0.0,0.0
1565340129464874253,1550.0,1550.0,1607.68207312,1607.68207312,0.0,0.0
1565340129514842846,1550.0,1550.0,1607.68207312,1607.68207312,0.0,0.0
1565340129564844878,1564.18893784,1550.0,1607.68207312,1621.87101096,0.0,0.0
1565340129615235919,1564.18893784,1550.0,1607.68207312,1621.87101096,0.0,0.0
1565340129664800919,1565.81605673,1550.0,1607.68207312,1623.49812984,0.0,0.0
1565340129714864513,1565.81605673,1550.0,1607.68207312,1623.49812984,0.0,0.0
1565340129764844305,1569.07189935,1550.0,1606.5962553,1625.66815466,0.0,0.0
1565340129816320242,1569.07189935,1550.0,1606.5962553,1625.66815466,0.0,0.0
1565340129865626232,1570.70062459,1550.0,1606.5962553,1627.29687989,0.0,0.0
1565340129914969513,1570.70062459,1550.0,1606.5962553,1627.29687989,0.0,0.0
1565340129964849357,1570.70062459,1550.0,1607.68207312,1628.3826977,0.0,0.0
1565340130014816127,1570.70062459,1550.0,1607.68207312,1628.3826977,0.0,0.0
1565340130064804929,1571.24192715,1550.0,1606.5962553,1627.83818245,0.0,0.0
1565340130115745294,1571.24192715,1550.0,1606.5962553,1627.83818245,0.0,0.0
1565340130165344096,1571.24192715,1550.0,1606.5962553,1627.83818245,0.0,0.0
1565340130214804565,1570.70062459,1550.0,1606.5962553,1627.29687989,0.0,0.0
1565340130264827481,1570.70062459,1550.0,1606.5962553,1627.29687989,0.0,0.0
1565340130315640502,1571.24192715,1550.0,1607.68207312,1628.92400026,0.0,0.0
1565340130364852534,1571.24192715,1550.0,1607.68207312,1628.92400026,0.0,0.0
1565340130415465867,1571.24192715,1550.0,1607.68207312,1628.92400026,0.0,0.0
1565340130464850242,1578.29652131,1550.0,1607.68207312,1635.97859442,0.0,0.0
1565340130514921283,1578.29652131,1550.0,1607.68207312,1635.97859442,0.0,0.0
1565340130565469565,1579.9236387,1550.0,1606.5962553,1636.519894,0.0,0.0
1565340130614992169,1579.9236387,1550.0,1606.5962553,1636.519894,0.0,0.0
1565340130664840450,1579.9236387,1550.0,1606.5962553,1636.519894,0.0,0.0
1565340130715712638,1579.9236387,1550.0,1606.5962553,1636.519894,0.0,0.0
1565340130766479356,1579.9236387,1550.0,1606.5962553,1636.519894,0.0,0.0
1565340130815194356,1579.38233614,1550.0,1607.68207312,1637.06440926,0.0,0.0
1565340130864680346,1579.38233614,1550.0,1607.68207312,1637.06440926,0.0,0.0
1565340130914744773,1579.38233614,1550.0,1606.5962553,1635.97859144,0.0,0.0
1565340130964724304,1579.38233614,1550.0,1606.5962553,1635.97859144,0.0,0.0
1565340131015583419,1579.38233614,1550.0,1606.5962553,1635.97859144,0.0,0.0
1565340131065237273,1577.21070349,1550.0,1606.5962553,1633.80695879,0.0,0.0
1565340131115281596,1577.21070349,1550.0,1606.5962553,1633.80695879,0.0,0.0
1565340131165219304,1550.0,1550.0,1606.5962553,1606.5962553,0.0,0.0
1565340131214975242,1550.0,1550.0,1606.5962553,1606.5962553,0.0,0.0
1565340131265114044,1550.0,1550.0,1606.5962553,1606.5962553,0.0,0.0
1565340131315340033,1550.0,1550.0,1606.5962553,1606.5962553,0.0,0.0
1565340131365252585,1550.0,1550.0,1607.68207312,1607.68207312,0.0,0.0
1565340131415348939,1550.0,1550.0,1607.68207312,1607.68207312,0.0,0.0
1565340131465132169,1550.0,1550.0,1607.68207312,1607.68207312,0.0,0.0
1565340131515342741,1567.44478196,1550.0,1607.68207312,1625.12685508,0.0,0.0
1565340131565245710,1567.44478196,1550.0,1607.68207312,1625.12685508,0.0,0.0
1565340131615370189,1581.00945652,1550.0,1607.68207312,1638.69152963,0.0,0.0
1565340131665106439,1581.00945652,1550.0,1607.68207312,1638.69152963,0.0,0.0
1565340131715728627,1581.00945652,1550.0,1606.5962553,1637.60571182,0.0,0.0
1565340131765002585,1581.00945652,1550.0,1606.5962553,1637.60571182,0.0,0.0
1565340131815731595,1581.00945652,1550.0,1606.5962553,1637.60571182,0.0,0.0
1565340131865873887,1580.46654761,1550.0,1607.68207312,1638.14862072,0.0,0.0
1565340131915839877,1580.46654761,1550.0,1607.68207312,1638.14862072,0.0,0.0
1565340131965465658,1573.41355979,1550.0,1606.5962553,1630.0098151,0.0,0.0
1565340132015270397,1573.41355979,1550.0,1606.5962553,1630.0098151,0.0,0.0
1565340132065147585,1568.52899194,1550.0,1606.5962553,1625.12524724,0.0,0.0
1565340132115613158,1568.52899194,1550.0,1606.5962553,1625.12524724,0.0,0.0
1565340132164833522,1568.52899194,1550.0,1606.5962553,1625.12524724,0.0,0.0
1565340132214950866,1568.52899194,1550.0,1606.5962553,1625.12524724,0.0,0.0
1565340132265740241,1550.0,1550.0,1606.5962553,1606.5962553,0.0,0.0
1565340132315235033,1550.0,1550.0,1606.5962553,1606.5962553,0.0,0.0
1565340132364726439,1550.0,1550.0,1606.5962553,1606.5962553,0.0,0.0
1565340132414827429,1550.0,1550.0,1606.5962553,1606.5962553,0.0,0.0
1565340132464849251,1550.0,1550.0,1607.68207312,1607.68207312,0.0,0.0
1565340132514796439,1550.0,1550.0,1607.68207312,1607.68207312,0.0,0.0
1565340132565159199,1550.0,1550.0,1607.68207312,1607.68207312,0.0,0.0
1565340132615392012,1550.0,1550.0,1607.68207312,1607.68207312,0.0,0.0
1565340132665458731,1550.0,1550.0,1606.5962553,1606.5962553,0.0,0.0
1565340132715764303,1550.0,1550.0,1606.5962553,1606.5962553,0.0,0.0
1565340132765205658,1550.0,1550.0,1607.68207312,1607.68207312,0.0,0.0
1565340132815295762,1550.0,1550.0,1607.68207312,1607.68207312,0.0,0.0
1565340132865100918,1550.0,1550.0,1607.68207312,1607.68207312,0.0,0.0
1565340132915216491,1550.0,1550.0,1606.5962553,1606.5962553,0.0,0.0
1565340132965246647,1550.0,1550.0,1606.5962553,1606.5962553,0.0,0.0
1565340133015236855,1550.0,1550.0,1607.68207312,1607.68207312,0.0,0.0
1565340133065004251,1550.0,1550.0,1607.68207312,1607.68207312,0.0,0.0
1565340133115956439,1550.0,1550.0,1606.5962553,1606.5962553,0.0,0.0
1565340133164957480,1550.0,1550.0,1606.5962553,1606.5962553,0.0,0.0
1565340133215113678,1550.0,1550.0,1606.5962553,1606.5962553,0.0,0.0
1565340133265465032,1550.0,1550.0,1606.5962553,1606.5962553,0.0,0.0
1565340133315413678,1550.0,1550.0,1606.5962553,1606.5962553,0.0,0.0
1565340133365150918,1550.0,1550.0,1606.5962553,1606.5962553,0.0,0.0
1565340133415199407,1550.0,1550.0,1606.5962553,1606.5962553,0.0,0.0
1565340133465210657,1550.0,1550.0,1606.5962553,1606.5962553,0.0,0.0
1565340133515062532,1550.0,1550.0,1606.5962553,1606.5962553,0.0,0.0
1565340133564824303,1550.0,1550.0,1606.5962553,1606.5962553,0.0,0.0
1565340133615023261,1550.0,1550.0,1606.5962553,1606.5962553,0.0,0.0
1565340133664694147,1550.0,1550.0,1607.68207312,1607.68207312,0.0,0.0
1565340133715738626,1550.0,1550.0,1607.68207312,1607.68207312,0.0,0.0
1565340133764697845,1550.0,1550.0,1607.68207312,1607.68207312,0.0,0.0
1565340133815044824,1550.0,1550.0,1607.68207312,1607.68207312,0.0,0.0
1565340133864835397,1550.0,1550.0,1606.5962553,1606.5962553,0.0,0.0
1565340133915208678,1550.0,1550.0,1606.5962553,1606.5962553,0.0,0.0
1565340133965113522,1550.0,1550.0,1610.93630791,1610.93630791,0.0,0.0
1565340134015102793,1550.0,1550.0,1610.93630791,1610.93630791,0.0,0.0
1565340134065086386,1550.0,1550.0,1610.93630791,1610.93630791,0.0,0.0
1565340134115262376,1550.0,1550.0,1616.36217833,1616.36217833,0.0,0.0
1565340134165038574,1550.0,1550.0,1616.36217833,1616.36217833,0.0,0.0
1565340134214918209,1550.0,1550.0,1616.36217833,1616.36217833,0.0,0.0
1565340134264953417,1550.0,1550.0,1617.44799614,1617.44799614,0.0,0.0
1565340134315089303,1550.0,1550.0,1617.44799614,1617.44799614,0.0,0.0
1565340134364669980,1550.0,1550.0,1620.70544362,1620.70544362,0.0,0.0
1565340134415984824,1550.0,1550.0,1620.70544362,1620.70544362,0.0,0.0
1565340134464888990,1550.0,1550.0,1620.70544362,1620.70544362,0.0,0.0
1565340134514954563,1550.0,1550.0,1620.70544362,1620.70544362,0.0,0.0
1565340134564858990,1550.0,1550.0,1621.78804874,1621.78804874,0.0,0.0
1565340134615015969,1550.0,1550.0,1621.78804874,1621.78804874,0.0,0.0
1565340134664907792,1550.0,1550.0,1621.78804874,1621.78804874,0.0,0.0
1565340134714930084,1550.0,1550.0,1621.78804874,1621.78804874,0.0,0.0
1565340134764906126,1550.0,1550.0,1621.78804874,1621.78804874,0.0,0.0
1565340134814917167,1550.0,1550.0,1621.78804874,1621.78804874,0.0,0.0
1565340134864923053,1550.0,1550.0,1621.78804874,1621.78804874,0.0,0.0
1565340134914932844,1550.0,1550.0,1621.78804874,1621.78804874,0.0,0.0
1565340134964900292,1550.0,1550.0,1621.78804874,1621.78804874,0.0,0.0
1565340135015006073,1550.0,1550.0,1621.78804874,1621.78804874,0.0,0.0
1565340135064939615,1550.0,1550.0,1621.78804874,1621.78804874,0.0,0.0
1565340135115026230,1550.0,1558.76467526,1631.63854182,1622.87386656,0.0,0.0
1565340135165161698,1550.0,1558.76467526,1631.63854182,1622.87386656,0.0,0.0
1565340135215161178,1550.0,1562.56182045,1635.43568701,1622.87386656,0.0,0.0
1565340135265068261,1550.0,1562.56182045,1635.43568701,1622.87386656,0.0,0.0
1565340135315616959,1550.0,1562.56182045,1634.34986919,1621.78804874,0.0,0.0
1565340135365557271,1550.0,1562.56182045,1634.34986919,1621.78804874,0.0,0.0
1565340135415026490,1550.0,1565.81766307,1637.60571182,1621.78804874,0.0,0.0
1565340135465083834,1550.0,1565.81766307,1637.60571182,1621.78804874,0.0,0.0
1565340135515235604,1550.0,1569.61641461,1641.40446335,1621.78804874,0.0,0.0
1565340135565031802,1550.0,1569.61641461,1641.40446335,1621.78804874,0.0,0.0
1565340135614945604,1550.0,1550.0,1622.87386656,1622.87386656,0.0,0.0
1565340135665394042,1550.0,1550.0,1622.87386656,1622.87386656,0.0,0.0
1565340135715586438,1550.0,1550.0,1622.87386656,1622.87386656,0.0,0.0
1565340135764981646,1550.0,1550.0,1622.87386656,1622.87386656,0.0,0.0
1565340135814931125,1550.0,1550.0,1622.87386656,1622.87386656,0.0,0.0
1565340135865067531,1550.0,1550.0,1622.87386656,1622.87386656,0.0,0.0
1565340135915163521,1550.0,1573.41516614,1646.2890327,1622.87386656,0.0,0.0
1565340135964937011,1550.0,1573.41516614,1646.2890327,1622.87386656,0.0,0.0
1565340136014961698,1550.0,1573.41516614,1646.2890327,1622.87386656,0.0,0.0
1565340136065420188,1550.0,1585.89402437,1658.76789093,1622.87386656,0.0,0.0
1565340136114964354,1550.0,1585.89402437,1658.76789093,1622.87386656,0.0,0.0
1565340136165185396,1550.0,1585.89402437,1658.76789093,1622.87386656,0.0,0.0
1565340136214645604,1550.0,1583.72399807,1656.59786463,1622.87386656,0.0,0.0
1565340136264968781,1550.0,1583.72399807,1656.59786463,1622.87386656,0.0,0.0
1565340136315106542,1550.0,1550.0,1622.87386656,1622.87386656,0.0,0.0
1565340136365119354,1550.0,1550.0,1622.87386656,1622.87386656,0.0,0.0
1565340136414932792,1550.0,1550.0,1622.87386656,1622.87386656,0.0,0.0
1565340136465085917,1550.0,1550.0,1622.87386656,1622.87386656,0.0,0.0
1565340136515255240,1550.0,1550.0,1622.87386656,1622.87386656,0.0,0.0
1565340136564931490,1550.0,1550.0,1622.87386656,1622.87386656,0.0,0.0
1565340136614969614,1550.0,1550.0,1622.87386656,1622.87386656,0.0,0.0
1565340136664937583,1550.0,1550.0,1623.95967841,1623.95967841,0.0,0.0
1565340136714772844,1550.0,1550.0,1623.95967841,1623.95967841,0.0,0.0
1565340136765145969,1550.0,1550.0,1623.95967841,1623.95967841,0.0,0.0
1565340136815278521,1550.0,1550.0,1623.95967841,1623.95967841,0.0,0.0
1565340136865148989,1550.0,1550.0,1622.87386656,1622.87386656,0.0,0.0
1565340136915652010,1550.0,1550.0,1622.87386656,1622.87386656,0.0,0.0
1565340136967225500,1550.0,1550.0,1622.87386656,1622.87386656,0.0,0.0
1565340137016152948,1550.0,1550.0,1622.87386656,1622.87386656,0.0,0.0
1565340137065413989,1550.0,1550.0,1623.95967841,1623.95967841,0.0,0.0
1565340137115410604,1550.0,1550.0,1623.95967841,1623.95967841,0.0,0.0
1565340137165160812,1550.0,1550.0,1622.87386656,1622.87386656,0.0,0.0
1565340137214735500,1550.0,1550.0,1622.87386656,1622.87386656,0.0,0.0
1565340137265289302,1550.0,1550.0,1622.87386656,1622.87386656,0.0,0.0
1565340137315660343,1550.0,1550.0,1622.87386656,1622.87386656,0.0,0.0
1565340137365365239,1550.0,1576.66940391,1650.62908232,1623.95967841,0.0,0.0
1565340137415173312,1550.0,1576.66940391,1650.62908232,1623.95967841,0.0,0.0
1565340137465196489,1550.0,1586.97983921,1662.02533543,1625.04549623,0.0,0.0
1565340137514955864,1550.0,1586.97983921,1662.02533543,1625.04549623,0.0,0.0
1565340137565902843,1550.0,1550.0,1625.04549623,1625.04549623,0.0,0.0
1565340137615275447,1550.0,1550.0,1625.04549623,1625.04549623,0.0,0.0
1565340137665142270,1550.0,1550.0,1626.13131404,1626.13131404,0.0,0.0
1565340137714996020,1550.0,1550.0,1626.13131404,1626.13131404,0.0,0.0
1565340137765071958,1550.0,1550.0,1626.13131404,1626.13131404,0.0,0.0
1565340137815180499,1550.0,1550.0,1626.13131404,1626.13131404,0.0,0.0
1565340137864634041,1550.0,1550.0,1626.13131404,1626.13131404,0.0,0.0
1565340137915275656,1550.0,1550.0,1626.13131404,1626.13131404,0.0,0.0
1565340137965103104,1550.0,1550.0,1626.13131404,1626.13131404,0.0,0.0
1565340138015141072,1550.0,1550.0,1626.13131404,1626.13131404,0.0,0.0
1565340138065148104,1550.0,1550.0,1628.29973102,1628.29973102,0.0,0.0
1565340138115260083,1550.0,1550.0,1628.29973102,1628.29973102,0.0,0.0
1565340138165128833,1550.0,1550.0,1628.29973102,1628.29973102,0.0,0.0
1565340138215188103,1550.0,1550.0,1628.29973102,1628.29973102,0.0,0.0
1565340138264974197,1550.0,1550.0,1628.29973102,1628.29973102,0.0,0.0
1565340138315089093,1550.0,1550.0,1628.29973102,1628.29973102,0.0,0.0
1565340138365071958,1550.0,1550.0,1628.29973102,1628.29973102,0.0,0.0
1565340138414608468,1550.0,1550.0,1629.38554883,1629.38554883,0.0,0.0
1565340138465071905,1550.0,1550.0,1629.38554883,1629.38554883,0.0,0.0
1565340138515502687,1550.0,1550.0,1628.29973102,1628.29973102,0.0,0.0
1565340138564885603,1550.0,1550.0,1628.29973102,1628.29973102,0.0,0.0
1565340138615157426,1550.0,1550.0,1628.29973102,1628.29973102,0.0,0.0
1565340138664987062,1550.0,1550.0,1628.29973102,1628.29973102,0.0,0.0
1565340138715114562,1550.0,1550.0,1628.29973102,1628.29973102,0.0,0.0
1565340138764932739,1550.0,1550.0,1628.29973102,1628.29973102,0.0,0.0
1565340138815078103,1550.0,1550.0,1628.29973102,1628.29973102,0.0,0.0
1565340138864951593,1550.0,1550.0,1628.29973102,1628.29973102,0.0,0.0
1565340138914961801,1550.0,1550.0,1628.29973102,1628.29973102,0.0,0.0
1565340138964913937,1550.0,1550.0,1628.29973102,1628.29973102,0.0,0.0
1565340139014916697,1550.0,1550.0,1628.29973102,1628.29973102,0.0,0.0
1565340139064939666,1550.0,1550.0,1628.29973102,1628.29973102,0.0,0.0
1565340139115115186,1550.0,1550.0,1628.29973102,1628.29973102,0.0,0.0
1565340139164923676,1550.0,1550.0,1628.29973102,1628.29973102,0.0,0.0
1565340139214907166,1550.0,1550.0,1628.29973102,1628.29973102,0.0,0.0
1565340139264983311,1550.0,1550.0,1628.29973102,1628.29973102,0.0,0.0
1565340139315853884,1550.0,1550.0,1628.29973102,1628.29973102,0.0,0.0
1565340139364926541,1550.0,1550.0,1628.29973102,1628.29973102,0.0,0.0
1565340139414882895,1550.0,1550.0,1629.38554883,1629.38554883,0.0,0.0
1565340139464901332,1550.0,1550.0,1629.38554883,1629.38554883,0.0,0.0
1565340139515410134,1550.0,1550.0,1629.38554883,1629.38554883,0.0,0.0
1565340139565201228,1550.0,1550.0,1629.38554883,1629.38554883,0.0,0.0
1565340139614901332,1550.0,1550.0,1629.38554883,1629.38554883,0.0,0.0
1565340139665576488,1550.0,1550.0,1629.38554883,1629.38554883,0.0,0.0
1565340139715010342,1550.0,1550.0,1629.38554883,1629.38554883,0.0,0.0
1565340139765010655,1550.0,1550.0,1629.38554883,1629.38554883,0.0,0.0
1565340139816323832,1550.0,1550.0,1629.38554883,1629.38554883,0.0,0.0
1565340139865026072,1550.0,1570.70223093,1650.08777976,1629.38554883,0.0,0.0
1565340139916346488,1550.0,1570.70223093,1650.08777976,1629.38554883,0.0,0.0
1565340139964919978,1550.0,1570.70223093,1650.08777976,1629.38554883,0.0,0.0
1565340140014960394,1550.0,1570.70223093,1650.08777976,1629.38554883,0.0,0.0
1565340140065096905,1550.0,1570.70223093,1650.08777976,1629.38554883,0.0,0.0
1565340140115140915,1550.0,1570.70223093,1650.08777976,1629.38554883,0.0,0.0
1565340140165036644,1550.0,1570.70223093,1650.08777976,1629.38554883,0.0,0.0
1565340140215082946,1550.0,1570.15932202,1648.45905304,1628.29973102,0.0,0.0
1565340140264715707,1550.0,1570.15932202,1648.45905304,1628.29973102,0.0,0.0
1565340140315140655,1550.0,1570.70223093,1650.08777976,1629.38554883,0.0,0.0
1565340140365080342,1550.0,1570.70223093,1650.08777976,1629.38554883,0.0,0.0
1565340140415189405,1550.0,1570.15932202,1648.45905304,1628.29973102,0.0,0.0
1565340140464707165,1550.0,1570.15932202,1648.45905304,1628.29973102,0.0,0.0
1565340140514921644,1550.0,1570.15932202,1648.45905304,1628.29973102,0.0,0.0
1565340140564918623,1550.0,1570.70223093,1650.08777976,1629.38554883,0.0,0.0
1565340140615549457,1550.0,1570.70223093,1650.08777976,1629.38554883,0.0,0.0
1565340140665690811,1550.0,1570.70223093,1650.08777976,1629.38554883,0.0,0.0
1565340140717171280,1550.0,1570.70223093,1650.08777976,1629.38554883,0.0,0.0
1565340140764983050,1550.0,1575.04228354,1654.42783237,1629.38554883,0.0,0.0
1565340140814690134,1550.0,1575.04228354,1654.42783237,1629.38554883,0.0,0.0
1565340140865037477,1550.0,1575.04228354,1654.42783237,1629.38554883,0.0,0.0
1565340140914661957,1550.0,1575.04228354,1653.34201455,1628.29973102,0.0,0.0
1565340140964689144,1550.0,1575.04228354,1653.34201455,1628.29973102,0.0,0.0
1565340141014977425,1550.0,1550.0,1621.78804874,1621.78804874,0.0,0.0
1565340141064726540,1550.0,1550.0,1621.78804874,1621.78804874,0.0,0.0
1565340141115037582,1550.0,1550.0,1554.50597778,1554.50597778,0.0,0.0
1565340141164728311,1550.0,1550.0,1554.50597778,1554.50597778,0.0,0.0
1565340141214737113,1550.0,1550.0,1550.0,1550.0,0.0,0.0
1565340141264618884,1550.0,1550.0,1550.0,1550.0,0.0,0.0
1565340141314989092,1550.0,1550.0,1550.0,1550.0,0.0,0.0
1565340141365789404,1550.0,1550.0,1550.0,1550.0,0.0,0.0
1565340141414629352,1550.0,1575.04228354,1575.04228354,1550.0,0.0,0.0
1565340141465192998,1550.0,1575.04228354,1575.04228354,1550.0,0.0,0.0
1565340141515360394,1550.0,1589.69277442,1589.69277442,1550.0,0.0,0.0
1565340141564703675,1550.0,1589.69277442,1589.69277442,1550.0,0.0,0.0
1565340141614655654,1550.0,1589.69277442,1589.69277442,1550.0,0.0,0.0
1565340141664875029,1550.0,1589.69277442,1589.69277442,1550.0,0.0,0.0
1565340141714857113,1550.0,1589.69277442,1589.69277442,1550.0,0.0,0.0
1565340141764881956,1550.0,1589.69277442,1589.69277442,1550.0,0.0,0.0
1565340141814829665,1550.0,1589.69277442,1589.69277442,1550.0,0.0,0.0
1565340141864953883,1550.0,1600.0,1600.0,1550.0,0.0,0.0
1565340141914838779,1550.0,1600.0,1600.0,1550.0,0.0,0.0
1565340141965688883,1550.0,1600.0,1600.0,1550.0,0.0,0.0
1565340142014858362,1550.0,1600.0,1600.0,1550.0,0.0,0.0
1565340142064995237,1550.0,1600.0,1600.0,1550.0,0.0,0.0
1565340142115093883,1550.0,1600.0,1600.0,1550.0,0.0,0.0
1565340142165889977,1550.0,1600.0,1600.0,1550.0,0.0,0.0
1565340142215036019,1550.0,1600.0,1600.0,1550.0,0.0,0.0
1565340142264932321,1550.0,1600.0,1600.0,1550.0,0.0,0.0
1565340142314961800,1550.0,1550.0,1550.0,1550.0,0.0,0.0
1565340142365086435,1550.0,1550.0,1550.0,1550.0,0.0,0.0
1565340142414630810,1550.0,1550.0,1550.0,1550.0,0.0,0.0
1565340142465607269,1550.0,1550.0,1550.0,1550.0,0.0,0.0
1565340142514817164,1550.0,1550.0,1550.0,1550.0,0.0,0.0
1565340142565557893,1550.0,1550.0,1550.0,1550.0,0.0,0.0
1565340142615269977,1550.0,1550.0,1550.0,1550.0,0.0,0.0
1565340142665267425,1550.0,1550.0,1550.0,1550.0,0.0,0.0
1565340142714970341,1550.0,1550.0,1550.0,1550.0,0.0,0.0
1565340142765124612,1550.0,1550.0,1550.0,1550.0,0.0,0.0
1565340142814831331,1550.0,1550.0,1550.0,1550.0,0.0,0.0
1565340142864859664,1550.0,1550.0,1550.0,1550.0,0.0,0.0
1565340142914993675,1550.0,1550.0,1550.0,1550.0,0.0,0.0
1565340142965415133,1550.0,1550.0,1550.0,1550.0,0.0,0.0
1565340143014920237,1550.0,1550.0,1550.0,1550.0,0.0,0.0
1565340143064732789,1550.0,1550.0,1550.0,1550.0,0.0,0.0
1565340143115105237,1550.0,1550.0,1550.0,1550.0,0.0,0.0
1565340143165104924,1550.0,1550.0,1596.83033228,1596.83033228,0.0,0.0
1565340143215137789,1550.0,1550.0,1596.83033228,1596.83033228,0.0,0.0
1565340143265177268,1550.0,1550.0,1608.76788497,1608.76788497,0.0,0.0
1565340143315230914,1550.0,1550.0,1608.76788497,1608.76788497,0.0,0.0
1565340143365030497,1550.0,1550.0,1608.76788497,1608.76788497,0.0,0.0
1565340143415512476,1550.0,1550.0,1616.36217833,1616.36217833,0.0,0.0
1565340143465001435,1550.0,1550.0,1616.36217833,1616.36217833,0.0,0.0
1565340143514688935,1550.0,1550.0,1617.44799614,1617.44799614,0.0,0.0
1565340143565149404,1550.0,1550.0,1617.44799614,1617.44799614,0.0,0.0
1565340143615942008,1550.0,1550.0,1617.44799614,1617.44799614,0.0,0.0
1565340143665341278,1550.0,1550.0,1617.44799614,1617.44799614,0.0,0.0
1565340143714929143,1550.0,1550.0,1617.44799614,1617.44799614,0.0,0.0
1565340143764714612,1550.0,1550.0,1617.44799614,1617.44799614,0.0,0.0
1565340143815432372,1550.0,1550.0,1617.44799614,1617.44799614,0.0,0.0
1565340143865121226,1550.0,1550.0,1617.44799614,1617.44799614,0.0,0.0
1565340143915122164,1550.0,1550.0,1617.44799614,1617.44799614,0.0,0.0
1565340143965564716,1550.0,1550.0,1617.44799614,1617.44799614,0.0,0.0
1565340144015487893,1550.0,1550.0,1617.44799614,1617.44799614,0.0,0.0
1565340144064977789,1550.0,1550.0,1617.44799614,1617.44799614,0.0,0.0
1565340144115190653,1550.0,1550.0,1617.44799614,1617.44799614,0.0,0.0
1565340144165272007,1550.0,1550.0,1617.44799614,1617.44799614,0.0,0.0
1565340144215252216,1550.0,1550.0,1617.44799614,1617.44799614,0.0,0.0
1565340144265227372,1550.0,1550.0,1617.44799614,1617.44799614,0.0,0.0
1565340144315364612,1550.0,1550.0,1617.44799614,1617.44799614,0.0,0.0
1565340144365209612,1550.0,1550.0,1617.44799614,1617.44799614,0.0,0.0
1565340144415228726,1550.0,1550.0,1617.44799614,1617.44799614,0.0,0.0
1565340144465278674,1550.0,1550.0,1617.44799614,1617.44799614,0.0,0.0
1565340144515347528,1550.0,1550.0,1617.44799614,1617.44799614,0.0,0.0
1565340144565215341,1550.0,1550.0,1617.44799614,1617.44799614,0.0,0.0
1565340144615078361,1550.0,1550.0,1617.44799614,1617.44799614,0.0,0.0
1565340144665250549,1550.0,1550.0,1617.44799614,1617.44799614,0.0,0.0
1565340144716012997,1550.0,1550.0,1617.44799614,1617.44799614,0.0,0.0
1565340144766519091,1550.0,1550.0,1617.44799614,1617.44799614,0.0,0.0
1565340144815289976,1550.0,1550.0,1620.70544362,1620.70544362,0.0,0.0
1565340144865629663,1550.0,1550.0,1620.70544362,1620.70544362,0.0,0.0
1565340144915429299,1550.0,1550.0,1620.70544362,1620.70544362,0.0,0.0
1565340144964754976,1550.0,1550.0,1620.70544362,1620.70544362,0.0,0.0
1565340145016465913,1550.0,1550.0,1620.70544362,1620.70544362,0.0,0.0
1565340145066898986,1550.0,1550.0,1632.63978958,1632.63978958,0.0,0.0
1565340145116681226,1550.0,1550.0,1632.63978958,1632.63978958,0.0,0.0
1565340145166076122,1550.0,1550.0,1641.32310748,1641.32310748,0.0,0.0
1565340145215108778,1550.0,1550.0,1641.32310748,1641.32310748,0.0,0.0
1565340145264990549,1550.0,1550.0,1650.0,1650.0,0.0,0.0
1565340145315295340,1550.0,1550.0,1650.0,1650.0,0.0,0.0
1565340145365209351,1550.0,1550.0,1650.0,1650.0,0.0,0.0
1565340145415509924,1550.0,1550.0,1650.0,1650.0,0.0,0.0
1565340145465095861,1550.0,1550.0,1650.0,1650.0,0.0,0.0
1565340145515540601,1550.0,1550.0,1650.0,1650.0,0.0,0.0
1565340145564991799,1550.0,1550.0,1650.0,1650.0,0.0,0.0
1565340145615254663,1550.0,1550.0,1650.0,1650.0,0.0,0.0
1565340145665209924,1550.0,1550.0,1650.0,1650.0,0.0,0.0
1565340145715957215,1550.0,1550.0,1650.0,1650.0,0.0,0.0
1565340145765177007,1550.0,1550.0,1650.0,1650.0,0.0,0.0
1565340145815832892,1550.0,1550.0,1650.0,1650.0,0.0,0.0
1565340145865294819,1550.0,1550.0,1650.0,1650.0,0.0,0.0
1565340145916885705,1550.0,1550.0,1650.0,1650.0,0.0,0.0
1565340145966154923,1550.0,1550.0,1650.0,1650.0,0.0,0.0
1565340146015199663,1550.0,1550.0,1650.0,1650.0,0.0,0.0
1565340146064976173,1550.0,1550.0,1650.0,1650.0,0.0,0.0
1565340146115068361,1550.0,1550.0,1550.0,1550.0,0.0,0.0
1565340146164961017,1550.0,1550.0,1550.0,1550.0,0.0,0.0
1565340146214991694,1550.0,1550.0,1550.0,1550.0,0.0,0.0
1565340146264659715,1550.0,1550.0,1550.0,1550.0,0.0,0.0
1565340146315917267,1550.0,1550.0,1550.0,1550.0,0.0,0.0
1565340146366492059,1550.0,1550.0,1550.0,1550.0,0.0,0.0
1565340146416551121,1550.0,1581.55397177,1581.55397177,1550.0,0.0,0.0
1565340146465036173,1550.0,1581.55397177,1581.55397177,1550.0,0.0,0.0
1565340146515003569,1550.0,1581.55397177,1581.55397177,1550.0,0.0,0.0
1565340146566189559,1550.0,1600.0,1600.0,1550.0,0.0,0.0
1565340146615382111,1550.0,1600.0,1600.0,1550.0,0.0,0.0
1565340146665230756,1550.0,1600.0,1600.0,1550.0,0.0,0.0
1565340146716558621,1550.0,1600.0,1600.0,1550.0,0.0,0.0
1565340146765076590,1550.0,1600.0,1600.0,1550.0,0.0,0.0
1565340146815583256,1550.0,1600.0,1600.0,1550.0,0.0,0.0
1565340146864981538,1550.0,1600.0,1600.0,1550.0,0.0,0.0
1565340146915026694,1550.0,1600.0,1600.0,1550.0,0.0,0.0
1565340146965193829,1550.0,1600.0,1600.0,1550.0,0.0,0.0
1565340147015619246,1550.0,1600.0,1600.0,1550.0,0.0,0.0
1565340147065293986,1550.0,1600.0,1600.0,1550.0,0.0,0.0
1565340147115912267,1550.0,1600.0,1600.0,1550.0,0.0,0.0
1565340147165223256,1550.0,1600.0,1600.0,1550.0,0.0,0.0
1565340147215886225,1550.0,1600.0,1600.0,1550.0,0.0,0.0
1565340147265870548,1550.0,1550.0,1550.0,1550.0,0.0,0.0
1565340147315694298,1550.0,1550.0,1550.0,1550.0,0.0,0.0
1565340147365009194,1550.0,1550.0,1550.0,1550.0,0.0,0.0
1565340147414921642,1550.0,1550.0,1550.0,1550.0,0.0,0.0
1565340147465106485,1550.0,1550.0,1550.0,1550.0,0.0,0.0
1565340147515642631,1550.0,1550.0,1591.40446186,1591.40446186,0.0,0.0
1565340147565244246,1550.0,1550.0,1591.40446186,1591.40446186,0.0,0.0
1565340147615219871,1550.0,1550.0,1594.65869963,1594.65869963,0.0,0.0
1565340147665181121,1550.0,1550.0,1594.65869963,1594.65869963,0.0,0.0
1565340147714960808,1550.0,1550.0,1594.65869963,1594.65869963,0.0,0.0
1565340147765793308,1550.0,1550.0,1593.57288182,1593.57288182,0.0,0.0
1565340147814907058,1550.0,1550.0,1593.57288182,1593.57288182,0.0,0.0
1565340147865544506,1550.0,1550.0,1593.57288182,1593.57288182,0.0,0.0
1565340147914676173,1550.0,1550.0,1601.17038488,1601.17038488,0.0,0.0
1565340147964997266,1550.0,1550.0,1631.55718446,1631.55718446,0.0,0.0
1565340148014739871,1550.0,1550.0,1631.55718446,1631.55718446,0.0,0.0
1565340148065897006,1550.0,1550.0,1631.55718446,1631.55718446,0.0,0.0
1565340148115798568,1550.0,1550.0,1642.40892529,1642.40892529,0.0,0.0
1565340148164896693,1550.0,1550.0,1642.40892529,1642.40892529,0.0,0.0
1565340148214658412,1550.0,1550.0,1646.7489779,1646.7489779,0.0,0.0
1565340148265675860,1550.0,1550.0,1646.7489779,1646.7489779,0.0,0.0
1565340148315078516,1550.0,1550.0,1646.7489779,1646.7489779,0.0,0.0
1565340148365781798,1550.0,1550.0,1646.7489779,1646.7489779,0.0,0.0
1565340148414898152,1550.0,1572.87225723,1668.53541732,1645.66316009,0.0,0.0
1565340148465044662,1550.0,1572.87225723,1668.53541732,1645.66316009,0.0,0.0
1565340148516873464,1550.0,1572.87225723,1668.53541732,1645.66316009,0.0,0.0
1565340148564990131,1550.0,1573.95646721,1664.19375688,1640.23728967,0.0,0.0
1565340148615178464,1550.0,1573.95646721,1664.19375688,1640.23728967,0.0,0.0
1565340148665007006,1550.0,1580.46815395,1670.70544362,1640.23728967,0.0,0.0
1565340148714951641,1550.0,1580.46815395,1670.70544362,1640.23728967,0.0,0.0
1565340148765104089,1550.0,1588.60695958,1678.84424925,1640.23728967,0.0,0.0
1565340148815044037,1550.0,1588.60695958,1678.84424925,1640.23728967,0.0,0.0
1565340148865884245,1550.0,1589.14986551,1679.38715518,1640.23728967,0.0,0.0
1565340148915122839,1550.0,1589.14986551,1679.38715518,1640.23728967,0.0,0.0
1565340148964997162,1550.0,1589.14986551,1689.14986551,1650.0,0.0,0.0
1565340149015070599,1550.0,1589.14986551,1689.14986551,1650.0,0.0,0.0
1565340149065064037,1550.0,1600.0,1695.66316009,1645.66316009,0.0,0.0
1565340149116006589,1550.0,1600.0,1695.66316009,1645.66316009,0.0,0.0
1565340149165036537,1550.0,1600.0,1695.66316009,1645.66316009,0.0,0.0
1565340149214986797,1550.0,1600.0,1695.66316009,1645.66316009,0.0,0.0
1565340149265073464,1550.0,1600.0,1695.66316009,1645.66316009,0.0,0.0
1565340149315038047,1550.0,1550.0,1645.66316009,1645.66316009,0.0,0.0
1565340149364913308,1550.0,1550.0,1645.66316009,1645.66316009,0.0,0.0
1565340149414927839,1550.0,1550.0,1645.66316009,1645.66316009,0.0,0.0
1565340149464931328,1558.84603113,1550.0,1658.84603113,1650.0,0.0,0.0
1565340149514939349,1558.84603113,1550.0,1658.84603113,1650.0,0.0,0.0
1565340149564924037,1558.84603113,1550.0,1658.84603113,1650.0,0.0,0.0
1565340149614991641,1558.84603113,1550.0,1658.84603113,1650.0,0.0,0.0
1565340149664990443,1558.84603113,1550.0,1658.84603113,1650.0,0.0,0.0
1565340149714984505,1550.0,1550.0,1550.0,1550.0,0.0,0.0
1565340149764960755,1550.0,1550.0,1550.0,1550.0,0.0,0.0
1565340149815245391,1550.0,1550.0,1550.0,1550.0,0.0,0.0
1565340149865052005,1550.0,1550.0,1550.0,1550.0,0.0,0.0
1565340149915917578,1550.0,1550.0,1550.0,1550.0,0.0,0.0
1565340149965173359,1550.0,1550.0,1550.0,1550.0,0.0,0.0
1565340150015170339,1550.0,1550.0,1550.0,1550.0,0.0,0.0
1565340150065079870,1550.0,1550.0,1550.0,1550.0,0.0,0.0
1565340150115087943,1550.0,1550.0,1550.0,1550.0,0.0,0.0
1565340150165094141,1550.0,1550.0,1550.0,1550.0,0.0,0.0
1565340150215200755,1550.0,1550.0,1550.0,1550.0,0.0,0.0
1565340150265196901,1550.0,1550.0,1550.0,1550.0,0.0,0.0
1565340150315330599,1550.0,1550.0,1550.0,1550.0,0.0,0.0
1565340150364982161,1550.0,1577.75521874,1589.85869884,1562.1034801,0.0,0.0
1565340150415156068,1550.0,1577.75521874,1589.85869884,1562.1034801,0.0,0.0
1565340150465285390,1550.0,1577.75521874,1589.85869884,1562.1034801,0.0,0.0
1565340150514710807,1550.0,1583.18108916,1621.32810056,1588.1470114,0.0,0.0
1565340150565220338,1550.0,1583.18108916,1621.32810056,1588.1470114,0.0,0.0
1565340150615189609,1550.0,1585.89402437,1631.63853884,1595.74451447,0.0,0.0
1565340150665179140,1550.0,1585.89402437,1631.63853884,1595.74451447,0.0,0.0
1565340150715034713,1550.0,1594.57573593,1656.59786165,1612.02212572,0.0,0.0
1565340150764902734,1550.0,1594.57573593,1656.59786165,1612.02212572,0.0,0.0
1565340150815185078,1550.0,1600.0,1680.47136664,1630.47136664,0.0,0.0
1565340150865531015,1550.0,1600.0,1680.47136664,1630.47136664,0.0,0.0
1565340150915082682,1550.0,1600.0,1680.47136664,1630.47136664,0.0,0.0
1565340150964839869,1550.0,1600.0,1683.72560143,1633.72560143,0.0,0.0
1565340151015153776,1550.0,1600.0,1683.72560143,1633.72560143,0.0,0.0
1565340151065232057,1550.0,1581.55397177,1676.13131404,1644.57734227,0.0,0.0
1565340151115184921,1550.0,1581.55397177,1676.13131404,1644.57734227,0.0,0.0
1565340151165160703,1555.5917941,1573.41516614,1679.00696024,1650.0,0.0,0.0
1565340151215870546,1555.5917941,1573.41516614,1679.00696024,1650.0,0.0,0.0
1565340151265352630,1558.84603113,1550.0,1658.84603113,1650.0,0.0,0.0
1565340151316260651,1558.84603113,1550.0,1658.84603113,1650.0,0.0,0.0
