%time,field.linear.x,field.linear.y,field.linear.z,field.angular.x,field.angular.y,field.angular.z
1565338972582619434,-0.0,-0.0,0.0,0.0,0.0,0.0
1565338972726950892,-0.0,-0.0,0.0,0.0,0.0,0.0
1565338972731212506,-0.0,-0.0,0.0,0.0,0.0,0.0
1565338972733428079,-0.0,-0.0,0.0,0.0,0.0,0.0
1565338972783949746,-0.0,-0.0,0.0,0.0,0.0,0.0
1565338972922248288,-0.0,-0.0,0.0,0.0,0.0,0.0
1565338972925882090,-0.0,-0.0,0.0,0.0,0.0,0.0
1565338972934224277,-0.0,-0.0,0.0,0.0,0.0,0.0
1565338972984301985,-0.0,-0.0,0.0,0.0,0.0,0.0
1565338973035022767,-0.0,-0.0,0.0,0.0,0.0,0.0
1565338973085220631,-0.0,-0.0,0.0,0.0,0.0,0.0
1565338973134882819,-0.0,-0.0,0.0,0.0,0.0,0.0
1565338973185407819,-0.0,-0.0,0.0,0.0,0.0,0.0
1565338973236561360,-0.0,-0.0,0.0,0.0,0.0,0.0
1565338973285951048,-0.0,-0.0,0.0,0.0,0.0,0.0
1565338973335939642,-0.0,-0.0,0.0,0.0,0.0,0.0
1565338973386188183,-0.0,-0.0,0.0,0.0,0.0,0.0
1565338973437047871,-0.0,-0.0,0.0,0.0,0.0,0.0
1565338973488041100,-0.0,-0.0,0.0,0.0,0.0,0.0
1565338973537058287,-0.0,-0.0,0.0,0.0,0.0,0.0
1565338973587197194,-0.0,-0.0,0.0,0.0,0.0,0.0
1565338973638684537,-0.0,-0.0,0.0,0.0,0.0,0.0
1565338973687294954,-0.0,-0.0,0.0,0.0,0.0,0.0
1565338973738382089,-0.0,-0.0,0.0,0.0,0.0,0.0
1565338973789558339,-0.0,-0.0,0.0,0.0,0.0,0.0
1565338973844848704,-0.0,-0.0,0.0,0.0,0.0,0.0
1565338973888349485,-0.0,-0.0,0.0,0.0,0.0,0.0
1565338973938382818,-0.0,-0.0,0.0,0.0,0.0,0.0
1565338973989693860,-0.0,-0.0,0.0,0.0,0.0,0.0
1565338974038736829,-0.0,-0.0,0.0,0.0,0.0,0.0
1565338974089109277,-0.0,-0.0,0.0,0.0,0.0,0.0
1565338974139096725,-0.0,-0.0,0.0,0.0,0.0,0.0
1565338974188703652,-0.0,-0.0,0.0,0.0,0.0,0.0
1565338974239586568,-0.0,-0.0,0.0,0.0,0.0,0.0
1565338974289689381,-0.0,-0.0,0.0,0.0,0.0,0.0
1565338974428814329,0.0993184745312,-0.0,0.0,0.0,0.0,0.0
1565338974532879693,0.294669061899,-0.0,0.0,0.0,0.0,0.0
1565338974656584068,0.403186440468,-0.0,0.0,0.0,0.0,0.0
1565338974764220995,0.446586996317,-0.0,0.0,0.0,0.0,0.0
1565338974868549745,0.663621783257,-0.0,0.0,0.0,0.0,0.0
1565338974976808860,0.815571844578,-0.0,0.0,0.0,0.0,0.0
1565338975080566672,0.804713666439,-0.0,0.0,0.0,0.0,0.0
1565338975192553287,0.804713666439,-0.0,0.0,0.0,0.0,0.0
1565338975317562610,0.91323107481,-0.0,0.0,0.0,0.0,0.0
1565338975433369276,1.0,-0.0,0.0,0.0,0.0,0.0
1565338975483197714,1.0,-0.0,0.0,0.0,0.0,0.0
1565338975533208443,1.0,-0.0,0.0,0.0,0.0,0.0
1565338975584526984,1.0,-0.0,0.0,0.0,0.0,0.0
1565338975633625474,1.0,-0.0,0.0,0.0,0.0,0.0
1565338975684580162,1.0,-0.0,0.0,0.0,0.0,0.0
1565338975737664224,1.0,-0.0,0.0,0.0,0.0,0.0
1565338975784768964,1.0,-0.0,0.0,0.0,0.0,0.0
1565338975843550318,1.0,-0.0,0.0,0.0,0.0,0.0
1565338975886509901,1.0,-0.0,0.0,0.0,0.0,0.0
1565338975934899224,1.0,-0.0,0.0,0.0,0.0,0.0
1565338975985111151,1.0,-0.0,0.0,0.0,0.0,0.0
1565338976035918599,1.0,-0.0,0.0,0.0,0.0,0.0
1565338976085640682,1.0,-0.0,0.0,0.0,0.0,0.0
1565338976135327297,1.0,-0.0,0.0,0.0,0.0,0.0
1565338976185326307,1.0,-0.0,0.0,0.0,0.0,0.0
1565338976235523807,1.0,-0.0,0.0,0.0,0.0,0.0
1565338976285974745,1.0,-0.0,0.0,0.0,0.0,0.0
1565338976335858338,1.0,-0.0,0.0,0.0,0.0,0.0
1565338976386681672,1.0,-0.0,0.0,0.0,0.0,0.0
1565338976437550630,1.0,-0.0,0.0,0.0,0.0,0.0
1565338976488477088,1.0,-0.0,0.0,0.0,0.0,0.0
1565338976572914901,1.0,-0.0,0.0,0.0,0.0,0.0
1565338976590336359,1.0,-0.0,0.0,0.0,0.0,0.0
1565338976637509797,1.0,-0.0,0.0,0.0,0.0,0.0
1565338976687024172,1.0,-0.0,0.0,0.0,0.0,0.0
1565338976805297609,-0.0,-0.0,0.0,0.0,0.0,0.0
1565338976854858651,-0.0,-0.0,0.0,0.0,0.0,0.0
1565338976906302036,-0.0,-0.0,0.0,0.0,0.0,0.0
1565338976955447296,-0.0,-0.0,0.0,0.0,0.0,0.0
1565338977007593130,-0.0,-0.0,0.0,0.0,0.0,0.0
1565338977055817557,-0.0,-0.0,0.0,0.0,0.0,0.0
1565338977105905890,-0.0,-0.0,0.0,0.0,0.0,0.0
1565338977156047036,-0.0,-0.0,0.0,0.0,0.0,0.0
1565338977206449744,-0.0,-0.0,0.0,0.0,0.0,0.0
1565338977256488807,-0.0,-0.0,0.0,0.0,0.0,0.0
1565338977306712348,-0.0,-0.0,0.0,0.0,0.0,0.0
1565338977358818494,-0.0,-0.0,0.0,0.0,0.0,0.0
1565338977408548078,-0.0,-0.0,0.0,0.0,0.0,0.0
1565338977459941567,-0.0,-0.0,0.0,0.0,0.0,0.0
1565338977507711463,-0.0,-0.0,0.0,0.0,0.0,0.0
1565338977580348546,-0.0,-0.0,0.0,0.0,0.0,0.0
1565338977608084588,-0.0,-0.0,0.0,0.0,0.0,0.0
1565338977657689223,-0.0,-0.0,0.0,0.0,0.0,0.0
1565338977708379692,-0.0,-0.0,0.0,0.0,0.0,0.0
1565338977758190109,-0.0,-0.0,0.0,0.0,0.0,0.0
1565338977829747557,-0.0,-0.0,0.0,0.0,0.0,0.0
1565338977871806984,-0.0,-0.0,0.0,0.0,0.0,0.0
1565338977909369171,-0.0,-0.0,0.0,0.0,0.0,0.0
1565338977959400473,-0.0,-0.0,0.0,0.0,0.0,0.0
1565338978009634119,-0.0,-0.0,0.0,0.0,0.0,0.0
1565338978059021359,-0.0,-0.0,0.0,0.0,0.0,0.0
1565338978109656723,-0.0,-0.0,0.0,0.0,0.0,0.0
1565338978159483077,-0.0,-0.0,0.0,0.0,0.0,0.0
1565338978210112765,-0.0,-0.0,0.0,0.0,0.0,0.0
1565338978260585994,-0.0,-0.0,0.0,0.0,0.0,0.0
1565338978310767504,-0.0,-0.0,0.0,0.0,0.0,0.0
1565338978360274796,-0.0,-0.0,0.0,0.0,0.0,0.0
1565338978411690160,-0.0,-0.0,0.0,0.0,0.0,0.0
1565338978461244744,-0.0,-0.0,0.0,0.0,0.0,0.0
1565338978511534015,-0.0,-0.0,0.0,0.0,0.0,0.0
1565338978561491410,-0.0,-0.0,0.0,0.0,0.0,0.0
1565338978705466671,0.00165924313478,-0.0,0.0,0.0,0.0,0.0
1565338978755286150,0.00165924313478,-0.0,0.0,0.0,0.0,0.0
1565338978893175369,0.229552194476,-0.0,0.0,0.0,0.0,0.0
1565338978997198077,0.555104374886,0.0124852824956,0.0,0.0,0.0,0.0
1565338979107573181,1.0,0.24037823081,0.0,0.0,0.0,0.0
1565338979204468910,1.0,0.251236408949,0.0,0.0,0.0,0.0
1565338979254241879,1.0,0.251236408949,0.0,0.0,0.0,0.0
1565338979305155733,1.0,0.251236408949,0.0,0.0,0.0,0.0
1565338979355549171,1.0,0.251236408949,0.0,0.0,0.0,0.0
1565338979497044952,0.305495113134,-0.0,0.0,0.0,0.0,0.0
1565338979601218129,-0.0,-0.0,0.0,0.0,0.0,0.0
1565338979652023702,-0.0,-0.0,0.0,0.0,0.0,0.0
1565338979702368806,-0.0,-0.0,0.0,0.0,0.0,0.0
1565338979759203650,-0.0,-0.0,0.0,0.0,0.0,0.0
1565338979815106150,-0.0,-0.0,0.0,0.0,0.0,0.0
1565338979857911931,-0.0,-0.0,0.0,0.0,0.0,0.0
1565338979901165629,-0.0,-0.0,0.0,0.0,0.0,0.0
1565338979951720264,-0.0,-0.0,0.0,0.0,0.0,0.0
1565338980001994066,-0.0,-0.0,0.0,0.0,0.0,0.0
1565338980051931045,-0.0,-0.0,0.0,0.0,0.0,0.0
1565338980102221566,-0.0,-0.0,0.0,0.0,0.0,0.0
1565338980152413076,-0.0,-0.0,0.0,0.0,0.0,0.0
1565338980202613129,-0.0,-0.0,0.0,0.0,0.0,0.0
1565338980252442920,-0.0,-0.0,0.0,0.0,0.0,0.0
1565338980303620160,-0.0,-0.0,0.0,0.0,0.0,0.0
1565338980353244326,-0.0,-0.0,0.0,0.0,0.0,0.0
1565338980402853285,-0.0,-0.0,0.0,0.0,0.0,0.0
1565338980453072816,-0.0,-0.0,0.0,0.0,0.0,0.0
1565338980503791670,-0.0,-0.0,0.0,0.0,0.0,0.0
1565338980553722087,-0.0,-0.0,0.0,0.0,0.0,0.0
1565338980603966305,-0.0,-0.0,0.0,0.0,0.0,0.0
1565338980749133337,0.207835868001,-0.0,0.0,0.0,0.0,0.0
1565338980855584066,0.370611965656,-0.0,0.0,0.0,0.0,0.0
1565338980984613701,0.533388078213,-0.0,0.0,0.0,0.0,0.0
1565338981089111774,0.565962553024,-0.0,0.0,0.0,0.0,0.0
1565338981233135628,0.641937553883,-0.0,0.0,0.0,0.0,0.0
1565338981336467295,0.685338079929,-0.0,0.0,0.0,0.0,0.0
1565338981440459691,0.685338079929,-0.0,0.0,0.0,0.0,0.0
1565338981544506982,0.707054436207,-0.0,0.0,0.0,0.0,0.0
1565338981669799534,0.815571844578,-0.0,0.0,0.0,0.0,0.0
1565338981772512607,0.815571844578,-0.0,0.0,0.0,0.0,0.0
1565338981916792763,0.858972370625,-0.0,0.0,0.0,0.0,0.0
1565338982020397086,0.945773422718,-0.0,0.0,0.0,0.0,0.0
1565338982132986044,1.0,-0.0,0.0,0.0,0.0,0.0
1565338982182489586,1.0,-0.0,0.0,0.0,0.0,0.0
1565338982232748440,1.0,-0.0,0.0,0.0,0.0,0.0
1565338982352809378,-0.0,-0.0,0.0,0.0,0.0,0.0
1565338982403391565,-0.0,-0.0,0.0,0.0,0.0,0.0
1565338982453268857,-0.0,-0.0,0.0,0.0,0.0,0.0
1565338982505455784,-0.0,-0.0,0.0,0.0,0.0,0.0
1565338982553452294,-0.0,-0.0,0.0,0.0,0.0,0.0
1565338982603786878,-0.0,-0.0,0.0,0.0,0.0,0.0
1565338982653989169,-0.0,-0.0,0.0,0.0,0.0,0.0
1565338982706373805,-0.0,-0.0,0.0,0.0,0.0,0.0
1565338982754028284,-0.0,-0.0,0.0,0.0,0.0,0.0
1565338982803967919,-0.0,-0.0,0.0,0.0,0.0,0.0
1565338982854166669,-0.0,-0.0,0.0,0.0,0.0,0.0
1565338982904536825,-0.0,-0.0,0.0,0.0,0.0,0.0
1565338982954998596,-0.0,-0.0,0.0,0.0,0.0,0.0
1565338983005709950,-0.0,-0.0,0.0,0.0,0.0,0.0
1565338983055138857,-0.0,-0.0,0.0,0.0,0.0,0.0
1565338983107909534,-0.0,-0.0,0.0,0.0,0.0,0.0
1565338983155964221,-0.0,-0.0,0.0,0.0,0.0,0.0
1565338983205897502,-0.0,-0.0,0.0,0.0,0.0,0.0
1565338983255998700,-0.0,-0.0,0.0,0.0,0.0,0.0
1565338983316926409,-0.0,-0.0,0.0,0.0,0.0,0.0
1565338983364013700,-0.0,-0.0,0.0,0.0,0.0,0.0
1565338983406705992,-0.0,-0.0,0.0,0.0,0.0,0.0
1565338983456708231,-0.0,-0.0,0.0,0.0,0.0,0.0
1565338983507488127,-0.0,-0.0,0.0,0.0,0.0,0.0
1565338983557131252,-0.0,-0.0,0.0,0.0,0.0,0.0
1565338983607843231,-0.0,-0.0,0.0,0.0,0.0,0.0
1565338983749174794,-0.0,-0.0,0.0,0.0,0.0,0.103901870549
1565338983866455731,-0.0,-0.0,0.0,0.0,0.0,0.223277434707
1565338983957924221,-0.0,-0.0,0.0,0.0,0.0,0.304665476084
1565338984060562606,-0.0,-0.0,0.0,0.0,0.0,0.337223917246
1565338984165072971,-0.0,-0.0,0.0,0.0,0.0,0.358924180269
1565338984272905992,-0.0,-0.0,0.0,0.0,0.0,0.364353269339
1565338984387307242,-0.0,-0.0,0.0,0.0,0.0,0.0
1565338984427673908,-0.0,-0.0,0.0,0.0,0.0,0.0
1565338984477300991,-0.0,-0.0,0.0,0.0,0.0,0.0
1565338984527541356,-0.0,-0.0,0.0,0.0,0.0,0.0
1565338984578186616,-0.0,-0.0,0.0,0.0,0.0,0.0
1565338984627995627,-0.0,-0.0,0.0,0.0,0.0,0.0
1565338984677595627,-0.0,-0.0,0.0,0.0,0.0,0.0
1565338984728024585,-0.0,-0.0,0.0,0.0,0.0,0.0
1565338984778290627,-0.0,-0.0,0.0,0.0,0.0,0.0
1565338984828464846,-0.0,-0.0,0.0,0.0,0.0,0.0
1565338984879372137,-0.0,-0.0,0.0,0.0,0.0,0.0
1565338984930292189,-0.0,-0.0,0.0,0.0,0.0,0.0
1565338984982498908,-0.0,-0.0,0.0,0.0,0.0,0.0
1565338985029702814,-0.0,-0.0,0.0,0.0,0.0,0.0
1565338985079375210,-0.0,-0.0,0.0,0.0,0.0,0.0
1565338985129783335,-0.0,-0.0,0.0,0.0,0.0,0.0
1565338985180573075,-0.0,-0.0,0.0,0.0,0.0,0.0
1565338985229963283,-0.0,-0.0,0.0,0.0,0.0,0.0
1565338985279914116,-0.0,-0.0,0.0,0.0,0.0,0.0
1565338985330038960,-0.0,-0.0,0.0,0.0,0.0,0.0
1565338985381008595,-0.0,-0.0,0.0,0.0,0.0,0.0
1565338985430589064,-0.0,-0.0,0.0,0.0,0.0,0.0
1565338985481263179,-0.0,-0.0,0.0,0.0,0.0,0.0
1565338985531500783,-0.0,-0.0,0.0,0.0,0.0,0.0
1565338985606397918,-0.0,-0.0,0.0,0.0,0.0,0.0
1565338985631443179,-0.0,-0.0,0.0,0.0,0.0,0.0
1565338985681624897,-0.0,-0.0,0.0,0.0,0.0,0.0
1565338985736623283,-0.0,-0.0,0.0,0.0,0.0,0.0
1565338985782281981,-0.0,-0.0,0.0,0.0,0.0,0.0
1565338985843611564,-0.0,-0.0,0.0,0.0,0.0,0.0
1565338985882585001,-0.0,-0.0,0.0,0.0,0.0,0.0
1565338985932703543,-0.0,-0.0,0.0,0.0,0.0,0.0
1565338985994360106,-0.0,-0.0,0.0,0.0,0.0,0.0
1565338986033462814,-0.0,-0.0,0.0,0.0,0.0,0.0
1565338986083596408,-0.0,-0.0,0.0,0.0,0.0,0.0
1565338986133813803,-0.0,-0.0,0.0,0.0,0.0,0.0
1565338986184289533,-0.0,-0.0,0.0,0.0,0.0,0.0
1565338986234093699,-0.0,-0.0,0.0,0.0,0.0,0.0
1565338986285062970,-0.0,-0.0,0.0,0.0,0.0,0.0
1565338986334599897,-0.0,-0.0,0.0,0.0,0.0,0.0
1565338986385255939,-0.0,-0.0,0.0,0.0,0.0,0.0
1565338986435173751,-0.0,-0.0,0.0,0.0,0.0,0.0
1565338986487532084,-0.0,-0.0,0.0,0.0,0.0,0.0
1565338986535263647,-0.0,-0.0,0.0,0.0,0.0,0.0
1565338986585540105,-0.0,-0.0,0.0,0.0,0.0,0.0
1565338986635654168,-0.0,-0.0,0.0,0.0,0.0,0.0
1565338986685892136,-0.0,-0.0,0.0,0.0,0.0,0.0
1565338986735904949,-0.0,-0.0,0.0,0.0,0.0,0.0
1565338986787090886,-0.0,-0.0,0.0,0.0,0.0,0.0
1565338986836338543,-0.0,-0.0,0.0,0.0,0.0,0.0
1565338986886813126,-0.0,-0.0,0.0,0.0,0.0,0.0
1565338986936955470,-0.0,-0.0,0.0,0.0,0.0,0.0
1565338987052783074,-0.131828710437,-0.0,0.0,0.0,0.0,0.0
1565338987161143178,-0.251204282045,-0.0,0.0,0.0,0.0,0.0
1565338987296791980,-0.283778756857,-0.0,0.0,0.0,0.0,0.0
1565338987401011199,-0.500813543797,-0.0,0.0,0.0,0.0,0.0
1565338987508483074,-0.576788604259,-0.0,0.0,0.0,0.0,0.0
1565338987656625782,-0.576788604259,-0.0,0.0,0.0,0.0,0.0
1565338987773099844,-0.576788604259,-0.0,0.0,0.0,0.0,0.0
1565338987832522917,-0.576788604259,-0.0,0.0,0.0,0.0,0.0
1565338987879752032,-0.576788604259,-0.0,0.0,0.0,0.0,0.0
1565338987922876407,-0.576788604259,-0.0,0.0,0.0,0.0,0.0
1565338987973402448,-0.576788604259,-0.0,0.0,0.0,0.0,0.0
1565338988023593178,-0.576788604259,-0.0,0.0,0.0,0.0,0.0
1565338988073923230,-0.576788604259,-0.0,0.0,0.0,0.0,0.0
1565338988126325365,-0.576788604259,-0.0,0.0,0.0,0.0,0.0
1565338988233586771,-0.576788604259,-0.0,0.0,0.0,0.0,0.0
1565338988283363282,-0.576788604259,-0.0,0.0,0.0,0.0,0.0
1565338988334206667,-0.576788604259,-0.0,0.0,0.0,0.0,0.0
1565338988383557865,-0.576788604259,-0.0,0.0,0.0,0.0,0.0
1565338988433705990,-0.576788604259,-0.0,0.0,0.0,0.0,0.0
1565338988483817605,-0.576788604259,-0.0,0.0,0.0,0.0,0.0
1565338988616674792,-0.576788604259,-0.0,0.0,0.0,0.0,0.0
1565338988667028229,-0.576788604259,-0.0,0.0,0.0,0.0,0.0
1565338988717499167,-0.576788604259,-0.0,0.0,0.0,0.0,0.0
1565338988768911771,-0.576788604259,-0.0,0.0,0.0,0.0,0.0
1565338988820262396,-0.576788604259,-0.0,0.0,0.0,0.0,0.0
1565338988870156563,-0.576788604259,-0.0,0.0,0.0,0.0,0.0
1565338988988697240,-0.576788604259,-0.0,0.0,0.0,0.0,0.0
1565338989128978854,-0.576788604259,-0.0,0.0,0.0,0.0,0.0
1565338989245205365,-0.565930426121,-0.0,0.0,0.0,0.0,0.0
1565338989294220781,-0.565930426121,-0.0,0.0,0.0,0.0,0.0
1565338989408943594,-0.48995539546,-0.0,0.0,0.0,0.0,0.0
1565338989513849844,-0.45741301775,-0.0,0.0,0.0,0.0,0.0
1565338989563348698,-0.45741301775,-0.0,0.0,0.0,0.0,0.0
1565338989700944583,-0.587646722794,-0.0,0.0,0.0,0.0,0.0
1565338989823961406,-0.598472774029,-0.0,0.0,0.0,0.0,0.0
1565338989870877656,-0.598472774029,-0.0,0.0,0.0,0.0,0.0
1565338989921467708,-0.598472774029,-0.0,0.0,0.0,0.0,0.0
1565338989971307083,-0.598472774029,-0.0,0.0,0.0,0.0,0.0
1565338990024681875,-0.598472774029,-0.0,0.0,0.0,0.0,0.0
1565338990071852656,-0.598472774029,-0.0,0.0,0.0,0.0,0.0
1565338990122417812,-0.598472774029,-0.0,0.0,0.0,0.0,0.0
1565338990174708906,-0.598472774029,-0.0,0.0,0.0,0.0,0.0
1565338990223203646,-0.598472774029,-0.0,0.0,0.0,0.0,0.0
1565338990273196979,-0.598472774029,-0.0,0.0,0.0,0.0,0.0
1565338990322850573,-0.598472774029,-0.0,0.0,0.0,0.0,0.0
1565338990373232395,-0.598472774029,-0.0,0.0,0.0,0.0,0.0
1565338990423556718,-0.598472774029,-0.0,0.0,0.0,0.0,0.0
1565338990473629375,-0.598472774029,-0.0,0.0,0.0,0.0,0.0
1565338990616314531,-0.576788604259,-0.0,0.0,0.0,0.0,0.0
1565338990663625989,-0.576788604259,-0.0,0.0,0.0,0.0,0.0
1565338990717362031,-0.576788604259,-0.0,0.0,0.0,0.0,0.0
1565338990821226041,-0.0,-0.0,0.0,0.0,0.0,0.0
1565338990871190989,-0.0,-0.0,0.0,0.0,0.0,0.0
1565338990921752708,-0.0,-0.0,0.0,0.0,0.0,0.0
1565338990971396302,-0.0,-0.0,0.0,0.0,0.0,0.0
1565338991021437916,-0.0,-0.0,0.0,0.0,0.0,0.0
1565338991071586093,-0.0,-0.0,0.0,0.0,0.0,0.0
1565338991122342499,-0.0,-0.0,0.0,0.0,0.0,0.0
1565338991245263593,-0.0,-0.0,0.0,0.0,0.0,0.0170847438276
1565338991388902447,-0.0,-0.0,0.0,0.0,0.0,0.0387850105762
1565338991501837708,-0.0,-0.0,0.0,0.0,0.0,0.0930437073112
1565338991606474739,-0.0,-0.0,0.0,0.0,0.0,0.0984727889299
1565338991650907135,-0.0,-0.0,0.0,0.0,0.0,0.0984727889299
1565338991701083697,-0.0,-0.0,0.0,0.0,0.0,0.0984727889299
1565338991839436145,-0.0,-0.0,0.0,0.0,0.0,0.169018730521
1565338991944848437,-0.0,-0.0,0.0,0.0,0.0,0.196148082614
1565338992080595416,-0.0,-0.0,0.0,0.0,0.0,0.201577171683
1565338992131160520,-0.0,-0.0,0.0,0.0,0.0,0.201577171683
1565338992269398436,-0.0,-0.0,0.0,0.0,0.0,0.109330952168
1565338992380556926,-0.0,-0.0,0.0,0.0,0.0,0.0
1565338992428373488,-0.0,-0.0,0.0,0.0,0.0,0.0
1565338992477338801,-0.0,-0.0,0.0,0.0,0.0,0.0
1565338992528968228,-0.0,-0.0,0.0,0.0,0.0,0.0
1565338992577841613,-0.0,-0.0,0.0,0.0,0.0,0.0
1565338992627895676,-0.0,-0.0,0.0,0.0,0.0,0.0
1565338992678345676,-0.0,-0.0,0.0,0.0,0.0,0.0
1565338992728233853,-0.0,-0.0,0.0,0.0,0.0,0.0
1565338992778737603,-0.0,-0.0,0.0,0.0,0.0,0.0
1565338992828567030,-0.0,-0.0,0.0,0.0,0.0,0.0
1565338992878376509,-0.0,-0.0,0.0,0.0,0.0,0.0
1565338992929533228,-0.0,-0.0,0.0,0.0,0.0,0.0
1565338992980542863,-0.0,-0.0,0.0,0.0,0.0,0.0
1565338993105361092,-0.121002674103,-0.0,0.0,0.0,0.0,0.0
1565338993209118592,-0.164403215051,-0.0,0.0,0.0,0.0,0.0
1565338993259501978,-0.164403215051,-0.0,0.0,0.0,0.0,0.0
1565338993310022655,-0.164403215051,-0.0,0.0,0.0,0.0,0.0
1565338993358976509,-0.164403215051,-0.0,0.0,0.0,0.0,0.0
1565338993409599269,-0.164403215051,-0.0,0.0,0.0,0.0,0.0
1565338993459478853,-0.164403215051,-0.0,0.0,0.0,0.0,0.0
1565338993510037915,-0.164403215051,-0.0,0.0,0.0,0.0,0.0
1565338993559976821,-0.164403215051,-0.0,0.0,0.0,0.0,0.0
1565338993666036978,-0.186087414622,-0.0,0.0,0.0,0.0,0.0
1565338993715343228,-0.186087414622,-0.0,0.0,0.0,0.0,0.0
1565338993855095988,-0.283778756857,-0.0,0.0,0.0,0.0,0.0
1565338993953091977,-0.294636934996,-0.0,0.0,0.0,0.0,0.0
1565338994060659061,-0.424838542938,-0.0,0.0,0.0,0.0,0.0
1565338994167563227,-0.685305953026,-0.0,0.0,0.0,0.0,0.0
1565338994297402915,-0.674447834492,-0.0,0.0,0.0,0.0,0.0
1565338994348301873,-0.674447834492,-0.0,0.0,0.0,0.0,0.0
1565338994397303019,-0.674447834492,-0.0,0.0,0.0,0.0,0.0
1565338994505285102,-0.609330952168,-0.0,0.0,0.0,0.0,0.0
1565338994609469686,-0.565930426121,-0.0,0.0,0.0,0.0,0.0
1565338994714213383,-0.403154343367,-0.0,0.0,0.0,0.0,0.0
1565338994763407185,-0.403154343367,-0.0,0.0,0.0,0.0,0.0
1565338994813667810,-0.403154343367,-0.0,0.0,0.0,0.0,0.0
1565338994944811821,-0.424838542938,-0.0,0.0,0.0,0.0,0.0
1565338995049276560,-0.424838542938,-0.0,0.0,0.0,0.0,0.0
1565338995153005935,-0.424838542938,-0.0,0.0,0.0,0.0,0.0
1565338995268872914,-0.446554869413,-0.0,0.0,0.0,0.0,0.0
1565338995373640102,-0.435696691275,-0.0,0.0,0.0,0.0,0.0
1565338995481495571,-0.435696691275,-0.0,0.0,0.0,0.0,0.0
1565338995531666456,-0.435696691275,-0.0,0.0,0.0,0.0,0.0
1565338995581441716,-0.435696691275,-0.0,0.0,0.0,0.0,0.0
1565338995631419321,-0.435696691275,-0.0,0.0,0.0,0.0,0.0
1565338995681819998,-0.435696691275,-0.0,0.0,0.0,0.0,0.0
1565338995837505206,-0.446554869413,-0.0,0.0,0.0,0.0,0.0
1565338995957092445,-0.435696691275,-0.0,0.0,0.0,0.0,0.0
1565338996006782758,-0.435696691275,-0.0,0.0,0.0,0.0,0.0
1565338996056754581,-0.435696691275,-0.0,0.0,0.0,0.0,0.0
1565338996107158539,-0.435696691275,-0.0,0.0,0.0,0.0,0.0
1565338996225066820,-0.446554869413,-0.0,0.0,0.0,0.0,0.0
1565338996328801299,-0.435696691275,-0.0,0.0,0.0,0.0,0.0
1565338996433085883,-0.435696691275,-0.0,0.0,0.0,0.0,0.0
1565338996483114424,-0.435696691275,-0.0,0.0,0.0,0.0,0.0
1565338996533382289,-0.435696691275,-0.0,0.0,0.0,0.0,0.0
1565338996614075674,-0.435696691275,-0.0,0.0,0.0,0.0,0.0
1565338996634983591,-0.435696691275,-0.0,0.0,0.0,0.0,0.0
1565338996750181195,-0.446554869413,-0.0,0.0,0.0,0.0,0.0
1565338996856819476,-0.435696691275,-0.0,0.0,0.0,0.0,0.0
1565338996965929737,-0.435696691275,-0.0,0.0,0.0,0.0,0.0
1565338997030232705,-0.435696691275,-0.0,0.0,0.0,0.0,0.0
1565338997065700830,-0.435696691275,-0.0,0.0,0.0,0.0,0.0
1565338997173163382,-0.446554869413,-0.0,0.0,0.0,0.0,0.0
1565338997281215101,-0.446554869413,-0.0,0.0,0.0,0.0,0.0
1565338997385266455,-0.435696691275,-0.0,0.0,0.0,0.0,0.0
1565338997435290414,-0.435696691275,-0.0,0.0,0.0,0.0,0.0
1565338997560230882,-0.446554869413,-0.0,0.0,0.0,0.0,0.0
1565338997653088695,-0.435696691275,-0.0,0.0,0.0,0.0,0.0
1565338997778215934,-0.446554869413,-0.0,0.0,0.0,0.0,0.0
1565338997905568174,-0.446554869413,-0.0,0.0,0.0,0.0,0.0
1565338998009882913,-0.435696691275,-0.0,0.0,0.0,0.0,0.0
1565338998121377080,-0.446554869413,-0.0,0.0,0.0,0.0,0.0
1565338998294881559,-0.435696691275,-0.0,0.0,0.0,0.0,0.0
1565338998319002965,-0.435696691275,-0.0,0.0,0.0,0.0,0.0
1565338998370128434,-0.435696691275,-0.0,0.0,0.0,0.0,0.0
1565338998419558799,-0.435696691275,-0.0,0.0,0.0,0.0,0.0
1565338998470390622,-0.435696691275,-0.0,0.0,0.0,0.0,0.0
1565338998594031819,-0.446554869413,-0.0,0.0,0.0,0.0,0.0
1565338998728987444,-0.435696691275,-0.0,0.0,0.0,0.0,0.0
1565338998837193799,-0.435696691275,-0.0,0.0,0.0,0.0,0.0
1565338998950006715,-0.435696691275,-0.0,0.0,0.0,0.0,0.0
1565338999052864007,-0.446554869413,-0.0,0.0,0.0,0.0,0.0
1565338999104484111,-0.446554869413,-0.0,0.0,0.0,0.0,0.0
1565338999253406298,-0.435696691275,-0.0,0.0,0.0,0.0,0.0
1565338999304769475,-0.435696691275,-0.0,0.0,0.0,0.0,0.0
1565338999354193017,-0.435696691275,-0.0,0.0,0.0,0.0,0.0
1565338999404134840,-0.435696691275,-0.0,0.0,0.0,0.0,0.0
1565338999529775777,-0.435696691275,-0.0,0.0,0.0,0.0,0.0
1565338999646426038,-0.435696691275,-0.0,0.0,0.0,0.0,0.0
1565338999697238329,-0.435696691275,-0.0,0.0,0.0,0.0,0.0
1565338999826507913,-0.45741301775,-0.0,0.0,0.0,0.0,0.0
1565338999940987392,-0.446554869413,-0.0,0.0,0.0,0.0,0.0
1565339000046733381,-0.45741301775,-0.0,0.0,0.0,0.0,0.0
1565339000149547808,-0.924057126045,-0.0,0.0,0.0,0.0,0.0
1565339000252805933,-0.989173948765,-0.0,0.0,0.0,0.0,0.0
1565339000366178381,-1.0,-0.0,0.0,0.0,0.0,0.0
1565339000414970100,-1.0,-0.0,0.0,0.0,0.0,0.0
1565339000465299371,-1.0,-0.0,0.0,0.0,0.0,0.0
1565339000516550517,-1.0,-0.0,0.0,0.0,0.0,0.0
1565339000565360412,-1.0,-0.0,0.0,0.0,0.0,0.0
1565339000615659527,-1.0,-0.0,0.0,0.0,0.0,0.0
1565339000666154735,-1.0,-0.0,0.0,0.0,0.0,0.0
1565339000717871454,-1.0,-0.0,0.0,0.0,0.0,0.0
1565339000766006037,-1.0,-0.0,0.0,0.0,0.0,0.0
1565339000815993329,-1.0,-0.0,0.0,0.0,0.0,0.0
1565339000866395881,-1.0,-0.0,0.0,0.0,0.0,0.0
1565339000917814683,-1.0,-0.0,0.0,0.0,0.0,0.0
1565339000966999110,-1.0,-0.0,0.0,0.0,0.0,0.0
1565339001017188016,-1.0,-0.0,0.0,0.0,0.0,0.0
1565339001068252860,-1.0,-0.0,0.0,0.0,0.0,0.0
1565339001118110933,-1.0,-0.0,0.0,0.0,0.0,0.0
1565339001168071871,-1.0,-0.0,0.0,0.0,0.0,0.0
1565339001218853173,-1.0,-0.0,0.0,0.0,0.0,0.0
1565339001269442860,-1.0,-0.0,0.0,0.0,0.0,0.0
1565339001318609579,-1.0,-0.0,0.0,0.0,0.0,0.0
1565339001368275881,-1.0,-0.0,0.0,0.0,0.0,0.0
1565339001418983850,-1.0,-0.0,0.0,0.0,0.0,0.0
1565339001469214318,-1.0,-0.0,0.0,0.0,0.0,0.0
1565339001519077391,-1.0,-0.0,0.0,0.0,0.0,0.0
1565339001588923537,-1.0,-0.0,0.0,0.0,0.0,0.0
1565339001619248120,-1.0,-0.0,0.0,0.0,0.0,0.0
1565339001669414683,-1.0,-0.0,0.0,0.0,0.0,0.0
1565339001773639631,-0.0,-0.0,0.0,0.0,0.0,0.0
1565339001828173797,-0.0,-0.0,0.0,0.0,0.0,0.0
1565339001873660256,-0.0,-0.0,0.0,0.0,0.0,0.0
1565339001923468693,-0.0,-0.0,0.0,0.0,0.0,0.0
1565339001974612079,-0.0,-0.0,0.0,0.0,0.0,0.0
1565339002024447912,-0.0,-0.0,0.0,0.0,0.0,0.0
1565339002074655933,-0.0,-0.0,0.0,0.0,0.0,0.0
1565339002150388016,-0.0,-0.0,0.0,0.0,0.0,0.0
1565339002174537026,-0.0,-0.0,0.0,0.0,0.0,0.0
1565339002225590047,-0.0,-0.0,0.0,0.0,0.0,0.0
1565339002275655881,-0.0,-0.0,0.0,0.0,0.0,0.0
1565339002327518381,-0.0,-0.0,0.0,0.0,0.0,0.0
1565339002375675933,-0.0,-0.0,0.0,0.0,0.0,0.0
1565339002425381453,-0.0,-0.0,0.0,0.0,0.0,0.0
1565339002476766714,-0.0,-0.0,0.0,0.0,0.0,0.0
1565339002526142287,-0.0,-0.0,0.0,0.0,0.0,0.0
1565339002576397860,-0.0,-0.0,0.0,0.0,0.0,0.0
1565339002644414318,-0.0,-0.0,0.0,0.0,0.0,0.0
1565339002676133328,-0.0,-0.0,0.0,0.0,0.0,0.0
1565339002726362860,-0.0,-0.0,0.0,0.0,0.0,0.0
1565339002777190932,-0.0,-0.0,0.0,0.0,0.0,0.0
1565339002826914318,-0.0,-0.0,0.0,0.0,0.0,0.0
1565339002877353849,-0.0,-0.0,0.0,0.0,0.0,0.0
1565339002927733432,-0.0,-0.0,0.0,0.0,0.0,0.0
1565339002978015464,-0.0,-0.0,0.0,0.0,0.0,0.0
1565339003027758693,-0.0,-0.0,0.0,0.0,0.0,0.0
1565339003078194005,-0.0,-0.0,0.0,0.0,0.0,0.0
1565339003128723797,-0.0,-0.0,0.0,0.0,0.0,0.0
1565339003180055151,-0.0,-0.0,0.0,0.0,0.0,0.0
1565339003229048901,-0.0,-0.0,0.0,0.0,0.0,0.0
1565339003282677547,-0.0,-0.0,0.0,0.0,0.0,0.0
1565339003329740984,-0.0,-0.0,0.0,0.0,0.0,0.0
1565339003380021818,-0.0,-0.0,0.0,0.0,0.0,0.0
1565339003429888745,-0.0,-0.0,0.0,0.0,0.0,0.0
1565339003480001088,-0.0,-0.0,0.0,0.0,0.0,0.0
1565339003530292443,-0.0,-0.0,0.0,0.0,0.0,0.0
1565339003580699422,-0.0,-0.0,0.0,0.0,0.0,0.0
1565339003630376974,-0.0,-0.0,0.0,0.0,0.0,0.0
1565339003680994630,-0.0,-0.0,0.0,0.0,0.0,0.0
1565339003730894682,-0.0,-0.0,0.0,0.0,0.0,0.0
1565339003781679630,-0.0,-0.0,0.0,0.0,0.0,0.0
1565339003836541036,-0.0,-0.0,0.0,0.0,0.0,0.0
1565339003886327911,-0.0,-0.0,0.0,0.0,0.0,0.0
1565339003931569369,-0.0,-0.0,0.0,0.0,0.0,0.0
1565339003981323224,-0.0,-0.0,0.0,0.0,0.0,0.0
1565339004032385203,-0.0,-0.0,0.0,0.0,0.0,0.0
1565339004081904161,-0.0,-0.0,0.0,0.0,0.0,0.0
1565339004132338484,-0.0,-0.0,0.0,0.0,0.0,0.0
1565339004181904057,-0.0,-0.0,0.0,0.0,0.0,0.0
1565339004232491192,-0.0,-0.0,0.0,0.0,0.0,0.0
1565339004282604005,-0.0,-0.0,0.0,0.0,0.0,0.0
1565339004333548796,-0.0,-0.0,0.0,0.0,0.0,0.0
1565339004383376713,-0.0,-0.0,0.0,0.0,0.0,0.0
1565339004435398276,-0.0,-0.0,0.0,0.0,0.0,0.0
1565339004483769421,-0.0,-0.0,0.0,0.0,0.0,0.0
1565339004533558119,-0.0,-0.0,0.0,0.0,0.0,0.0
1565339004584175984,-0.0,-0.0,0.0,0.0,0.0,0.0
1565339004633904057,-0.0,-0.0,0.0,0.0,0.0,0.0
1565339004710741505,-0.0,-0.0,0.0,0.0,0.0,0.0
1565339004734675932,-0.0,-0.0,0.0,0.0,0.0,0.0
1565339004785985255,-0.0,-0.0,0.0,0.0,0.0,0.0
1565339004835118119,-0.0,-0.0,0.0,0.0,0.0,0.0
1565339004885608067,-0.0,-0.0,0.0,0.0,0.0,0.0
1565339004936891296,-0.0,-0.0,0.0,0.0,0.0,0.0
1565339004987783692,-0.0,-0.0,0.0,0.0,0.0,0.0
1565339005035517390,-0.0,-0.0,0.0,0.0,0.0,0.0
1565339005085718640,-0.0,-0.0,0.0,0.0,0.0,0.0
1565339005136025827,-0.0,-0.0,0.0,0.0,0.0,0.0
1565339005186104473,-0.0,-0.0,0.0,0.0,0.0,0.0
1565339005317427129,0.0667439773679,-0.0,0.0,0.0,0.0,0.0
1565339005367672650,0.0667439773679,-0.0,0.0,0.0,0.0,0.0
1565339005418055046,0.0667439773679,-0.0,0.0,0.0,0.0,0.0
1565339005468282129,0.0667439773679,-0.0,0.0,0.0,0.0,0.0
1565339005599309577,0.435728818178,-0.0,0.0,0.0,0.0,0.0
1565339005701156400,0.468303322792,-0.0,0.0,0.0,0.0,0.0
1565339005858659785,0.479129344225,-0.0,0.0,0.0,0.0,0.0
1565339005899981244,0.479129344225,-0.0,0.0,0.0,0.0,0.0
1565339006015097546,0.479129344225,-0.0,0.0,0.0,0.0,0.0
1565339006132978848,0.511703848839,-0.0,0.0,0.0,0.0,0.0
1565339006183822702,0.511703848839,-0.0,0.0,0.0,0.0,0.0
1565339006289714837,0.641937553883,-0.0,0.0,0.0,0.0,0.0
1565339006421392910,0.652763605118,-0.0,0.0,0.0,0.0,0.0
1565339006553276660,0.641937553883,-0.0,0.0,0.0,0.0,0.0
1565339006603806035,0.641937553883,-0.0,0.0,0.0,0.0,0.0
1565339006653637181,0.641937553883,-0.0,0.0,0.0,0.0,0.0
1565339006704592077,0.641937553883,-0.0,0.0,0.0,0.0,0.0
1565339006753748118,0.641937553883,-0.0,0.0,0.0,0.0,0.0
1565339006804129733,0.641937553883,-0.0,0.0,0.0,0.0,0.0
1565339006854178327,0.641937553883,-0.0,0.0,0.0,0.0,0.0
1565339006904999889,0.641937553883,-0.0,0.0,0.0,0.0,0.0
1565339006954244681,0.641937553883,-0.0,0.0,0.0,0.0,0.0
1565339007061086816,0.641937553883,-0.0,0.0,0.0,0.0,0.0
1565339007112005150,0.641937553883,-0.0,0.0,0.0,0.0,0.0
1565339007161649889,0.641937553883,-0.0,0.0,0.0,0.0,0.0
1565339007212597389,0.641937553883,-0.0,0.0,0.0,0.0,0.0
1565339007267173587,0.641937553883,-0.0,0.0,0.0,0.0,0.0
1565339007313041191,0.641937553883,-0.0,0.0,0.0,0.0,0.0
1565339007362986764,0.641937553883,-0.0,0.0,0.0,0.0,0.0
1565339007412363743,0.641937553883,-0.0,0.0,0.0,0.0,0.0
1565339007525785410,0.641937553883,-0.0,0.0,0.0,0.0,0.0
1565339007630399472,0.631079435349,-0.0,0.0,0.0,0.0,0.0
1565339007733110931,0.641937553883,-0.0,0.0,0.0,0.0,0.0
1565339007783331764,0.641937553883,-0.0,0.0,0.0,0.0,0.0
1565339007840348118,0.641937553883,-0.0,0.0,0.0,0.0,0.0
1565339007884583795,0.641937553883,-0.0,0.0,0.0,0.0,0.0
1565339007933752389,0.641937553883,-0.0,0.0,0.0,0.0,0.0
1565339008077777649,0.631079435349,-0.0,0.0,0.0,0.0,0.0
1565339008181170149,0.631079435349,-0.0,0.0,0.0,0.0,0.0
1565339008285146659,0.641937553883,-0.0,0.0,0.0,0.0,0.0
1565339008335032232,0.641937553883,-0.0,0.0,0.0,0.0,0.0
1565339008461497857,0.631079435349,-0.0,0.0,0.0,0.0,0.0
1565339008566594732,0.631079435349,-0.0,0.0,0.0,0.0,0.0
1565339008669571451,0.641937553883,-0.0,0.0,0.0,0.0,0.0
1565339008719447909,0.641937553883,-0.0,0.0,0.0,0.0,0.0
1565339008771322649,0.641937553883,-0.0,0.0,0.0,0.0,0.0
1565339008819144941,0.641937553883,-0.0,0.0,0.0,0.0,0.0
1565339008933005878,0.631079435349,-0.0,0.0,0.0,0.0,0.0
1565339009061040357,0.641937553883,-0.0,0.0,0.0,0.0,0.0
1565339009111586034,0.641937553883,-0.0,0.0,0.0,0.0,0.0
1565339009162256451,0.641937553883,-0.0,0.0,0.0,0.0,0.0
1565339009211993847,0.641937553883,-0.0,0.0,0.0,0.0,0.0
1565339009261931503,0.641937553883,-0.0,0.0,0.0,0.0,0.0
1565339009383245253,0.641937553883,-0.0,0.0,0.0,0.0,0.0
1565339009485998169,0.641937553883,-0.0,0.0,0.0,0.0,0.0
1565339009535540930,0.641937553883,-0.0,0.0,0.0,0.0,0.0
1565339009673680096,0.674479961395,-0.0,0.0,0.0,0.0,0.0
1565339009782366503,0.707054436207,-0.0,0.0,0.0,0.0,0.0
1565339009900871294,0.804713666439,-0.0,0.0,0.0,0.0,0.0
1565339010013892909,0.858972370625,-0.0,0.0,0.0,0.0,0.0
1565339010122256034,0.858972370625,-0.0,0.0,0.0,0.0,0.0
1565339010171783742,0.858972370625,-0.0,0.0,0.0,0.0,0.0
1565339010223238846,0.858972370625,-0.0,0.0,0.0,0.0,0.0
1565339010272107388,0.858972370625,-0.0,0.0,0.0,0.0,0.0
1565339010323259055,0.858972370625,-0.0,0.0,0.0,0.0,0.0
1565339010463293846,0.858972370625,-0.0,0.0,0.0,0.0,0.0
1565339010565168429,0.880688667297,-0.0,0.0,0.0,0.0,0.0
1565339010681403221,0.91323107481,-0.0,0.0,0.0,0.0,0.0
1565339010798564992,0.902372896671,-0.0,0.0,0.0,0.0,0.0
1565339010913879679,0.91323107481,-0.0,0.0,0.0,0.0,0.0
1565339010963027023,0.91323107481,-0.0,0.0,0.0,0.0,0.0
1565339011101831346,0.924089252949,-0.0,0.0,0.0,0.0,0.0
1565339011205614627,0.91323107481,-0.0,0.0,0.0,0.0,0.0
1565339011310304783,0.91323107481,-0.0,0.0,0.0,0.0,0.0
1565339011417442179,0.924089252949,-0.0,0.0,0.0,0.0,0.0
1565339011581700564,0.924089252949,-0.0,0.0,0.0,0.0,0.0
1565339011661568064,0.924089252949,-0.0,0.0,0.0,0.0,0.0
1565339011713074835,0.924089252949,-0.0,0.0,0.0,0.0,0.0
1565339011761731502,0.924089252949,-0.0,0.0,0.0,0.0,0.0
1565339011868753064,0.945773422718,-0.0,0.0,0.0,0.0,0.0
1565339011915419210,0.945773422718,-0.0,0.0,0.0,0.0,0.0
1565339012050439366,-0.0,-0.0,0.0,0.0,0.0,0.0
1565339012100366762,-0.0,-0.0,0.0,0.0,0.0,0.0
1565339012151564210,-0.0,-0.0,0.0,0.0,0.0,0.0
1565339012202360460,-0.0,-0.0,0.0,0.0,0.0,0.0
1565339012253789418,-0.0,-0.0,0.0,0.0,0.0,0.0
1565339012300774731,-0.0,-0.0,0.0,0.0,0.0,0.0
1565339012350769731,-0.0,-0.0,0.0,0.0,0.0,0.0
1565339012400672648,-0.0,-0.0,0.0,0.0,0.0,0.0
1565339012525356710,-0.0,-0.0,0.0,0.0,0.0,0.114760033786
1565339012673780720,-0.0,-0.0,0.0,0.0,0.0,0.190718993545
1565339012781646814,-0.0,-0.0,0.0,0.0,0.0,0.255835860968
1565339012885535668,-0.0,-0.0,0.0,0.0,0.0,0.293823361397
1565339012935915564,-0.0,-0.0,0.0,0.0,0.0,0.293823361397
1565339013073073741,-0.0,-0.0,0.0,0.0,0.0,0.299236387014
1565339013188919574,-0.0,-0.0,0.0,0.0,0.0,0.315523654222
1565339013321910199,-0.0,-0.0,0.0,0.0,0.0,0.310094565153
1565339013371856918,-0.0,-0.0,0.0,0.0,0.0,0.310094565153
1565339013493315043,-0.0,-0.0,0.0,0.0,0.0,0.310094565153
1565339013543373897,-0.0,-0.0,0.0,0.0,0.0,0.310094565153
1565339013677949574,-0.0,-0.0,0.0,0.0,0.0,0.0387850105762
1565339013781369522,-0.0,-0.0,0.0,0.0,0.0,0.0
1565339013839428168,-0.0,-0.0,0.0,0.0,0.0,0.0
1565339013882167074,-0.0,-0.0,0.0,0.0,0.0,0.0
1565339013938261293,-0.0,-0.0,0.0,0.0,0.0,0.0
1565339013981561136,-0.0,-0.0,0.0,0.0,0.0,0.0
1565339014034060511,-0.0,-0.0,0.0,0.0,0.0,0.0
1565339014082508793,-0.0,-0.0,0.0,0.0,0.0,0.0
1565339014132436293,-0.0,-0.0,0.0,0.0,0.0,0.0
1565339014183688845,-0.0,-0.0,0.0,0.0,0.0,0.0
1565339014232691501,-0.0,-0.0,0.0,0.0,0.0,0.0
1565339014283026970,-0.0,-0.0,0.0,0.0,0.0,0.0
1565339014333055668,-0.0,-0.0,0.0,0.0,0.0,0.0
1565339014383889522,-0.0,-0.0,0.0,0.0,0.0,0.0
1565339014433636865,-0.0,-0.0,0.0,0.0,0.0,0.0
1565339014483861084,-0.0,-0.0,0.0,0.0,0.0,0.0
1565339014534126136,-0.0,-0.0,0.0,0.0,0.0,0.0
1565339014584377855,-0.0,-0.0,0.0,0.0,0.0,0.0
1565339014634757386,-0.0,-0.0,0.0,0.0,0.0,0.0
1565339014684665303,-0.0,-0.0,0.0,0.0,0.0,0.0
1565339014734601553,-0.0,-0.0,0.0,0.0,0.0,0.0
1565339014854087542,-0.0,-0.0,0.0,0.0,0.0,0.158160567284
1565339014904778636,-0.0,-0.0,0.0,0.0,0.0,0.158160567284
1565339014955229157,-0.0,-0.0,0.0,0.0,0.0,0.158160567284
1565339015004643219,-0.0,-0.0,0.0,0.0,0.0,0.158160567284
1565339015125574834,-0.0,-0.0,0.0,0.0,0.0,0.152731493115
1565339015176264626,-0.0,-0.0,0.0,0.0,0.0,0.152731493115
1565339015315478948,-0.0,-0.0,0.0,0.0,0.0,0.0
1565339015365083376,-0.0,-0.0,0.0,0.0,0.0,0.0
1565339015413898428,-0.0,-0.0,0.0,0.0,0.0,0.0
1565339015464262751,-0.0,-0.0,0.0,0.0,0.0,0.0
1565339015516858011,-0.0,-0.0,0.0,0.0,0.0,0.0
1565339015575720771,-0.0,-0.0,0.0,0.0,0.0,0.0
1565339015693536136,-0.0,-0.0,0.0,0.0,0.0,0.212419271469
1565339015743771396,-0.0,-0.0,0.0,0.0,0.0,0.212419271469
1565339015889132282,-0.0,-0.0,0.0,0.0,0.0,0.0
1565339015940709625,-0.0,-0.0,0.0,0.0,0.0,0.0
1565339015990427959,-0.0,-0.0,0.0,0.0,0.0,0.0
1565339016041276396,-0.0,-0.0,0.0,0.0,0.0,0.0
1565339016091963063,-0.0,-0.0,0.0,0.0,0.0,0.0
1565339016143285719,-0.0,-0.0,0.0,0.0,0.0,0.0
1565339016258369990,-0.0,-0.707022309303,0.0,0.0,0.0,0.0
1565339016361763011,-0.0,-0.772107064724,0.0,0.0,0.0,0.0
1565339016469835927,-0.0,-0.804681539536,0.0,0.0,0.0,0.0
1565339016575527125,-0.0,-0.913198947906,0.0,0.0,0.0,0.0
1565339016679287177,-0.0,-0.924057126045,0.0,0.0,0.0,0.0
1565339016818220250,-0.0,-0.924057126045,0.0,0.0,0.0,0.0
1565339016921623635,-0.0,-0.924057126045,0.0,0.0,0.0,0.0
1565339017037538271,-0.0,-0.0,0.0,0.0,0.0,0.0
1565339017087704208,-0.0,-0.0,0.0,0.0,0.0,0.0
1565339017146080771,-0.0,-0.0,0.0,0.0,0.0,0.0
1565339017188146864,-0.0,-0.0,0.0,0.0,0.0,0.0
1565339017238986448,-0.0,-0.0,0.0,0.0,0.0,0.0
1565339017288936708,-0.0,-0.0,0.0,0.0,0.0,0.0
1565339017338734000,-0.0,-0.0,0.0,0.0,0.0,0.0
1565339017388841083,-0.0,-0.0,0.0,0.0,0.0,0.0
1565339017439187177,-0.0,-0.0,0.0,0.0,0.0,0.0
1565339017517333271,-0.0,-0.0,0.0,0.0,0.0,0.0
1565339017540126083,-0.0,-0.0,0.0,0.0,0.0,0.0
1565339017590607489,-0.0,-0.0,0.0,0.0,0.0,0.0
1565339017640217437,-0.0,-0.0,0.0,0.0,0.0,0.0
1565339017690187073,-0.0,-0.0,0.0,0.0,0.0,0.0
1565339017740986291,-0.0,-0.0,0.0,0.0,0.0,0.0
1565339017790745770,-0.0,-0.0,0.0,0.0,0.0,0.0
1565339017842908114,-0.0,-0.0,0.0,0.0,0.0,0.0
1565339017893943791,-0.0,-0.0,0.0,0.0,0.0,0.0
1565339017941234572,-0.0,-0.0,0.0,0.0,0.0,0.0
1565339017991516760,-0.0,-0.0,0.0,0.0,0.0,0.0
1565339018043882958,-0.0,-0.0,0.0,0.0,0.0,0.0
1565339018091912750,-0.0,-0.0,0.0,0.0,0.0,0.0
1565339018201848270,0.0884603112936,-0.0,0.0,0.0,0.0,0.0
1565339018309655406,0.164435341954,-0.0,0.0,0.0,0.0,0.0
1565339018359698947,0.164435341954,-0.0,0.0,0.0,0.0,0.0
1565339018462148583,0.924089252949,-0.0,0.0,0.0,0.0,0.0
1565339018566128166,1.0,-0.0,0.0,0.0,0.0,0.0
1565339018616084208,1.0,-0.0,0.0,0.0,0.0,0.0
1565339018666656656,1.0,-0.0,0.0,0.0,0.0,0.0
1565339018717164676,1.0,-0.0,0.0,0.0,0.0,0.0
1565339018774899780,1.0,-0.0,0.0,0.0,0.0,0.0
1565339018889786395,1.0,-0.0,0.0,0.0,0.0,0.0
1565339018939361760,1.0,-0.0,0.0,0.0,0.0,0.0
1565339018989616812,1.0,-0.0,0.0,0.0,0.0,0.0
1565339019039769207,1.0,-0.0,0.0,0.0,0.0,0.0
1565339019090421291,1.0,-0.0,0.0,0.0,0.0,0.0
1565339019141050197,1.0,-0.0,0.0,0.0,0.0,0.0
1565339019190745093,1.0,-0.0,0.0,0.0,0.0,0.0
1565339019243975822,1.0,-0.0,0.0,0.0,0.0,0.0
1565339019291146551,1.0,-0.0,0.0,0.0,0.0,0.0
1565339019342216707,1.0,-0.0,0.0,0.0,0.0,0.0
1565339019392051343,1.0,-0.0,0.0,0.0,0.0,0.0
1565339019441950926,1.0,-0.0,0.0,0.0,0.0,0.0
1565339019492343634,1.0,-0.0,0.0,0.0,0.0,0.0
1565339019542228634,1.0,-0.0,0.0,0.0,0.0,0.0
1565339019592366864,1.0,-0.0,0.0,0.0,0.0,0.0
1565339019642947384,1.0,-0.0,0.0,0.0,0.0,0.0
1565339019692771863,1.0,-0.0,0.0,0.0,0.0,0.0
1565339019743053009,1.0,-0.0,0.0,0.0,0.0,0.0
1565339019793867905,1.0,-0.0,0.0,0.0,0.0,0.0
1565339019860223790,1.0,-0.0,0.0,0.0,0.0,0.0
1565339019898415457,1.0,-0.0,0.0,0.0,0.0,0.0
1565339019943344155,1.0,-0.0,0.0,0.0,0.0,0.0
1565339019993314728,1.0,-0.0,0.0,0.0,0.0,0.0
1565339020044037124,1.0,-0.0,0.0,0.0,0.0,0.0
1565339020093866134,1.0,-0.0,0.0,0.0,0.0,0.0
1565339020143870249,1.0,-0.0,0.0,0.0,0.0,0.0
1565339020194094572,1.0,-0.0,0.0,0.0,0.0,0.0
1565339020245185092,1.0,-0.0,0.0,0.0,0.0,0.0
1565339020294388322,1.0,-0.0,0.0,0.0,0.0,0.0
1565339020344191134,1.0,-0.0,0.0,0.0,0.0,0.0
1565339020406137697,1.0,-0.0,0.0,0.0,0.0,0.0
1565339020445077540,1.0,-0.0,0.0,0.0,0.0,0.0
1565339020495718790,1.0,-0.0,0.0,0.0,0.0,0.0
1565339020545680040,1.0,-0.0,0.0,0.0,0.0,0.0
1565339020595781082,1.0,-0.0,0.0,0.0,0.0,0.0
1565339020646453999,1.0,-0.0,0.0,0.0,0.0,0.0
1565339020695986811,1.0,-0.0,0.0,0.0,0.0,0.0
1565339020747270040,1.0,-0.0,0.0,0.0,0.0,0.0
1565339020798761811,1.0,-0.0,0.0,0.0,0.0,0.0
1565339020849353894,1.0,-0.0,0.0,0.0,0.0,0.0
1565339020897055717,1.0,-0.0,0.0,0.0,0.0,0.0
1565339020946636759,1.0,-0.0,0.0,0.0,0.0,0.0
1565339020997521290,1.0,-0.0,0.0,0.0,0.0,0.0
1565339021047817644,1.0,-0.0,0.0,0.0,0.0,0.0
1565339021099571134,1.0,-0.0,0.0,0.0,0.0,0.0
1565339021147816290,1.0,-0.0,0.0,0.0,0.0,0.0
1565339021198038998,1.0,-0.0,0.0,0.0,0.0,0.0
1565339021247993373,1.0,-0.0,0.0,0.0,0.0,0.0
1565339021298630248,1.0,-0.0,0.0,0.0,0.0,0.0
1565339021348336707,1.0,-0.0,0.0,0.0,0.0,0.0
1565339021398607644,1.0,-0.0,0.0,0.0,0.0,0.0
1565339021449475821,1.0,-0.0,0.0,0.0,0.0,0.0
1565339021508732904,1.0,-0.0,0.0,0.0,0.0,0.0
1565339021556316602,1.0,-0.0,0.0,0.0,0.0,0.0
1565339021622357331,1.0,-0.0,0.0,0.0,0.0,0.0
1565339021650336863,1.0,-0.0,0.0,0.0,0.0,0.0
1565339021701919519,1.0,-0.0,0.0,0.0,0.0,0.0
1565339021750041446,1.0,-0.0,0.0,0.0,0.0,0.0
1565339021800815456,1.0,-0.0,0.0,0.0,0.0,0.0
1565339021869043269,1.0,-0.0,0.0,0.0,0.0,0.0
1565339021900459623,1.0,-0.0,0.0,0.0,0.0,0.0
1565339021951539050,1.0,-0.0,0.0,0.0,0.0,0.0
1565339022001404363,1.0,-0.0,0.0,0.0,0.0,0.0
1565339022051721185,1.0,-0.0,0.0,0.0,0.0,0.0
1565339022101619675,1.0,-0.0,0.0,0.0,0.0,0.0
1565339022151425508,1.0,-0.0,0.0,0.0,0.0,0.0
1565339022201337956,1.0,-0.0,0.0,0.0,0.0,0.0
1565339022329546394,-0.0,-0.0,0.0,0.0,0.0,0.0
1565339022380098425,-0.0,-0.0,0.0,0.0,0.0,0.0
1565339022430422852,-0.0,-0.0,0.0,0.0,0.0,0.0
1565339022480138581,-0.0,-0.0,0.0,0.0,0.0,0.0
1565339022532654675,-0.0,-0.0,0.0,0.0,0.0,0.0
1565339022580955925,-0.0,-0.0,0.0,0.0,0.0,0.0
1565339022630650196,-0.0,-0.0,0.0,0.0,0.0,0.0
1565339022681200352,-0.0,-0.0,0.0,0.0,0.0,0.0
1565339022731794154,-0.0,-0.0,0.0,0.0,0.0,0.0
1565339022781580821,-0.0,-0.0,0.0,0.0,0.0,0.0
1565339022831473946,-0.0,-0.0,0.0,0.0,0.0,0.0
1565339022881615352,-0.0,-0.0,0.0,0.0,0.0,0.0
1565339022932076081,-0.0,-0.0,0.0,0.0,0.0,0.0
1565339022982563841,-0.0,-0.0,0.0,0.0,0.0,0.0
1565339023032952331,-0.0,-0.0,0.0,0.0,0.0,0.0
1565339023083421341,-0.0,-0.0,0.0,0.0,0.0,0.0
1565339023132482956,-0.0,-0.0,0.0,0.0,0.0,0.0
1565339023182540248,-0.0,-0.0,0.0,0.0,0.0,0.0
1565339023233419675,-0.0,-0.0,0.0,0.0,0.0,0.0
1565339023282899987,-0.0,-0.0,0.0,0.0,0.0,0.0
1565339023333254727,-0.0,-0.0,0.0,0.0,0.0,0.0
1565339023383279675,-0.0,-0.0,0.0,0.0,0.0,0.0
1565339023433826393,-0.0,-0.0,0.0,0.0,0.0,0.0
1565339023484228529,-0.0,-0.0,0.0,0.0,0.0,0.0
1565339023535322904,-0.0,-0.0,0.0,0.0,0.0,0.0
1565339023584833372,-0.0,-0.0,0.0,0.0,0.0,0.0
1565339023635219779,-0.0,-0.0,0.0,0.0,0.0,0.0
1565339023685187539,-0.0,-0.0,0.0,0.0,0.0,0.0
1565339023735258060,-0.0,-0.0,0.0,0.0,0.0,0.0
1565339023785262070,-0.0,-0.0,0.0,0.0,0.0,0.0
1565339023854551549,-0.0,-0.0,0.0,0.0,0.0,0.0
1565339023895266341,-0.0,-0.0,0.0,0.0,0.0,0.0
1565339023935856706,-0.0,-0.0,0.0,0.0,0.0,0.0
1565339023985928893,-0.0,-0.0,0.0,0.0,0.0,0.0
1565339024036195924,-0.0,-0.0,0.0,0.0,0.0,0.0
1565339024086899310,-0.0,-0.0,0.0,0.0,0.0,0.0
1565339024137231133,-0.0,-0.0,0.0,0.0,0.0,0.0
1565339024187093424,-0.0,-0.0,0.0,0.0,0.0,0.0
1565339024237960560,-0.0,-0.0,0.0,0.0,0.0,0.0
1565339024286979414,-0.0,-0.0,0.0,0.0,0.0,0.0
1565339024337262643,-0.0,-0.0,0.0,0.0,0.0,0.0
1565339024387126080,-0.0,-0.0,0.0,0.0,0.0,0.0
1565339024437544518,-0.0,-0.0,0.0,0.0,0.0,0.0
1565339024488003164,-0.0,-0.0,0.0,0.0,0.0,0.0
1565339024537923685,-0.0,-0.0,0.0,0.0,0.0,0.0
1565339024588308893,-0.0,-0.0,0.0,0.0,0.0,0.0
1565339024638512539,-0.0,-0.0,0.0,0.0,0.0,0.0
1565339024688611132,-0.0,-0.0,0.0,0.0,0.0,0.0
1565339024738901966,-0.0,-0.0,0.0,0.0,0.0,0.0
1565339024789306393,-0.0,-0.0,0.0,0.0,0.0,0.0
1565339024840786914,-0.0,-0.0,0.0,0.0,0.0,0.0
1565339024980937486,-0.0,-0.142686888576,0.0,0.0,0.0,0.0
1565339025098090872,-0.0,-0.142686888576,0.0,0.0,0.0,0.0
1565339025237645351,-0.0,-0.153545051813,0.0,0.0,0.0,0.0
1565339025369663684,-0.0,-0.218661904335,0.0,0.0,0.0,0.0
1565339025481966393,-0.0,-0.240346118808,0.0,0.0,0.0,0.0
1565339025597760872,-0.0,-0.359721660614,0.0,0.0,0.0,0.0
1565339025707262695,-0.0,-0.435696691275,0.0,0.0,0.0,0.0
1565339025817981288,-0.0,-0.435696691275,0.0,0.0,0.0,0.0
1565339025865205872,-0.0,-0.435696691275,0.0,0.0,0.0,0.0
1565339025912019830,-0.0,-0.435696691275,0.0,0.0,0.0,0.0
1565339025959976340,-0.0,-0.435696691275,0.0,0.0,0.0,0.0
1565339026010134986,-0.0,-0.435696691275,0.0,0.0,0.0,0.0
1565339026060453944,-0.0,-0.435696691275,0.0,0.0,0.0,0.0
1565339026209824413,-0.0,-0.446554869413,0.0,0.0,0.0,0.0
1565339026345702798,-0.0,-0.446554869413,0.0,0.0,0.0,0.0
1565339026454628163,-0.0,-0.435696691275,0.0,0.0,0.0,0.0
1565339026507488788,-0.0,-0.435696691275,0.0,0.0,0.0,0.0
1565339026646905767,-0.0,-0.446554869413,0.0,0.0,0.0,0.0
1565339026691619048,-0.0,-0.446554869413,0.0,0.0,0.0,0.0
1565339026741785663,-0.0,-0.446554869413,0.0,0.0,0.0,0.0
1565339026792033215,-0.0,-0.446554869413,0.0,0.0,0.0,0.0
1565339026929467329,-0.0,-0.435696691275,0.0,0.0,0.0,0.0
1565339026980742642,-0.0,-0.435696691275,0.0,0.0,0.0,0.0
1565339027030409621,-0.0,-0.435696691275,0.0,0.0,0.0,0.0
1565339027154027694,-0.0,-0.446554869413,0.0,0.0,0.0,0.0
1565339027297903788,-0.0,-0.435696691275,0.0,0.0,0.0,0.0
1565339027422190767,-0.0,-0.446554869413,0.0,0.0,0.0,0.0
1565339027529984360,-0.0,-0.446554869413,0.0,0.0,0.0,0.0
1565339027638179204,-0.0,-0.424838542938,0.0,0.0,0.0,0.0
1565339027745822798,-0.0,-0.0,0.0,0.0,0.0,0.0
1565339027797271027,-0.0,-0.0,0.0,0.0,0.0,0.0
1565339027853018371,-0.0,-0.0,0.0,0.0,0.0,0.0
1565339027896250246,-0.0,-0.0,0.0,0.0,0.0,0.0
1565339027946468892,-0.0,-0.0,0.0,0.0,0.0,0.0
1565339027996860819,-0.0,-0.0,0.0,0.0,0.0,0.0
1565339028053151079,-0.0,-0.0,0.0,0.0,0.0,0.0
1565339028096630506,-0.0,-0.0,0.0,0.0,0.0,0.0
1565339028147293944,-0.0,-0.0,0.0,0.0,0.0,0.0
1565339028197018527,-0.0,-0.0,0.0,0.0,0.0,0.0
1565339028247887798,-0.0,-0.0,0.0,0.0,0.0,0.0
1565339028297864360,-0.0,-0.0,0.0,0.0,0.0,0.0
1565339028360107850,-0.0,-0.0,0.0,0.0,0.0,0.0
1565339028399037121,-0.0,-0.0,0.0,0.0,0.0,0.0
1565339028447975558,-0.0,-0.0,0.0,0.0,0.0,0.0
1565339028598077954,-0.0,-0.0,0.0,0.0,0.0,0.0
1565339028701935610,-0.381437987089,-0.0,0.0,0.0,0.0,0.0
1565339028812073683,-0.717848360538,-0.0,0.0,0.0,0.0,0.0
1565339028920306600,-1.0,-0.0,0.0,0.0,0.0,0.0
1565339028968051079,-1.0,-0.0,0.0,0.0,0.0,0.0
1565339029017978631,-1.0,-0.0,0.0,0.0,0.0,0.0
1565339029068654933,-1.0,-0.0,0.0,0.0,0.0,0.0
1565339029118707329,-1.0,-0.0,0.0,0.0,0.0,0.0
1565339029168955870,-1.0,-0.0,0.0,0.0,0.0,0.0
1565339029218719412,-1.0,-0.0,0.0,0.0,0.0,0.0
1565339029268938787,-1.0,-0.0,0.0,0.0,0.0,0.0
1565339029319099829,-1.0,-0.0,0.0,0.0,0.0,0.0
1565339029369518631,-1.0,-0.0,0.0,0.0,0.0,0.0
1565339029419959516,-1.0,-0.0,0.0,0.0,0.0,0.0
1565339029470054985,-1.0,-0.0,0.0,0.0,0.0,0.0
1565339029519838631,-1.0,-0.0,0.0,0.0,0.0,0.0
1565339029576639672,-1.0,-0.0,0.0,0.0,0.0,0.0
1565339029620637693,-1.0,-0.0,0.0,0.0,0.0,0.0
1565339029753657589,-1.0,-0.0,0.0,0.0,0.0,0.0
1565339029896593162,-1.0,-0.0,0.0,0.0,0.0,0.0
1565339029947625610,-1.0,-0.0,0.0,0.0,0.0,0.0
1565339030042189099,-1.0,-0.0,0.0,0.0,0.0,0.0
1565339030202514047,-1.0,-0.0,0.0,0.0,0.0,0.0
1565339030239855922,-1.0,-0.0,0.0,0.0,0.0,0.0
1565339030324672276,-1.0,-0.0,0.0,0.0,0.0,0.0
1565339030406175089,-1.0,-0.0,0.0,0.0,0.0,0.0
1565339030456564099,-1.0,-0.0,0.0,0.0,0.0,0.0
1565339030506859203,-1.0,-0.0,0.0,0.0,0.0,0.0
1565339030638893943,-1.0,-0.0,0.0,0.0,0.0,0.0
1565339030688429932,-1.0,-0.0,0.0,0.0,0.0,0.0
1565339030738499776,-1.0,-0.0,0.0,0.0,0.0,0.0
1565339030845725557,-1.0,-0.0,0.0,0.0,0.0,0.0
1565339030985784463,-1.0,-0.0,0.0,0.0,0.0,0.0
1565339031134642536,-1.0,-0.0,0.0,0.0,0.0,0.0
1565339031247121547,-1.0,-0.0,0.0,0.0,0.0,0.0
1565339031295953422,-1.0,-0.0,0.0,0.0,0.0,0.0
1565339031345743161,-1.0,-0.0,0.0,0.0,0.0,0.0
1565339031397114776,-1.0,-0.0,0.0,0.0,0.0,0.0
1565339031447106755,-1.0,-0.0,0.0,0.0,0.0,0.0
1565339031567601286,-0.0,-0.0,0.0,0.0,0.0,0.0
1565339031607986599,-0.0,-0.0,0.0,0.0,0.0,0.0
1565339031658474984,-0.0,-0.0,0.0,0.0,0.0,0.0
1565339031709186078,-0.0,-0.0,0.0,0.0,0.0,0.0
1565339031758724776,-0.0,-0.0,0.0,0.0,0.0,0.0
1565339031810241963,-0.0,-0.0,0.0,0.0,0.0,0.0
1565339031862282796,-0.0,-0.0,0.0,0.0,0.0,0.0
1565339031909034932,-0.0,-0.0,0.0,0.0,0.0,0.0
1565339031959376650,-0.0,-0.0,0.0,0.0,0.0,0.0
1565339032009825921,-0.0,-0.0,0.0,0.0,0.0,0.0
1565339032059707848,-0.0,-0.0,0.0,0.0,0.0,0.0
1565339032110694411,-0.0,-0.0,0.0,0.0,0.0,0.0
1565339032160066338,-0.0,-0.0,0.0,0.0,0.0,0.0
1565339032210311130,-0.0,-0.0,0.0,0.0,0.0,0.0
1565339032262073421,-0.0,-0.0,0.0,0.0,0.0,0.0
1565339032312055400,-0.0,-0.0,0.0,0.0,0.0,0.0
1565339032364512119,-0.0,-0.0,0.0,0.0,0.0,0.0
1565339032416131859,-0.0,-0.0,0.0,0.0,0.0,0.0
1565339032526534359,-0.262062430382,-0.0,0.0,0.0,0.0,0.0
1565339032576346286,-0.262062430382,-0.0,0.0,0.0,0.0,0.0
1565339032721921494,-0.327179312706,-0.0,0.0,0.0,0.0,0.0
1565339032870395661,-0.338037461042,-0.0,0.0,0.0,0.0,0.0
1565339032920128838,-0.338037461042,-0.0,0.0,0.0,0.0,0.0
1565339033046861858,-0.327179312706,-0.0,0.0,0.0,0.0,0.0
1565339033190913473,-0.424838542938,-0.0,0.0,0.0,0.0,0.0
1565339033293883629,-0.45741301775,-0.0,0.0,0.0,0.0,0.0
1565339033343854879,-0.45741301775,-0.0,0.0,0.0,0.0,0.0
1565339033406679514,-0.45741301775,-0.0,0.0,0.0,0.0,0.0
1565339033533909202,-0.45741301775,-0.0,0.0,0.0,0.0,0.0
1565339033661707796,-0.45741301775,-0.0,0.0,0.0,0.0,0.0
1565339033712967066,-0.45741301775,-0.0,0.0,0.0,0.0,0.0
1565339033762447744,-0.45741301775,-0.0,0.0,0.0,0.0,0.0
1565339033815401077,-0.45741301775,-0.0,0.0,0.0,0.0,0.0
1565339033873204202,-0.45741301775,-0.0,0.0,0.0,0.0,0.0
1565339033913215348,-0.45741301775,-0.0,0.0,0.0,0.0,0.0
1565339033962991598,-0.45741301775,-0.0,0.0,0.0,0.0,0.0
1565339034013021233,-0.45741301775,-0.0,0.0,0.0,0.0,0.0
1565339034062886285,-0.45741301775,-0.0,0.0,0.0,0.0,0.0
1565339034113415556,-0.45741301775,-0.0,0.0,0.0,0.0,0.0
1565339034163598316,-0.45741301775,-0.0,0.0,0.0,0.0,0.0
1565339034214538525,-0.45741301775,-0.0,0.0,0.0,0.0,0.0
1565339034264032535,-0.45741301775,-0.0,0.0,0.0,0.0,0.0
1565339034315204879,-0.45741301775,-0.0,0.0,0.0,0.0,0.0
1565339034365365816,-0.45741301775,-0.0,0.0,0.0,0.0,0.0
1565339034415656806,-0.45741301775,-0.0,0.0,0.0,0.0,0.0
1565339034465509566,-0.45741301775,-0.0,0.0,0.0,0.0,0.0
1565339034517318629,-0.45741301775,-0.0,0.0,0.0,0.0,0.0
1565339034566306702,-0.45741301775,-0.0,0.0,0.0,0.0,0.0
1565339034616293629,-0.45741301775,-0.0,0.0,0.0,0.0,0.0
1565339034665632587,-0.45741301775,-0.0,0.0,0.0,0.0,0.0
1565339034719498420,-0.45741301775,-0.0,0.0,0.0,0.0,0.0
1565339034842215295,-0.45741301775,-0.0,0.0,0.0,0.0,0.0
1565339034892532066,-0.45741301775,-0.0,0.0,0.0,0.0,0.0
1565339034941894201,-0.45741301775,-0.0,0.0,0.0,0.0,0.0
1565339034992263368,-0.45741301775,-0.0,0.0,0.0,0.0,0.0
1565339035042695503,-0.45741301775,-0.0,0.0,0.0,0.0,0.0
1565339035092574931,-0.45741301775,-0.0,0.0,0.0,0.0,0.0
1565339035214005764,-0.555072247982,-0.0,0.0,0.0,0.0,0.0
1565339035342066805,-0.565930426121,-0.0,0.0,0.0,0.0,0.0
1565339035446127691,-0.598472774029,-0.0,0.0,0.0,0.0,0.0
1565339035495723524,-0.598472774029,-0.0,0.0,0.0,0.0,0.0
1565339035546217587,-0.598472774029,-0.0,0.0,0.0,0.0,0.0
1565339035597025243,-0.598472774029,-0.0,0.0,0.0,0.0,0.0
1565339035646969878,-0.598472774029,-0.0,0.0,0.0,0.0,0.0
1565339035696627691,-0.598472774029,-0.0,0.0,0.0,0.0,0.0
1565339035746807170,-0.598472774029,-0.0,0.0,0.0,0.0,0.0
1565339035797302587,-0.598472774029,-0.0,0.0,0.0,0.0,0.0
1565339035858956389,-0.598472774029,-0.0,0.0,0.0,0.0,0.0
1565339035900728680,-0.598472774029,-0.0,0.0,0.0,0.0,0.0
1565339035947484774,-0.598472774029,-0.0,0.0,0.0,0.0,0.0
1565339035997951597,-0.598472774029,-0.0,0.0,0.0,0.0,0.0
1565339036049859097,-0.598472774029,-0.0,0.0,0.0,0.0,0.0
1565339036098104253,-0.598472774029,-0.0,0.0,0.0,0.0,0.0
1565339036148398159,-0.598472774029,-0.0,0.0,0.0,0.0,0.0
1565339036200586493,-0.598472774029,-0.0,0.0,0.0,0.0,0.0
1565339036314651753,-0.707022309303,-0.0,0.0,0.0,0.0,0.0
1565339036364148107,-0.707022309303,-0.0,0.0,0.0,0.0,0.0
1565339036415573368,-0.707022309303,-0.0,0.0,0.0,0.0,0.0
1565339036464289253,-0.707022309303,-0.0,0.0,0.0,0.0,0.0
1565339036514731857,-0.707022309303,-0.0,0.0,0.0,0.0,0.0
1565339036659925867,-0.717848360538,-0.0,0.0,0.0,0.0,0.0
1565339036790683419,-0.880656540394,-0.0,0.0,0.0,0.0,0.0
1565339036893667794,-1.0,-0.0,0.0,0.0,0.0,0.0
1565339036944114930,-1.0,-0.0,0.0,0.0,0.0,0.0
1565339036994318419,-1.0,-0.0,0.0,0.0,0.0,0.0
1565339037122436492,-0.0,-0.0,0.0,0.0,0.0,0.0
1565339037172190919,-0.0,-0.0,0.0,0.0,0.0,0.0
1565339037223426440,-0.0,-0.0,0.0,0.0,0.0,0.0
1565339037274158419,-0.0,-0.0,0.0,0.0,0.0,0.0
1565339037326590086,-0.0,-0.0,0.0,0.0,0.0,0.0
1565339037372928107,-0.0,-0.0,0.0,0.0,0.0,0.0
1565339037423090555,-0.0,-0.0,0.0,0.0,0.0,0.0
1565339037473312430,-0.0,-0.0,0.0,0.0,0.0,0.0
1565339037523139357,-0.0,-0.0,0.0,0.0,0.0,0.0
1565339037573434513,-0.0,-0.0,0.0,0.0,0.0,0.0
1565339037624759617,-0.0,-0.0,0.0,0.0,0.0,0.0
1565339037674532065,-0.0,-0.0,0.0,0.0,0.0,0.0
1565339037724014930,-0.0,-0.0,0.0,0.0,0.0,0.0
1565339037774427898,-0.0,-0.0,0.0,0.0,0.0,0.0
1565339037824615659,-0.0,-0.0,0.0,0.0,0.0,0.0
1565339037874412273,-0.0,-0.0,0.0,0.0,0.0,0.0
1565339037924681492,-0.0,-0.0,0.0,0.0,0.0,0.0
1565339037975211596,-0.0,-0.0,0.0,0.0,0.0,0.0
1565339038025784513,-0.0,-0.0,0.0,0.0,0.0,0.0
1565339038075666023,-0.0,-0.0,0.0,0.0,0.0,0.0
1565339038125989304,-0.0,-0.0,0.0,0.0,0.0,0.0
1565339038176459252,-0.0,-0.0,0.0,0.0,0.0,0.0
1565339038234783211,-0.0,-0.0,0.0,0.0,0.0,0.0
1565339038282538106,-0.0,-0.0,0.0,0.0,0.0,0.0
1565339038326643367,-0.0,-0.0,0.0,0.0,0.0,0.0
1565339038384116440,-0.0,-0.0,0.0,0.0,0.0,0.0
1565339038427033940,-0.0,-0.0,0.0,0.0,0.0,0.0
1565339038476545242,-0.0,-0.0,0.0,0.0,0.0,0.0
1565339038527047377,-0.0,-0.0,0.0,0.0,0.0,0.0
1565339038579814565,-0.0,-0.0,0.0,0.0,0.0,0.0
1565339038712150971,1.0,-0.0,0.0,0.0,0.0,0.0
1565339038854006752,1.0,-0.0,0.0,0.0,0.0,0.0
1565339038904775450,1.0,-0.0,0.0,0.0,0.0,0.0
1565339038955190294,1.0,-0.0,0.0,0.0,0.0,0.0
1565339039004946127,1.0,-0.0,0.0,0.0,0.0,0.0
1565339039055020189,1.0,-0.0,0.0,0.0,0.0,0.0
1565339039168026908,1.0,-0.0,0.0,0.0,0.0,0.0
1565339039286420658,1.0,-0.0,0.0,0.0,0.0,0.0
1565339039418632950,1.0,-0.0,0.0,0.0,0.0,0.0
1565339039534327741,1.0,-0.0,0.0,0.0,0.0,0.0
1565339039584119408,1.0,-0.0,0.0,0.0,0.0,0.0
1565339039634849408,1.0,-0.0,0.0,0.0,0.0,0.0
1565339039684262585,1.0,-0.0,0.0,0.0,0.0,0.0
1565339039736398002,1.0,-0.0,0.0,0.0,0.0,0.0
1565339039784700762,1.0,-0.0,0.0,0.0,0.0,0.0
1565339039860206439,1.0,-0.0,0.0,0.0,0.0,0.0
1565339039885325866,1.0,-0.0,0.0,0.0,0.0,0.0
1565339039936150033,1.0,-0.0,0.0,0.0,0.0,0.0
1565339039986557689,1.0,-0.0,0.0,0.0,0.0,0.0
1565339040037456647,1.0,-0.0,0.0,0.0,0.0,0.0
1565339040086176179,1.0,-0.0,0.0,0.0,0.0,0.0
1565339040136331439,1.0,-0.0,0.0,0.0,0.0,0.0
1565339040186975137,1.0,-0.0,0.0,0.0,0.0,0.0
1565339040236869147,1.0,-0.0,0.0,0.0,0.0,0.0
1565339040287135189,1.0,-0.0,0.0,0.0,0.0,0.0
1565339040337077324,1.0,-0.0,0.0,0.0,0.0,0.0
1565339040387160658,1.0,-0.0,0.0,0.0,0.0,0.0
1565339040437749303,1.0,-0.0,0.0,0.0,0.0,0.0
1565339040574502897,1.0,-0.0,0.0,0.0,0.0,0.0
1565339040677905345,1.0,-0.0,0.0,0.0,0.0,0.0
1565339040728488158,1.0,-0.0,0.0,0.0,0.0,0.0
1565339040779159512,1.0,-0.0,0.0,0.0,0.0,0.0
1565339040828668105,1.0,-0.0,0.0,0.0,0.0,0.0
1565339040878697012,1.0,-0.0,0.0,0.0,0.0,0.0
1565339040929128835,1.0,-0.0,0.0,0.0,0.0,0.0
1565339041060224303,1.0,-0.0,0.0,0.0,0.0,0.0
1565339041108243314,1.0,-0.0,0.0,0.0,0.0,0.0
1565339041158440918,1.0,-0.0,0.0,0.0,0.0,0.0
1565339041297552220,1.0,0.00165924313478,0.0,0.0,0.0,0.0
1565339041421618574,1.0,0.0233434475958,0.0,0.0,0.0,0.0
1565339041472174095,1.0,0.0233434475958,0.0,0.0,0.0,0.0
1565339041522091803,1.0,0.0233434475958,0.0,0.0,0.0,0.0
1565339041573496282,1.0,0.0233434475958,0.0,0.0,0.0,0.0
1565339041694499147,1.0,0.0450597777963,0.0,0.0,0.0,0.0
1565339041799913209,1.0,0.0450597777963,0.0,0.0,0.0,0.0
1565339041901800865,1.0,-0.0,0.0,0.0,0.0,0.0
1565339042005843157,-0.0,-0.0,0.0,0.0,0.0,0.0
1565339042056154251,-0.0,-0.0,0.0,0.0,0.0,0.0
1565339042106760917,-0.0,-0.0,0.0,0.0,0.0,0.0
1565339042156693053,-0.0,-0.0,0.0,0.0,0.0,0.0
1565339042207286022,-0.0,-0.0,0.0,0.0,0.0,0.0
1565339042256917428,-0.0,-0.0,0.0,0.0,0.0,0.0
1565339042307140865,-0.0,-0.0,0.0,0.0,0.0,0.0
1565339042357445865,-0.0,-0.0,0.0,0.0,0.0,0.0
1565339042407426230,-0.0,-0.0,0.0,0.0,0.0,0.0
1565339042457591959,-0.0,-0.0,0.0,0.0,0.0,0.0
1565339042508248469,-0.0,-0.0,0.0,0.0,0.0,0.0
1565339042558208834,-0.0,-0.0,0.0,0.0,0.0,0.0
1565339042608553001,-0.0,-0.0,0.0,0.0,0.0,0.0
1565339042658882844,-0.0,-0.0,0.0,0.0,0.0,0.0
1565339042708909251,-0.0,-0.0,0.0,0.0,0.0,0.0
1565339042768943105,-0.0,-0.0,0.0,0.0,0.0,0.0
1565339042898814511,0.0559179410338,-0.0,0.0,0.0,0.0,0.0
1565339043013330865,0.077602148056,-0.0,0.0,0.0,0.0,0.0
1565339043150336438,0.272952735424,-0.0,0.0,0.0,0.0,0.0
1565339043253879771,0.370611965656,-0.0,0.0,0.0,0.0,0.0
1565339043365826282,0.511703848839,-0.0,0.0,0.0,0.0,0.0
1565339043416572427,0.511703848839,-0.0,0.0,0.0,0.0,0.0
1565339043467154823,0.511703848839,-0.0,0.0,0.0,0.0,0.0
1565339043517029823,0.511703848839,-0.0,0.0,0.0,0.0,0.0
1565339043642222740,0.598504900932,-0.0,0.0,0.0,0.0,0.0
1565339043692667479,0.598504900932,-0.0,0.0,0.0,0.0,0.0
1565339043804855240,0.707054436207,-0.0,0.0,0.0,0.0,0.0
1565339043856211906,0.707054436207,-0.0,0.0,0.0,0.0,0.0
1565339043957972167,0.728738665581,-0.0,0.0,0.0,0.0,0.0
1565339044066723469,0.804713666439,-0.0,0.0,0.0,0.0,0.0
1565339044182629927,0.815571844578,-0.0,0.0,0.0,0.0,0.0
1565339044232871281,0.815571844578,-0.0,0.0,0.0,0.0,0.0
1565339044285063208,0.815571844578,-0.0,0.0,0.0,0.0,0.0
1565339044335103000,0.815571844578,-0.0,0.0,0.0,0.0,0.0
1565339044458598573,-0.0,-0.0,0.0,0.0,0.0,0.0
1565339044508950344,-0.0,-0.0,0.0,0.0,0.0,0.0
1565339044559070448,-0.0,-0.0,0.0,0.0,0.0,0.0
1565339044608849302,-0.0,-0.0,0.0,0.0,0.0,0.0
1565339044659231489,-0.0,-0.0,0.0,0.0,0.0,0.0
1565339044710860552,-0.0,-0.0,0.0,0.0,0.0,0.0
1565339044759953052,-0.0,-0.0,0.0,0.0,0.0,0.0
1565339044810078000,-0.0,-0.0,0.0,0.0,0.0,0.0
1565339044860528260,-0.0,-0.0,0.0,0.0,0.0,0.0
1565339044911991541,-0.0,-0.0,0.0,0.0,0.0,0.0
1565339044960825916,-0.0,-0.0,0.0,0.0,0.0,0.0
1565339045010591645,-0.0,-0.0,0.0,0.0,0.0,0.0
1565339045061823312,-0.0,-0.0,0.0,0.0,0.0,0.0
1565339045112205239,-0.0,-0.0,0.0,0.0,0.0,0.0
1565339045164188573,-0.0,-0.0,0.0,0.0,0.0,0.0
1565339045211254458,-0.0,-0.0,0.0,0.0,0.0,0.0
1565339045261803000,-0.0,-0.0,0.0,0.0,0.0,0.0
1565339045312562583,-0.0,-0.0,0.0,0.0,0.0,0.0
1565339045361621593,-0.0,-0.0,0.0,0.0,0.0,0.0
1565339045411986645,-0.0,-0.0,0.0,0.0,0.0,0.0
1565339045462915135,-0.0,-0.0,0.0,0.0,0.0,0.0
1565339045520964822,-0.0,-0.0,0.0,0.0,0.0,0.0
1565339045575593781,-0.0,-0.0,0.0,0.0,0.0,0.0
1565339045614455447,-0.0,-0.0,0.0,0.0,0.0,0.0
1565339045754526593,-0.0,-0.0,0.0,0.0,0.0,0.0333559289575
1565339045858887322,-0.0,-0.0,0.0,0.0,0.0,0.152731493115
1565339045972092999,-0.0,-0.0,0.0,0.0,0.0,0.169018730521
1565339046075280916,-0.0,-0.0,0.0,0.0,0.0,0.174447819591
1565339046178512426,-0.0,-0.0,0.0,0.0,0.0,0.190718993545
1565339046309778520,-0.0,-0.0,0.0,0.0,0.0,0.185289919376
1565339046360814978,-0.0,-0.0,0.0,0.0,0.0,0.185289919376
1565339046410583676,-0.0,-0.0,0.0,0.0,0.0,0.185289919376
1565339046518676332,-0.0,-0.0,0.0,0.0,0.0,0.190718993545
1565339046646532739,-0.0,-0.0,0.0,0.0,0.0,0.207006245852
1565339046754269822,-0.0,-0.0,0.0,0.0,0.0,0.207006245852
1565339046804468989,-0.0,-0.0,0.0,0.0,0.0,0.207006245852
1565339046854231697,-0.0,-0.0,0.0,0.0,0.0,0.207006245852
1565339046970865447,-0.0,-0.0,0.0,0.0,0.0,0.120173059404
1565339047074416905,-0.0,-0.0,0.0,0.0,0.0,0.0
1565339047124412478,-0.0,-0.0,0.0,0.0,0.0,0.0
1565339047174960499,-0.0,-0.0,0.0,0.0,0.0,0.0
1565339047225337895,-0.0,-0.0,0.0,0.0,0.0,0.0
1565339047276214874,-0.0,-0.0,0.0,0.0,0.0,0.0
1565339047325477582,-0.0,-0.0,0.0,0.0,0.0,0.0
1565339047375626280,-0.0,-0.0,0.0,0.0,0.0,0.0
1565339047426366020,-0.0,-0.0,0.0,0.0,0.0,0.0
1565339047475899717,-0.0,-0.0,0.0,0.0,0.0,0.0
1565339047526344457,-0.0,-0.0,0.0,0.0,0.0,0.0
1565339047581917790,-0.0,-0.0,0.0,0.0,0.0,0.0
1565339047626684457,-0.0,-0.0,0.0,0.0,0.0,0.0
1565339047676662113,-0.0,-0.0,0.0,0.0,0.0,0.0
1565339047726855707,-0.0,-0.0,0.0,0.0,0.0,0.0
1565339047777906749,-0.0,-0.0,0.0,0.0,0.0,0.0
1565339047838354926,-0.0,-0.0,0.0,0.0,0.0,0.0
1565339047877093103,-0.0,-0.0,0.0,0.0,0.0,0.0
1565339047928120186,-0.0,-0.0,0.0,0.0,0.0,0.0
1565339047977790811,-0.0,-0.0,0.0,0.0,0.0,0.0
1565339048028636592,-0.0,-0.0,0.0,0.0,0.0,0.0
1565339048077924405,-0.0,-0.0,0.0,0.0,0.0,0.0
1565339048128048519,-0.0,-0.0,0.0,0.0,0.0,0.0
1565339048180358051,-0.0,-0.0,0.0,0.0,0.0,0.0
1565339048229623207,-0.0,-0.0,0.0,0.0,0.0,0.0
1565339048279220811,-0.0,-0.0,0.0,0.0,0.0,0.0
1565339048328910603,-0.0,-0.0,0.0,0.0,0.0,0.0
1565339048379945030,-0.0,-0.0,0.0,0.0,0.0,0.0
1565339048429455030,-0.0,-0.0,0.0,0.0,0.0,0.0
1565339048480778467,-0.0,-0.0,0.0,0.0,0.0,0.0
1565339048530827842,-0.0,-0.0,0.0,0.0,0.0,0.0
1565339048584660602,-0.0,-0.0,0.0,0.0,0.0,0.0
1565339048630605082,-0.0,-0.0,0.0,0.0,0.0,0.0
1565339048681205186,-0.0,-0.0,0.0,0.0,0.0,0.0
1565339048731037425,-0.0,-0.0,0.0,0.0,0.0,0.0
1565339048782436436,-0.0,-0.0,0.0,0.0,0.0,0.0
1565339048830776800,-0.0,-0.0,0.0,0.0,0.0,0.0
1565339048881209040,-0.0,-0.0,0.0,0.0,0.0,0.0
1565339048931477529,-0.0,-0.0,0.0,0.0,0.0,0.0
1565339048981343467,-0.0,-0.0,0.0,0.0,0.0,0.0
1565339049031530498,-0.0,-0.0,0.0,0.0,0.0,0.0
1565339049081720186,-0.0,-0.0,0.0,0.0,0.0,0.0
1565339049132730915,-0.0,-0.0,0.0,0.0,0.0,0.0
1565339049183084925,-0.0,-0.0,0.0,0.0,0.0,0.0
1565339049232845394,-0.0,-0.0,0.0,0.0,0.0,0.0
1565339049283348311,-0.0,-0.0,0.0,0.0,0.0,0.0
1565339049430847269,-0.0,-0.305462986231,0.0,0.0,0.0,0.0
1565339049535324925,-0.0,-0.414012491703,0.0,0.0,0.0,0.0
1565339049650643883,-0.0,-1.0,0.0,0.0,0.0,0.0
1565339049701088987,-0.0,-1.0,0.0,0.0,0.0,0.0
1565339049750695915,-0.0,-1.0,0.0,0.0,0.0,0.0
1565339049802707112,-0.0,-1.0,0.0,0.0,0.0,0.0
1565339049858172633,-0.0,-1.0,0.0,0.0,0.0,0.0
1565339049902105185,-0.0,-1.0,0.0,0.0,0.0,0.0
1565339049951806279,-0.0,-1.0,0.0,0.0,0.0,0.0
1565339050001514039,-0.0,-1.0,0.0,0.0,0.0,0.0
1565339050052071123,-0.0,-1.0,0.0,0.0,0.0,0.0
1565339050102273727,-0.0,-1.0,0.0,0.0,0.0,0.0
1565339050152077894,-0.0,-1.0,0.0,0.0,0.0,0.0
1565339050202952269,-0.0,-1.0,0.0,0.0,0.0,0.0
1565339050253187633,-0.0,-1.0,0.0,0.0,0.0,0.0
1565339050302991018,-0.0,-1.0,0.0,0.0,0.0,0.0
1565339050352779091,-0.0,-1.0,0.0,0.0,0.0,0.0
1565339050403214456,-0.0,-1.0,0.0,0.0,0.0,0.0
1565339050453307737,-0.0,-1.0,0.0,0.0,0.0,0.0
1565339050505005758,-0.0,-1.0,0.0,0.0,0.0,0.0
1565339050638991331,-0.0,-0.0,0.0,0.0,0.0,0.0
1565339050688817945,-0.0,-0.0,0.0,0.0,0.0,0.0
1565339050739896591,-0.0,-0.0,0.0,0.0,0.0,0.0
1565339050790821956,-0.0,-0.0,0.0,0.0,0.0,0.0
1565339050839496383,-0.0,-0.0,0.0,0.0,0.0,0.0
1565339050890027581,-0.0,-0.0,0.0,0.0,0.0,0.0
1565339051022950966,-0.0,-0.0,0.0,0.0,0.0,0.250406771898
1565339051131719612,-0.0,-0.0,0.0,0.0,0.0,0.310094565153
1565339051238214924,-0.0,-0.0,0.0,0.0,0.0,0.32095271349
1565339051350556383,-0.0,-0.0,0.0,0.0,0.0,0.326365739107
1565339051401002841,-0.0,-0.0,0.0,0.0,0.0,0.326365739107
1565339051516591695,-0.0,-0.0,0.0,0.0,0.0,0.0
1565339051584134195,-0.0,-0.0,0.0,0.0,0.0,0.0
1565339051620900549,-0.0,-0.0,0.0,0.0,0.0,0.0
1565339051665753153,-0.0,-0.0,0.0,0.0,0.0,0.0
1565339051721840862,-0.0,-0.0,0.0,0.0,0.0,0.0
1565339051765317268,-0.0,-0.0,0.0,0.0,0.0,0.0
1565339051824838414,-0.0,-0.0,0.0,0.0,0.0,0.0
1565339051876497112,-0.0,-0.0,0.0,0.0,0.0,0.0
1565339051917937372,-0.0,-0.0,0.0,0.0,0.0,0.0
1565339051965728726,-0.0,-0.0,0.0,0.0,0.0,0.0
1565339052015930809,-0.0,-0.0,0.0,0.0,0.0,0.0
1565339052066412945,-0.0,-0.0,0.0,0.0,0.0,0.0
1565339052116455341,-0.0,-0.0,0.0,0.0,0.0,0.0
1565339052166293309,-0.0,-0.0,0.0,0.0,0.0,0.0
1565339052216530445,-0.0,-0.0,0.0,0.0,0.0,0.0
1565339052267145497,-0.0,-0.0,0.0,0.0,0.0,0.0
1565339052317562216,-0.0,-0.0,0.0,0.0,0.0,0.0
1565339052368647528,-0.0,-0.0,0.0,0.0,0.0,0.0
