%time,field.header.seq,field.header.stamp,field.header.frame_id,field.pose.position.x,field.pose.position.y,field.pose.position.z,field.pose.orientation.x,field.pose.orientation.y,field.pose.orientation.z,field.pose.orientation.w
1565338972508254069,10389,1565338972453141195,map,1.49276542664,0.118893623352,0.0,0.0,0.0,-0.0422456009608,0.999107256104
1565338972575146621,10390,1565338972520126976,map,1.49040031433,0.115447998047,0.0,0.0,0.0,-0.0423192064174,0.999104141103
1565338972641916256,10391,1565338972586580258,map,1.48630046844,0.112057685852,0.0,0.0,0.0,-0.042275614864,0.999105986564
1565338972707967090,10392,1565338972653070622,map,1.48327159882,0.108035087585,0.0,0.0,0.0,-0.0423554135481,0.999102606814
1565338972781806569,10393,1565338972722102133,map,1.4795589447,0.104619026184,0.0,0.0,0.0,-0.0422022474778,0.999109088292
1565338972848484069,10394,1565338972788777705,map,1.4775800705,0.10142993927,0.0,0.0,0.0,-0.0424445019089,0.999098826072
1565338972917092090,10395,1565338972855759841,map,1.47529602051,0.0987873077393,0.0,0.0,0.0,-0.0427177199881,0.999087181581
1565338972982060006,10396,1565338972922429007,map,1.47230052948,0.0952854156494,0.0,0.0,0.0,-0.0425898057302,0.999092642575
1565338973048826204,10397,1565338972988680570,map,1.46968078613,0.0918025970459,0.0,0.0,0.0,-0.042515486511,0.999095807922
1565338973115745683,10398,1565338973054777601,map,1.46611309052,0.0878505706787,0.0,0.0,0.0,-0.0423423122901,0.999103162136
1565338973182078183,10399,1565338973121480778,map,1.46405792236,0.0852861404419,0.0,0.0,0.0,-0.0424280658463,0.999099524186
1565338973248647506,10400,1565338973188073591,map,1.46139526367,0.0810880661011,0.0,0.0,0.0,-0.0422977679586,0.999105048944
1565338973316655996,10401,1565338973254883382,map,1.4594745636,0.078013420105,0.0,0.0,0.0,-0.0420436016377,0.999115776855
1565338973381864381,10402,1565338973321440726,map,1.4560546875,0.0747175216675,0.0,0.0,0.0,-0.0417753781838,0.999127027849
1565338973448195475,10403,1565338973388205778,map,1.45431995392,0.0714550018311,0.0,0.0,0.0,-0.0415940993475,0.999134590983
1565338973515759277,10404,1565338973454720309,map,1.45177650452,0.0682783126831,0.0,0.0,0.0,-0.0410833668727,0.999155722081
1565338973581907766,10405,1565338973521691403,map,1.44800376892,0.06569480896,0.0,0.0,0.0,-0.0409990378066,0.999159185965
1565338973648045631,10406,1565338973588341611,map,1.44544219971,0.0633516311646,0.0,0.0,0.0,-0.040694116717,0.999171651352
1565338973715583444,10407,1565338973654755153,map,1.44366931915,0.0603284835815,0.0,0.0,0.0,-0.040724608997,0.999170409
1565338973781886621,10408,1565338973721557080,map,1.44034099579,0.0571718215942,0.0,0.0,0.0,-0.0403232036917,0.999186688885
1565338973849394589,10409,1565338973788360309,map,1.4383058548,0.0541095733643,0.0,0.0,0.0,-0.0402615034252,0.999189176954
1565338973914355943,10410,1565338973854779632,map,1.43636608124,0.0517597198486,0.0,0.0,0.0,-0.0399453764903,0.999201864939
1565338973981313287,10411,1565338973921588122,map,1.43402671814,0.048713684082,0.0,0.0,0.0,-0.0399146450222,0.999203093026
1565338974048773600,10412,1565338973989265049,map,1.43248271942,0.0459012985229,0.0,0.0,0.0,-0.0393026283471,0.999227353211
1565338974114930527,10413,1565338974055374997,map,1.42922210693,0.0421934127808,0.0,0.0,0.0,-0.0390115042882,0.999238761525
1565338974181108131,10414,1565338974121505830,map,1.42656993866,0.0394334793091,0.0,0.0,0.0,-0.0384737975635,0.999259609361
1565338974248560214,10415,1565338974189122392,map,1.42517089844,0.0367231369019,0.0,0.0,0.0,-0.0382229274685,0.999269236901
1565338974314947297,10416,1565338974255495830,map,1.42267417908,0.0338821411133,0.0,0.0,0.0,-0.0374521956985,0.999298420412
1565338974381767610,10417,1565338974322050830,map,1.4203004837,0.0313510894775,0.0,0.0,0.0,-0.0369785479061,0.99931605961
1565338974448495631,10418,1565338974388658174,map,1.41812133789,0.0290851593018,0.0,0.0,0.0,-0.0363555025878,0.999338920203
1565338974515311047,10419,1565338974454799371,map,1.41660022736,0.0259380340576,0.0,0.0,0.0,-0.0357302987408,0.999361469015
1565338974580919381,10420,1565338974521431194,map,1.41494464874,0.0237865447998,0.0,0.0,0.0,-0.0353419219159,0.99937527914
1565338974647596099,10421,1565338974588010101,map,1.41256904602,0.0213298797607,0.0,0.0,0.0,-0.0347109769235,0.999397392473
1565338974714366047,10422,1565338974654728226,map,1.41018867493,0.0190782546997,0.0,0.0,0.0,-0.0338391159439,0.999427293119
1565338974781689641,10423,1565338974721772757,map,1.40925884247,0.0161790847778,0.0,0.0,0.0,-0.0335262499788,0.999437837268
1565338974847554537,10424,1565338974788088642,map,1.40768146515,0.0133943557739,0.0,0.0,0.0,-0.0323862751352,0.999475427003
1565338974915208703,10425,1565338974854729423,map,1.40612983704,0.0111589431763,0.0,0.0,0.0,-0.0316301606292,0.99949964129
1565338974983292610,10426,1565338974921493173,map,1.40599822998,0.00844764709473,0.0,0.0,0.0,-0.0308006281607,0.9995255481
1565338975048891568,10427,1565338974988231194,map,1.40470600128,0.00629997253418,0.0,0.0,0.0,-0.029726806186,0.999558060842
1565338975116839953,10428,1565338975055357444,map,1.40495109558,0.00416374206543,0.0,0.0,0.0,-0.028864339711,0.999583338143
1565338975181329016,10429,1565338975121587652,map,1.40569782257,0.00174140930176,0.0,0.0,0.0,-0.028188459802,0.999602626414
1565338975247539276,10430,1565338975188018590,map,1.40693950653,-4.86373901367e-05,0.0,0.0,0.0,-0.0271846257523,0.99963042977
1565338975314377297,10431,1565338975254718694,map,1.40853404999,-0.00268745422363,0.0,0.0,0.0,-0.02596983559,0.999662726943
1565338975381391047,10432,1565338975321598694,map,1.4115114212,-0.00442123413086,0.0,0.0,0.0,-0.0254411979292,0.99967632034
1565338975447580318,10433,1565338975387969579,map,1.41514110565,-0.00732707977295,0.0,0.0,0.0,-0.0243953420997,0.999702389356
1565338975515580526,10434,1565338975454819632,map,1.41949176788,-0.00948810577393,0.0,0.0,0.0,-0.0233625690144,0.999727057936
1565338975581410005,10435,1565338975521657288,map,1.42364692688,-0.0113115310669,0.0,0.0,0.0,-0.0223261956087,0.999750739429
1565338975647472401,10436,1565338975588053329,map,1.43020153046,-0.0135498046875,0.0,0.0,0.0,-0.0212194806186,0.999774841473
1565338975716765318,10437,1565338975655510309,map,1.43718528748,-0.0158071517944,0.0,0.0,0.0,-0.0201975993986,0.999796007683
1565338975782445578,10438,1565338975722180204,map,1.44332408905,-0.0176334381104,0.0,0.0,0.0,-0.0187714119612,0.999823801524
1565338975850438703,10439,1565338975788947236,map,1.45029163361,-0.019757270813,0.0,0.0,0.0,-0.0174922682729,0.999846998571
1565338975916067766,10440,1565338975855138694,map,1.4579744339,-0.0219612121582,0.0,0.0,0.0,-0.0159913954232,0.999872129461
1565338975981242713,10441,1565338975921608798,map,1.46577262878,-0.0243310928345,0.0,0.0,0.0,-0.0144754677457,0.999895224928
1565338976049452609,10442,1565338975988468642,map,1.47505378723,-0.0254468917847,0.0,0.0,0.0,-0.0131776411652,0.999913171117
1565338976116339797,10443,1565338976054734267,map,1.4829120636,-0.0272846221924,0.0,0.0,0.0,-0.0113827232789,0.999935214707
1565338976181679536,10444,1565338976121654683,map,1.49267578125,-0.0291337966919,0.0,0.0,0.0,-0.00951600799667,0.999954721771
1565338976248073651,10445,1565338976188191819,map,1.50231647491,-0.0311679840088,0.0,0.0,0.0,-0.00756128563975,0.999971413071
1565338976315673547,10446,1565338976254718746,map,1.51306438446,-0.0327177047729,0.0,0.0,0.0,-0.00532997297356,0.999985795593
1565338976381077922,10447,1565338976321427860,map,1.52290344238,-0.0337429046631,0.0,0.0,0.0,-0.00347437965166,0.999993964325
1565338976448817245,10448,1565338976388549162,map,1.53384208679,-0.035551071167,0.0,0.0,0.0,-0.0013708189726,0.999999060427
1565338976515342713,10449,1565338976454886037,map,1.54485607147,-0.0370349884033,0.0,0.0,0.0,0.000838753960005,0.999999648246
1565338976582063442,10450,1565338976521585881,map,1.55653190613,-0.0384302139282,0.0,0.0,0.0,0.00241558973451,0.999997082459
1565338976648530265,10451,1565338976588205881,map,1.56665611267,-0.0389041900635,0.0,0.0,0.0,0.00474717547637,0.999988732099
1565338976715917817,10452,1565338976654687912,map,1.57812690735,-0.0401859283447,0.0,0.0,0.0,0.00665760942779,0.999977837873
1565338976782279797,10453,1565338976721823381,map,1.59050750732,-0.0406093597412,0.0,0.0,0.0,0.00869490798478,0.999962198573
1565338976848513338,10454,1565338976787914423,map,1.60212516785,-0.0410413742065,0.0,0.0,0.0,0.0102289248819,0.999947683179
1565338976916470734,10455,1565338976854842496,map,1.614777565,-0.0408458709717,0.0,0.0,0.0,0.0118650394122,0.999929607942
1565338976981404588,10456,1565338976921869683,map,1.62593078613,-0.0417070388794,0.0,0.0,0.0,0.0136126815747,0.999907343158
1565338977049296098,10457,1565338976988387027,map,1.63740348816,-0.041708946228,0.0,0.0,0.0,0.0150519634218,0.999886712782
1565338977117060213,10458,1565338977055681506,map,1.64868164062,-0.0427465438843,0.0,0.0,0.0,0.0165085259428,0.999863725
1565338977182046203,10459,1565338977122118277,map,1.6581401825,-0.0439949035645,0.0,0.0,0.0,0.0182102165805,0.999834180258
1565338977248736880,10460,1565338977188706089,map,1.66991901398,-0.0443248748779,0.0,0.0,0.0,0.0189012823376,0.999821354806
1565338977316157453,10461,1565338977254602443,map,1.67833518982,-0.044958114624,0.0,0.0,0.0,0.0200790306949,0.999798395941
1565338977381703286,10462,1565338977321554995,map,1.68705558777,-0.0452833175659,0.0,0.0,0.0,0.02042077834,0.999791474164
1565338977448170994,10463,1565338977388024006,map,1.69497013092,-0.0461025238037,0.0,0.0,0.0,0.0204167595898,0.99979155624
1565338977516191984,10464,1565338977454888277,map,1.70179748535,-0.0463619232178,0.0,0.0,0.0,0.0210027449767,0.999779418024
1565338977581057452,10465,1565338977521484787,map,1.70899772644,-0.0468740463257,0.0,0.0,0.0,0.0209483230109,0.999780559805
1565338977647397765,10466,1565338977587982183,map,1.71646690369,-0.0465469360352,0.0,0.0,0.0,0.0210708542846,0.999777984905
1565338977715211254,10467,1565338977654746506,map,1.72347831726,-0.046838760376,0.0,0.0,0.0,0.0209287471778,0.999780969784
1565338977781185577,10468,1565338977721638797,map,1.73030090332,-0.0461444854736,0.0,0.0,0.0,0.0208197950056,0.999783244577
1565338977848684848,10469,1565338977788002912,map,1.7381067276,-0.0455436706543,0.0,0.0,0.0,0.0204341623774,0.999791200705
1565338977916053859,10470,1565338977854721141,map,1.74515628815,-0.0455284118652,0.0,0.0,0.0,0.0201250994997,0.999797469676
1565338977982345629,10471,1565338977921833328,map,1.75095844269,-0.0453910827637,0.0,0.0,0.0,0.019941691845,0.999801144691
1565338978047468338,10472,1565338977988011453,map,1.75796794891,-0.0453405380249,0.0,0.0,0.0,0.0198010992159,0.999803939015
1565338978115224015,10473,1565338978054638589,map,1.76447296143,-0.044825553894,0.0,0.0,0.0,0.0194156058025,0.999811499359
1565338978182521202,10474,1565338978121721558,map,1.76983737946,-0.0450773239136,0.0,0.0,0.0,0.0194514400519,0.999810802842
1565338978247647817,10475,1565338978188224162,map,1.77623462677,-0.0448894500732,0.0,0.0,0.0,0.0190886008349,0.99981779606
1565338978317141671,10476,1565338978254754839,map,1.78088474274,-0.0449132919312,0.0,0.0,0.0,0.0189347704285,0.999820721164
1565338978381583650,10477,1565338978321974318,map,1.78568553925,-0.0446319580078,0.0,0.0,0.0,0.0187599810585,0.99982401607
1565338978448780004,10478,1565338978388713589,map,1.79053592682,-0.0446224212646,0.0,0.0,0.0,0.0185511683176,0.99982791227
1565338978515804223,10479,1565338978455739630,map,1.79533100128,-0.0437145233154,0.0,0.0,0.0,0.0184872402628,0.99982909637
1565338978583126515,10480,1565338978522784578,map,1.80026340485,-0.0437860488892,0.0,0.0,0.0,0.0180708093589,0.999836709593
1565338978649932192,10481,1565338978589197755,map,1.80504417419,-0.0427961349487,0.0,0.0,0.0,0.017962605379,0.999838659389
1565338978715907817,10482,1565338978655868380,map,1.81046581268,-0.0428018569946,0.0,0.0,0.0,0.0176654079093,0.999843954507
1565338978782612348,10483,1565338978722134318,map,1.81538391113,-0.0413913726807,0.0,0.0,0.0,0.0174544176524,0.999847660048
1565338978849217556,10484,1565338978788568380,map,1.82056236267,-0.0410137176514,0.0,0.0,0.0,0.0170140699341,0.999855250236
1565338978915462921,10485,1565338978855266141,map,1.82407188416,-0.0414247512817,0.0,0.0,0.0,0.0173113229365,0.999850147821
1565338978982333233,10486,1565338978922280724,map,1.82909202576,-0.0407762527466,0.0,0.0,0.0,0.0165458147302,0.999863108638
1565338979049050004,10487,1565338978988429578,map,1.83343791962,-0.0400733947754,0.0,0.0,0.0,0.0166760217359,0.999860945481
1565338979117411254,10488,1565338979055307755,map,1.83792972565,-0.040020942688,0.0,0.0,0.0,0.016711489007,0.999860353317
1565338979182682921,10489,1565338979121524005,map,1.8423614502,-0.0397176742554,0.0,0.0,0.0,0.0166944425943,0.999860638082
1565338979248370316,10490,1565338979188060724,map,1.84648418427,-0.0392122268677,0.0,0.0,0.0,0.0169328963782,0.999856628232
1565338979316116879,10491,1565338979255563745,map,1.85349750519,-0.0385341644287,0.0,0.0,0.0,0.0166964576955,0.999860604435
1565338979381884691,10492,1565338979321499318,map,1.8586807251,-0.0378751754761,0.0,0.0,0.0,0.0173803906016,0.999848949603
1565338979451229535,10493,1565338979388336870,map,1.86618804932,-0.0353488922119,0.0,0.0,0.0,0.0178534513912,0.999840614435
1565338979515395681,10494,1565338979454742442,map,1.87465190887,-0.033411026001,0.0,0.0,0.0,0.0186931852802,0.999825267146
1565338979583761723,10495,1565338979521537807,map,1.88287162781,-0.0304164886475,0.0,0.0,0.0,0.0196926268789,0.999806081421
1565338979649619223,10496,1565338979588198692,map,1.89359092712,-0.0266819000244,0.0,0.0,0.0,0.0208406595539,0.999782809869
1565338979715691879,10497,1565338979654972182,map,1.90295886993,-0.0242176055908,0.0,0.0,0.0,0.0224818736578,0.999747250737
1565338979781929066,10498,1565338979721524890,map,1.91326713562,-0.0199413299561,0.0,0.0,0.0,0.0243641632394,0.999703149715
1565338979848716306,10499,1565338979788258849,map,1.92340087891,-0.0158290863037,0.0,0.0,0.0,0.0264309631651,0.999650641067
1565338979916461410,10500,1565338979855355046,map,1.93220615387,-0.0138339996338,0.0,0.0,0.0,0.0293197722127,0.999570083064
1565338979983022764,10501,1565338979922815255,map,1.94078636169,-0.0103702545166,0.0,0.0,0.0,0.03138058955,0.999507508026
1565338980049340368,10502,1565338979988752963,map,1.94851779938,-0.00814723968506,0.0,0.0,0.0,0.0339343504179,0.99942406408
1565338980116155733,10503,1565338980054777078,map,1.9560546875,-0.00656318664551,0.0,0.0,0.0,0.035870398998,0.99935645016
1565338980181317556,10504,1565338980121642286,map,1.96377372742,-0.00439643859863,0.0,0.0,0.0,0.0374490239777,0.999298539278
1565338980247554899,10505,1565338980188029473,map,1.97010803223,-0.00346183776855,0.0,0.0,0.0,0.0394019346592,0.999223442252
1565338980315396201,10506,1565338980255192963,map,1.9767332077,-0.00210285186768,0.0,0.0,0.0,0.0406482963374,0.999173516465
1565338980381109326,10507,1565338980321442130,map,1.98336791992,0.000109672546387,0.0,0.0,0.0,0.0421584100581,0.999110939016
1565338980448099274,10508,1565338980388240723,map,1.9900560379,0.00229454040527,0.0,0.0,0.0,0.0434889422976,0.999053908404
1565338980517379691,10509,1565338980455259630,map,1.99734783173,0.00457572937012,0.0,0.0,0.0,0.0445602311053,0.999006699579
1565338980581749326,10510,1565338980521663327,map,2.00432872772,0.00703144073486,0.0,0.0,0.0,0.0456079307439,0.99895941692
1565338980648507035,10511,1565338980588052286,map,2.01107883453,0.00954246520996,0.0,0.0,0.0,0.0471836911437,0.998886229403
1565338980715374430,10512,1565338980654782650,map,2.01827049255,0.0108089447021,0.0,0.0,0.0,0.0482111921547,0.998837164382
1565338980781832139,10513,1565338980721504057,map,2.02341938019,0.0140075683594,0.0,0.0,0.0,0.0501811659673,0.998740131657
1565338980848255055,10514,1565338980788249682,map,2.03019809723,0.0163249969482,0.0,0.0,0.0,0.0509526501761,0.998701070111
1565338980914488389,10515,1565338980854989161,map,2.03578472137,0.0180206298828,0.0,0.0,0.0,0.0525328363058,0.998619197247
1565338980981432347,10516,1565338980921477546,map,2.04074859619,0.0195436477661,0.0,0.0,0.0,0.054320646079,0.998523543743
1565338981048810264,10517,1565338980988152025,map,2.04688739777,0.0214967727661,0.0,0.0,0.0,0.0552326972175,0.998473509492
1565338981115633284,10518,1565338981054788327,map,2.05146026611,0.0231113433838,0.0,0.0,0.0,0.0565755279356,0.998398322133
1565338981182404743,10519,1565338981121901088,map,2.05698204041,0.0241060256958,0.0,0.0,0.0,0.0580379419418,0.998314377987
1565338981248156618,10520,1565338981188064890,map,2.06308746338,0.0257263183594,0.0,0.0,0.0,0.0595812428852,0.9982234597
1565338981316049014,10521,1565338981255239421,map,2.06935882568,0.0273723602295,0.0,0.0,0.0,0.0612167606293,0.99812449535
1565338981384772139,10522,1565338981322854213,map,2.07686710358,0.0295333862305,0.0,0.0,0.0,0.062686933199,0.998033240131
1565338981449409274,10523,1565338981388862494,map,2.08517169952,0.0313053131104,0.0,0.0,0.0,0.0642664605808,0.997932774311
1565338981514857711,10524,1565338981454731244,map,2.09314727783,0.0333652496338,0.0,0.0,0.0,0.0658845081682,0.997827255382
1565338981581610732,10525,1565338981521508640,map,2.10146141052,0.0360107421875,0.0,0.0,0.0,0.0677643100617,0.997701357262
1565338981648439222,10526,1565338981588439160,map,2.11040019989,0.0377750396729,0.0,0.0,0.0,0.0691913296905,0.997603408122
1565338981715005368,10527,1565338981654707337,map,2.11900424957,0.0393619537354,0.0,0.0,0.0,0.0705158690246,0.997510657695
1565338981782642555,10528,1565338981721854108,map,2.12785339355,0.0421018600464,0.0,0.0,0.0,0.0726895993898,0.997354612032
1565338981848598857,10529,1565338981788082442,map,2.13514041901,0.0444822311401,0.0,0.0,0.0,0.0750118223238,0.99718264451
1565338981916869378,10530,1565338981855599942,map,2.14425373077,0.0465574264526,0.0,0.0,0.0,0.0767397422293,0.997051158147
1565338981984311878,10531,1565338981921493483,map,2.15318584442,0.0487470626831,0.0,0.0,0.0,0.078510905401,0.996913254869
1565338982048292295,10532,1565338981988195931,map,2.1642665863,0.0515260696411,0.0,0.0,0.0,0.0796662351638,0.996821594356
1565338982116011357,10533,1565338982054796139,map,2.174077034,0.0532808303833,0.0,0.0,0.0,0.0811486522277,0.996702009751
1565338982183155003,10534,1565338982122102077,map,2.18466186523,0.0560283660889,0.0,0.0,0.0,0.0829054149322,0.99655742041
1565338982247915732,10535,1565338982188110931,map,2.19566822052,0.0586490631104,0.0,0.0,0.0,0.0842916432057,0.996441126653
1565338982316516461,10536,1565338982254855150,map,2.2070016861,0.0613651275635,0.0,0.0,0.0,0.0859442718334,0.996299945869
1565338982383978857,10537,1565338982322573848,map,2.21924114227,0.0644197463989,0.0,0.0,0.0,0.0873707527356,0.996175863774
1565338982448402399,10538,1565338982388165671,map,2.23165893555,0.0668153762817,0.0,0.0,0.0,0.0887964979203,0.996049788895
1565338982515981461,10539,1565338982455173379,map,2.24334716797,0.0699825286865,0.0,0.0,0.0,0.0914989354066,0.995805174128
1565338982583911044,10540,1565338982521651920,map,2.25494098663,0.0735960006714,0.0,0.0,0.0,0.0942852726056,0.995545221158
1565338982649842971,10541,1565338982588356608,map,2.26616954803,0.0771007537842,0.0,0.0,0.0,0.096669801923,0.995316507145
1565338982717274638,10542,1565338982655926868,map,2.27732181549,0.0799531936646,0.0,0.0,0.0,0.0984249731857,0.995144474262
1565338982781855523,10543,1565338982722151556,map,2.28766155243,0.0836277008057,0.0,0.0,0.0,0.101830678411,0.994801745542
1565338982848886773,10544,1565338982788917441,map,2.29713916779,0.0864686965942,0.0,0.0,0.0,0.104744932578,0.994499119708
1565338982915540315,10545,1565338982855546608,map,2.3063659668,0.0890808105469,0.0,0.0,0.0,0.107614954891,0.994192648074
1565338982982475419,10546,1565338982921621452,map,2.31404399872,0.0917072296143,0.0,0.0,0.0,0.110527488482,0.993873067494
1565338983049709898,10547,1565338982988253587,map,2.32168292999,0.093373298645,0.0,0.0,0.0,0.113334023873,0.993556943025
1565338983116216825,10548,1565338983055475879,map,2.32990264893,0.0953903198242,0.0,0.0,0.0,0.116005467055,0.993248574937
1565338983181906148,10549,1565338983121776399,map,2.3372297287,0.0977048873901,0.0,0.0,0.0,0.119133287632,0.992878270373
1565338983248543544,10550,1565338983188454629,map,2.345454216,0.0995121002197,0.0,0.0,0.0,0.121553347867,0.992584899957
1565338983316397346,10551,1565338983254918431,map,2.35305118561,0.101469039917,0.0,0.0,0.0,0.124135554152,0.992265269066
1565338983381735419,10552,1565338983322129264,map,2.36018848419,0.103874206543,0.0,0.0,0.0,0.127518077601,0.991836246507
1565338983447853231,10553,1565338983388271243,map,2.36843204498,0.106758117676,0.0,0.0,0.0,0.130016915122,0.991511775917
1565338983515734169,10554,1565338983454915878,map,2.37498474121,0.108853340149,0.0,0.0,0.0,0.132817685982,0.991140485648
1565338983581867242,10555,1565338983521707389,map,2.38117313385,0.111233711243,0.0,0.0,0.0,0.135685898955,0.99075190478
1565338983648580315,10556,1565338983588371191,map,2.38730335236,0.11358165741,0.0,0.0,0.0,0.138517778618,0.990359947194
1565338983715511929,10557,1565338983654985462,map,2.39279270172,0.115613937378,0.0,0.0,0.0,0.141359988097,0.989958258597
1565338983781479065,10558,1565338983721651608,map,2.39865207672,0.11784362793,0.0,0.0,0.0,0.144540021587,0.989498955108
1565338983848675888,10559,1565338983788333639,map,2.40481281281,0.119787216187,0.0,0.0,0.0,0.147057014094,0.989128017299
1565338983915224950,10560,1565338983854890618,map,2.40993213654,0.121081352234,0.0,0.0,0.0,0.149809479452,0.988714883
1565338983983467919,10561,1565338983921587597,map,2.4159860611,0.122354507446,0.0,0.0,0.0,0.151922334036,0.988392434421
1565338984050124377,10562,1565338983988963066,map,2.4219493866,0.124011039734,0.0,0.0,0.0,0.153035468057,0.988220696766
1565338984118576096,10563,1565338984055549316,map,2.42736816406,0.125680923462,0.0,0.0,0.0,0.153634935224,0.988127677316
1565338984182320835,10564,1565338984122008378,map,2.43346405029,0.126856803894,0.0,0.0,0.0,0.152587645773,0.988289942455
1565338984250366929,10565,1565338984188618066,map,2.43918609619,0.129099845886,0.0,0.0,0.0,0.151040216787,0.98852761869
1565338984316002346,10566,1565338984255360722,map,2.44367313385,0.131294250488,0.0,0.0,0.0,0.148688776769,0.988884041566
1565338984381580783,10567,1565338984321634836,map,2.44994163513,0.132870674133,0.0,0.0,0.0,0.144537721416,0.9894992911
1565338984448880419,10568,1565338984388152597,map,2.45525932312,0.134150505066,0.0,0.0,0.0,0.139345051137,0.990243887496
1565338984516119064,10569,1565338984454866399,map,2.4590921402,0.136154174805,0.0,0.0,0.0,0.133425130666,0.991058895579
1565338984581950002,10570,1565338984521559263,map,2.46313285828,0.137857437134,0.0,0.0,0.0,0.127979494922,0.991776814046
1565338984647963127,10571,1565338984588262441,map,2.4666519165,0.139093399048,0.0,0.0,0.0,0.123183972503,0.992383851601
1565338984716703700,10572,1565338984654973638,map,2.47138786316,0.139989852905,0.0,0.0,0.0,0.118110021837,0.993000514976
1565338984782172033,10573,1565338984721692024,map,2.47582244873,0.141271591187,0.0,0.0,0.0,0.11396423415,0.993484853098
1565338984848481825,10574,1565338984788498430,map,2.48060321808,0.141871452332,0.0,0.0,0.0,0.1091556201,0.994024673034
1565338984915000418,10575,1565338984855008378,map,2.48500156403,0.142974853516,0.0,0.0,0.0,0.104992372787,0.994473027114
1565338984981864064,10576,1565338984921747649,map,2.48887443542,0.14380645752,0.0,0.0,0.0,0.100855193019,0.99490111571
1565338985047917710,10577,1565338984988324107,map,2.49303531647,0.144726753235,0.0,0.0,0.0,0.0967597760444,0.995307764332
1565338985117288231,10578,1565338985055070513,map,2.49761486053,0.146084785461,0.0,0.0,0.0,0.0928537899913,0.995679754582
1565338985182822241,10579,1565338985121678378,map,2.50126934052,0.147379875183,0.0,0.0,0.0,0.0893810539403,0.99599750361
1565338985249164793,10580,1565338985188609263,map,2.50560092926,0.148233413696,0.0,0.0,0.0,0.085724355557,0.996318892155
1565338985316789220,10581,1565338985255005617,map,2.50966739655,0.149671554565,0.0,0.0,0.0,0.0823915095813,0.996600039709
1565338985381904533,10582,1565338985321702649,map,2.51334190369,0.151753425598,0.0,0.0,0.0,0.0795473299343,0.996831090155
1565338985449722814,10583,1565338985388296138,map,2.51790428162,0.152349472046,0.0,0.0,0.0,0.076265127088,0.997087574083
1565338985516039689,10584,1565338985455461607,map,2.52177906036,0.153657913208,0.0,0.0,0.0,0.0737576634566,0.997276193981
1565338985582387241,10585,1565338985522552648,map,2.52487468719,0.155041694641,0.0,0.0,0.0,0.0718763110768,0.997413553099
1565338985648477710,10586,1565338985588877336,map,2.52870178223,0.156257629395,0.0,0.0,0.0,0.069792624505,0.997561521694
1565338985716582293,10587,1565338985655041867,map,2.5330915451,0.156946182251,0.0,0.0,0.0,0.0676746028605,0.997707446162
1565338985782457189,10588,1565338985721704055,map,2.53643798828,0.158325195312,0.0,0.0,0.0,0.0661418102954,0.997810232926
1565338985848872553,10589,1565338985788530357,map,2.54145908356,0.158495903015,0.0,0.0,0.0,0.0633508657728,0.997991316498
1565338985916389793,10590,1565338985855037336,map,2.54396057129,0.160174369812,0.0,0.0,0.0,0.061960058483,0.998078629745
1565338985982115626,10591,1565338985921897075,map,2.54799175262,0.160690307617,0.0,0.0,0.0,0.0603126710471,0.998179533807
1565338986047814480,10592,1565338985988328638,map,2.55020427704,0.162013053894,0.0,0.0,0.0,0.0593250690376,0.998238717033
1565338986114474637,10593,1565338986054951086,map,2.5544462204,0.163118362427,0.0,0.0,0.0,0.0577370155453,0.998331827118
1565338986181495053,10594,1565338986121629055,map,2.55794811249,0.164178848267,0.0,0.0,0.0,0.0564841253216,0.998403497383
1565338986248319168,10595,1565338986188259159,map,2.56091403961,0.165270805359,0.0,0.0,0.0,0.0555044977673,0.998458437156
1565338986315660835,10596,1565338986255133013,map,2.56432914734,0.166940689087,0.0,0.0,0.0,0.0544859044478,0.998514539812
1565338986381876980,10597,1565338986321813638,map,2.56827354431,0.168336868286,0.0,0.0,0.0,0.0534734965205,0.998569269089
1565338986448099897,10598,1565338986388286815,map,2.57122039795,0.169778823853,0.0,0.0,0.0,0.0527646855724,0.998606973717
1565338986515023230,10599,1565338986454971398,map,2.5740480423,0.171209335327,0.0,0.0,0.0,0.051927741166,0.998650844739
1565338986581926147,10600,1565338986521897388,map,2.57758808136,0.172166824341,0.0,0.0,0.0,0.0510631807547,0.998695424827
1565338986648160157,10601,1565338986588355461,map,2.58107852936,0.172983169556,0.0,0.0,0.0,0.0503774078821,0.998730252258
1565338986714713803,10602,1565338986654917648,map,2.58425140381,0.17421913147,0.0,0.0,0.0,0.0493847526059,0.998779828696
1565338986781776147,10603,1565338986721657388,map,2.58704853058,0.175386428833,0.0,0.0,0.0,0.0490193424031,0.998797829428
1565338986848592814,10604,1565338986788409679,map,2.58927631378,0.176376342773,0.0,0.0,0.0,0.0483885992478,0.998828585626
1565338986915511824,10605,1565338986855510408,map,2.59152507782,0.177960395813,0.0,0.0,0.0,0.0477741498269,0.998858163409
1565338986982972345,10606,1565338986922326554,map,2.59373950958,0.179502487183,0.0,0.0,0.0,0.0478180468499,0.998856062902
1565338987049354793,10607,1565338986989335721,map,2.59770965576,0.17993927002,0.0,0.0,0.0,0.0468700077844,0.998900997282
1565338987116635001,10608,1565338987055632804,map,2.60048389435,0.182438850403,0.0,0.0,0.0,0.0469223463445,0.9988985401
1565338987181896303,10609,1565338987121848690,map,2.60384941101,0.183485031128,0.0,0.0,0.0,0.046570244719,0.99891501756
1565338987249502709,10610,1565338987188519210,map,2.60562419891,0.185702323914,0.0,0.0,0.0,0.0464509225563,0.998920573316
1565338987314866251,10611,1565338987255198950,map,2.60956287384,0.187072753906,0.0,0.0,0.0,0.0458418426787,0.998948710125
1565338987382598074,10612,1565338987321773169,map,2.61248874664,0.187906265259,0.0,0.0,0.0,0.0449667217909,0.998988485385
1565338987449746251,10613,1565338987388514939,map,2.61312866211,0.189605712891,0.0,0.0,0.0,0.0453184028368,0.9989725934
1565338987517331928,10614,1565338987455102544,map,2.61477947235,0.19070148468,0.0,0.0,0.0,0.0454751093603,0.99896547209
1565338987582663907,10615,1565338987522055929,map,2.61715698242,0.191164016724,0.0,0.0,0.0,0.0447523461974,0.998998111865
1565338987648737761,10616,1565338987588614679,map,2.61822605133,0.192377090454,0.0,0.0,0.0,0.0450531018724,0.998984593481
1565338987716350001,10617,1565338987655163637,map,2.61736011505,0.1934633255,0.0,0.0,0.0,0.0459882112659,0.998941982512
1565338987782380417,10618,1565338987722260564,map,2.61816883087,0.194270133972,0.0,0.0,0.0,0.0458842216439,0.99894676445
1565338987848244376,10619,1565338987788439731,map,2.6178483963,0.195831298828,0.0,0.0,0.0,0.0462062886551,0.998931919046
1565338987915389584,10620,1565338987855024731,map,2.61710834503,0.196151733398,0.0,0.0,0.0,0.0467994723937,0.998904304417
1565338987983658178,10621,1565338987921737700,map,2.61585235596,0.197438240051,0.0,0.0,0.0,0.0477755080053,0.998858098448
1565338988048103073,10622,1565338987988519991,map,2.61451530457,0.197509765625,0.0,0.0,0.0,0.0486113215369,0.998817770876
1565338988114634636,10623,1565338988055126970,map,2.61257648468,0.198620796204,0.0,0.0,0.0,0.0494448685902,0.998776854443
1565338988181514480,10624,1565338988121845148,map,2.61005878448,0.198698043823,0.0,0.0,0.0,0.0509127743373,0.998703103735
1565338988247943282,10625,1565338988188510981,map,2.6085767746,0.198420524597,0.0,0.0,0.0,0.0510646912493,0.998695347595
1565338988316974584,10626,1565338988256471606,map,2.60346794128,0.19939994812,0.0,0.0,0.0,0.0528852834174,0.998600594231
1565338988383448855,10627,1565338988322761554,map,2.59977531433,0.19949054718,0.0,0.0,0.0,0.0538623027193,0.998548372562
1565338988449617188,10628,1565338988389505616,map,2.59696292877,0.199168205261,0.0,0.0,0.0,0.0544989570688,0.998513827485
1565338988517541511,10629,1565338988455722074,map,2.59380149841,0.199508666992,0.0,0.0,0.0,0.0554501960108,0.99846145432
1565338988581910625,10630,1565338988521932179,map,2.58873081207,0.200284957886,0.0,0.0,0.0,0.0571526793645,0.998365449743
1565338988648394792,10631,1565338988588369783,map,2.58539104462,0.199792861938,0.0,0.0,0.0,0.0581184880901,0.998309692101
1565338988715679479,10632,1565338988655087387,map,2.58002281189,0.200630187988,0.0,0.0,0.0,0.0594274230228,0.998232628896
1565338988782367500,10633,1565338988722000564,map,2.57614135742,0.200947761536,0.0,0.0,0.0,0.0603126673286,0.998179534032
1565338988848600886,10634,1565338988788385251,map,2.57104969025,0.201292037964,0.0,0.0,0.0,0.0617707709555,0.99809036257
1565338988915701198,10635,1565338988855044210,map,2.56632995605,0.200991630554,0.0,0.0,0.0,0.0629626475441,0.998015884149
1565338988981796511,10636,1565338988921796710,map,2.56126403809,0.201253890991,0.0,0.0,0.0,0.0645770917875,0.997912721242
1565338989049253854,10637,1565338988988546137,map,2.55568408966,0.201707839966,0.0,0.0,0.0,0.0661595558768,0.997809056466
1565338989116935365,10638,1565338989055023585,map,2.55039787292,0.20177936554,0.0,0.0,0.0,0.0673960223898,0.997726303235
1565338989181143906,10639,1565338989121707960,map,2.54540061951,0.201609611511,0.0,0.0,0.0,0.0684218066383,0.99765648215
1565338989250845886,10640,1565338989188894314,map,2.53887462616,0.201802253723,0.0,0.0,0.0,0.0697931670711,0.997561483734
1565338989315007031,10641,1565338989254923376,map,2.53287506104,0.20122718811,0.0,0.0,0.0,0.0709933988097,0.997476785357
1565338989381570990,10642,1565338989321698376,map,2.52603435516,0.201902389526,0.0,0.0,0.0,0.0728915466773,0.997339873074
1565338989448770417,10643,1565338989388294210,map,2.52036380768,0.201665878296,0.0,0.0,0.0,0.0746693435415,0.997208347907
1565338989516093854,10644,1565338989455310043,map,2.51531028748,0.200609207153,0.0,0.0,0.0,0.0758799710552,0.997116959034
1565338989583080000,10645,1565338989522314366,map,2.50857543945,0.200881958008,0.0,0.0,0.0,0.0779545598438,0.996956913111
1565338989648221771,10646,1565338989588323689,map,2.50305652618,0.20093536377,0.0,0.0,0.0,0.0790963041773,0.996866979424
1565338989716631667,10647,1565338989655606605,map,2.49690246582,0.200398445129,0.0,0.0,0.0,0.0810233525428,0.996712203368
1565338989782885729,10648,1565338989722469939,map,2.49063968658,0.200658798218,0.0,0.0,0.0,0.0831724496096,0.996535169287
1565338989850137187,10649,1565338989788998741,map,2.48412132263,0.20073223114,0.0,0.0,0.0,0.084908507416,0.996388752129
1565338989915784323,10650,1565338989854975251,map,2.47731113434,0.200798034668,0.0,0.0,0.0,0.0870398860588,0.99620482745
1565338989983206041,10651,1565338989922826501,map,2.47089385986,0.200563430786,0.0,0.0,0.0,0.0890431370902,0.996027770565
1565338990048541823,10652,1565338989988472647,map,2.46476554871,0.19979095459,0.0,0.0,0.0,0.090758053284,0.995872971701
1565338990115089896,10653,1565338990054972699,map,2.45762634277,0.199902534485,0.0,0.0,0.0,0.0928352736681,0.995681481179
1565338990182965885,10654,1565338990121676240,map,2.45078277588,0.199617385864,0.0,0.0,0.0,0.095027333951,0.995474663566
1565338990248677708,10655,1565338990188658584,map,2.44461631775,0.198930740356,0.0,0.0,0.0,0.0969219914617,0.995291981064
1565338990314903437,10656,1565338990254883845,map,2.43756389618,0.198213577271,0.0,0.0,0.0,0.0991427582238,0.995073220166
1565338990382031875,10657,1565338990321677334,map,2.43078613281,0.19792175293,0.0,0.0,0.0,0.101513653573,0.994834146046
1565338990447980989,10658,1565338990388239001,map,2.42253684998,0.197034835815,0.0,0.0,0.0,0.104266682941,0.994549374756
1565338990515453229,10659,1565338990455218272,map,2.41608905792,0.195970535278,0.0,0.0,0.0,0.106132714116,0.994351973395
1565338990581555833,10660,1565338990521583272,map,2.40699291229,0.195490837097,0.0,0.0,0.0,0.109120093156,0.994028573669
1565338990648099739,10661,1565338990588271188,map,2.39976787567,0.194668769836,0.0,0.0,0.0,0.111277480225,0.993789375268
1565338990716216250,10662,1565338990654831501,map,2.39301872253,0.193203926086,0.0,0.0,0.0,0.113125024437,0.993580761109
1565338990782331979,10663,1565338990721612022,map,2.3841714859,0.191502571106,0.0,0.0,0.0,0.116148091427,0.993231906887
1565338990847964583,10664,1565338990788213688,map,2.37707805634,0.19031047821,0.0,0.0,0.0,0.118205335271,0.992989173513
1565338990914778749,10665,1565338990854848949,map,2.36863422394,0.18866443634,0.0,0.0,0.0,0.12123054252,0.992624377879
1565338990981560885,10666,1565338990921776032,map,2.35953998566,0.18695640564,0.0,0.0,0.0,0.124024289439,0.992279182302
1565338991049505156,10667,1565338990989025771,map,2.35141563416,0.185772895813,0.0,0.0,0.0,0.126534142923,0.991962252646
1565338991115465051,10668,1565338991055501553,map,2.3449382782,0.183995246887,0.0,0.0,0.0,0.128454775604,0.991715367747
1565338991182056979,10669,1565338991122137073,map,2.33661746979,0.18187713623,0.0,0.0,0.0,0.13080598935,0.991407985216
1565338991249280833,10670,1565338991188970511,map,2.32999706268,0.180636405945,0.0,0.0,0.0,0.13269510107,0.991156904911
1565338991314926510,10671,1565338991254888323,map,2.32270812988,0.179081916809,0.0,0.0,0.0,0.134691577971,0.990887571233
1565338991382128489,10672,1565338991321979834,map,2.31672477722,0.177612304688,0.0,0.0,0.0,0.136369956082,0.990657980878
1565338991448341510,10673,1565338991388312230,map,2.31012439728,0.175912857056,0.0,0.0,0.0,0.138197208665,0.990404731167
1565338991517187030,10674,1565338991455581657,map,2.30434417725,0.175199508667,0.0,0.0,0.0,0.139697971116,0.990194161196
1565338991581466510,10675,1565338991521615927,map,2.29847717285,0.174237251282,0.0,0.0,0.0,0.141511956668,0.989936546512
1565338991647820103,10676,1565338991588224938,map,2.29258537292,0.172842025757,0.0,0.0,0.0,0.142739575485,0.989760280871
1565338991715556041,10677,1565338991655172021,map,2.28789615631,0.171313285828,0.0,0.0,0.0,0.143573895941,0.98963959925
1565338991782245260,10678,1565338991721539729,map,2.28235626221,0.170651435852,0.0,0.0,0.0,0.144257124188,0.989540237747
1565338991847958957,10679,1565338991788241917,map,2.27830219269,0.169097900391,0.0,0.0,0.0,0.144517565397,0.989502235112
1565338991914547916,10680,1565338991854868011,map,2.27277374268,0.168210983276,0.0,0.0,0.0,0.144638883968,0.989484508845
1565338991981750520,10681,1565338991921831552,map,2.26892089844,0.166674613953,0.0,0.0,0.0,0.143872673886,0.989596207404
1565338992049178437,10682,1565338991988224781,map,2.26407718658,0.16582775116,0.0,0.0,0.0,0.143351909064,0.98967177901
1565338992114509322,10683,1565338992054830615,map,2.25957202911,0.164716720581,0.0,0.0,0.0,0.141730153039,0.989905330685
1565338992181476405,10684,1565338992121864156,map,2.25608539581,0.163729667664,0.0,0.0,0.0,0.139405785681,0.990235339159
1565338992250540311,10685,1565338992188196292,map,2.25050354004,0.163314819336,0.0,0.0,0.0,0.137147957506,0.990550573041
1565338992315903697,10686,1565338992254816292,map,2.24619579315,0.162800788879,0.0,0.0,0.0,0.134468085824,0.990917924903
1565338992382177603,10687,1565338992321616969,map,2.24210929871,0.161926269531,0.0,0.0,0.0,0.13102680008,0.991378826514
1565338992450233280,10688,1565338992388343219,map,2.23930358887,0.161149978638,0.0,0.0,0.0,0.126360311842,0.991984410962
1565338992516690572,10689,1565338992455430510,map,2.23579406738,0.161010742188,0.0,0.0,0.0,0.122034414825,0.992525869486
1565338992583406301,10690,1565338992522163062,map,2.23136425018,0.159892082214,0.0,0.0,0.0,0.117992193603,0.993014522678
1565338992650696040,10691,1565338992588794885,map,2.2287607193,0.159055709839,0.0,0.0,0.0,0.113927653196,0.993489048675
1565338992717152447,10692,1565338992655232542,map,2.22580432892,0.158122062683,0.0,0.0,0.0,0.109662713678,0.993968857273
1565338992782359426,10693,1565338992721630927,map,2.22252464294,0.157404899597,0.0,0.0,0.0,0.106236810361,0.994340857113
1565338992849925884,10694,1565338992788299208,map,2.21876525879,0.156644821167,0.0,0.0,0.0,0.102457433891,0.994737389586
1565338992917007967,10695,1565338992854984937,map,2.21685791016,0.155240058899,0.0,0.0,0.0,0.098390711166,0.995147862358
1565338992981989686,10696,1565338992921869208,map,2.2126750946,0.154611587524,0.0,0.0,0.0,0.0952179678682,0.995456447362
1565338993049688905,10697,1565338992988423427,map,2.2090883255,0.153387069702,0.0,0.0,0.0,0.0916615361502,0.995790220273
1565338993115730572,10698,1565338993054895666,map,2.20617675781,0.152667045593,0.0,0.0,0.0,0.0883437096047,0.996090050635
1565338993181832030,10699,1565338993121685354,map,2.20285797119,0.151844978333,0.0,0.0,0.0,0.0852414025155,0.996360328043
1565338993249613696,10700,1565338993188218948,map,2.19980335236,0.151382446289,0.0,0.0,0.0,0.0820673559874,0.996626785252
1565338993315786457,10701,1565338993254884364,map,2.19714355469,0.150827407837,0.0,0.0,0.0,0.0788264325977,0.996888355597
1565338993381656978,10702,1565338993321621864,map,2.19456958771,0.148931503296,0.0,0.0,0.0,0.0755743565982,0.997140168996
1565338993447939113,10703,1565338993388384677,map,2.19273090363,0.147852897644,0.0,0.0,0.0,0.0725505893819,0.997364733676
1565338993515393280,10704,1565338993454838583,map,2.18946933746,0.146969795227,0.0,0.0,0.0,0.0696162151035,0.997573848191
1565338993581685832,10705,1565338993521756395,map,2.18693637848,0.145742416382,0.0,0.0,0.0,0.0666728973986,0.997774886812
1565338993647641405,10706,1565338993588216083,map,2.18470096588,0.144041061401,0.0,0.0,0.0,0.0637636856713,0.997965025634
1565338993718010207,10707,1565338993655144781,map,2.18194293976,0.141344070435,0.0,0.0,0.0,0.0603945709945,0.998174581821
1565338993782560103,10708,1565338993722276968,map,2.17841434479,0.14087677002,0.0,0.0,0.0,0.0583899278295,0.998293852695
1565338993848030728,10709,1565338993788279572,map,2.17524719238,0.139248847961,0.0,0.0,0.0,0.0557807613123,0.998443041273
1565338993916582863,10710,1565338993855466239,map,2.17160511017,0.137895584106,0.0,0.0,0.0,0.0531949996083,0.998584143684
1565338993982275259,10711,1565338993922146552,map,2.16735172272,0.136995315552,0.0,0.0,0.0,0.05113240668,0.998691882908
1565338994049277446,10712,1565338993989049781,map,2.164103508,0.135406494141,0.0,0.0,0.0,0.0488905870224,0.99880414021
1565338994116054894,10713,1565338994054863479,map,2.16106700897,0.133898735046,0.0,0.0,0.0,0.0468096238481,0.998903828762
1565338994182798436,10714,1565338994121749729,map,2.15855979919,0.132810592651,0.0,0.0,0.0,0.0445982173418,0.999005004497
1565338994248791925,10715,1565338994188169572,map,2.1549577713,0.131014823914,0.0,0.0,0.0,0.0427010235846,0.999087895325
1565338994316570727,10716,1565338994254885614,map,2.15160179138,0.129223823547,0.0,0.0,0.0,0.0405386732448,0.999177970119
1565338994381346300,10717,1565338994321610353,map,2.14743804932,0.127932548523,0.0,0.0,0.0,0.0387986795159,0.999247047765
1565338994448425675,10718,1565338994388802124,map,2.14319324493,0.125961303711,0.0,0.0,0.0,0.0366159503679,0.999329411245
1565338994515416977,10719,1565338994455025458,map,2.1372833252,0.124168395996,0.0,0.0,0.0,0.0353351535683,0.999375518473
1565338994581533488,10720,1565338994521643895,map,2.13090801239,0.121935844421,0.0,0.0,0.0,0.0339959981844,0.999421968994
1565338994648212133,10721,1565338994588266760,map,2.12432575226,0.119779586792,0.0,0.0,0.0,0.0327301307484,0.999464225744
1565338994715240623,10722,1565338994654910301,map,2.11827850342,0.11693572998,0.0,0.0,0.0,0.0312656462677,0.999511110175
1565338994782934217,10723,1565338994721723218,map,2.11069488525,0.11555480957,0.0,0.0,0.0,0.0305349481368,0.999533699753
1565338994847778019,10724,1565338994788196239,map,2.10314464569,0.113334655762,0.0,0.0,0.0,0.0296181966259,0.999561284979
1565338994914778956,10725,1565338994855208530,map,2.09583377838,0.111554145813,0.0,0.0,0.0,0.0284984972733,0.999593835342
1565338994981824790,10726,1565338994921705718,map,2.08802509308,0.10887336731,0.0,0.0,0.0,0.0276102759026,0.999618763662
1565338995049722498,10727,1565338994988361916,map,2.0808763504,0.106205940247,0.0,0.0,0.0,0.0273247842805,0.999626608371
1565338995116346248,10728,1565338995055060926,map,2.07324504852,0.104156494141,0.0,0.0,0.0,0.0264508995341,0.999650113747
1565338995181367862,10729,1565338995121898791,map,2.06568717957,0.101481437683,0.0,0.0,0.0,0.0263446391435,0.999652919762
1565338995248111560,10730,1565338995188284364,map,2.05774784088,0.0997829437256,0.0,0.0,0.0,0.0261234181632,0.999658725278
1565338995316466612,10731,1565338995255455145,map,2.04976177216,0.0973787307739,0.0,0.0,0.0,0.02613617665,0.999658391787
1565338995382396821,10732,1565338995322406707,map,2.04308414459,0.0950412750244,0.0,0.0,0.0,0.0252437725429,0.999681325197
1565338995448727914,10733,1565338995388961811,map,2.0337305069,0.0933561325073,0.0,0.0,0.0,0.0260204619349,0.999661410459
1565338995516631039,10734,1565338995454950197,map,2.02624320984,0.0909833908081,0.0,0.0,0.0,0.0259557531533,0.999663092686
1565338995582947706,10735,1565338995521681082,map,2.01730060577,0.0881910324097,0.0,0.0,0.0,0.0266663073529,0.999644390797
1565338995648794685,10736,1565338995588535249,map,2.00907611847,0.0864133834839,0.0,0.0,0.0,0.0274157106167,0.999624118762
1565338995716195727,10737,1565338995655007957,map,2.00286197662,0.0839891433716,0.0,0.0,0.0,0.027066862384,0.999633625365
1565338995782302081,10738,1565338995721746655,map,1.99271392822,0.0825777053833,0.0,0.0,0.0,0.0288191092965,0.999584643209
1565338995849199841,10739,1565338995788520353,map,1.98547649384,0.0807590484619,0.0,0.0,0.0,0.0295411280306,0.99956356564
1565338995916277393,10740,1565338995855163842,map,1.97704410553,0.0783157348633,0.0,0.0,0.0,0.0306221350186,0.999531032458
1565338995982385518,10741,1565338995921654311,map,1.96905040741,0.0762662887573,0.0,0.0,0.0,0.0313840784277,0.999507398482
1565338996050236195,10742,1565338995988412905,map,1.96038150787,0.0743894577026,0.0,0.0,0.0,0.0327424213407,0.99946382318
1565338996116191195,10743,1565338996055030717,map,1.95198154449,0.0720901489258,0.0,0.0,0.0,0.0336333214591,0.999434239802
1565338996181819112,10744,1565338996121593738,map,1.94240093231,0.0705127716064,0.0,0.0,0.0,0.0351125455116,0.999383364454
1565338996248558539,10745,1565338996188211863,map,1.93456745148,0.0688428878784,0.0,0.0,0.0,0.0362893590305,0.999341324284
1565338996316466508,10746,1565338996255052384,map,1.92680454254,0.0665187835693,0.0,0.0,0.0,0.0373221213346,0.999303286925
1565338996381713591,10747,1565338996321888530,map,1.91840076447,0.0651168823242,0.0,0.0,0.0,0.0385796587161,0.999255527847
1565338996448277029,10748,1565338996388231967,map,1.90990447998,0.0630216598511,0.0,0.0,0.0,0.0401763973037,0.999192602605
1565338996514930258,10749,1565338996454897332,map,1.90192985535,0.0611114501953,0.0,0.0,0.0,0.0414410214352,0.999140951889
1565338996581327289,10750,1565338996521587123,map,1.89324474335,0.0596218109131,0.0,0.0,0.0,0.0427444840822,0.999086036876
1565338996648508174,10751,1565338996588478426,map,1.88502025604,0.0574970245361,0.0,0.0,0.0,0.0440981351367,0.999027204073
1565338996715463487,10752,1565338996655468998,map,1.87585163116,0.0555753707886,0.0,0.0,0.0,0.0453158610775,0.998972708704
1565338996782142341,10753,1565338996722300613,map,1.86774253845,0.0547351837158,0.0,0.0,0.0,0.0463646410373,0.998924581769
1565338996848530414,10754,1565338996788736342,map,1.85950469971,0.0532560348511,0.0,0.0,0.0,0.0468130510793,0.998903668153
1565338996918015883,10755,1565338996855420873,map,1.85061454773,0.0515308380127,0.0,0.0,0.0,0.0481293792807,0.998841109912
1565338996982141091,10756,1565338996922167175,map,1.84211540222,0.0496187210083,0.0,0.0,0.0,0.0493645080232,0.998780829485
1565338997048686716,10757,1565338996988849623,map,1.83343029022,0.0473070144653,0.0,0.0,0.0,0.0504586573071,0.998726150605
1565338997116051039,10758,1565338997056036446,map,1.82503986359,0.0464200973511,0.0,0.0,0.0,0.051179674523,0.998689461703
1565338997182567497,10759,1565338997122571446,map,1.81673908234,0.0441761016846,0.0,0.0,0.0,0.0522170230153,0.998635760679
1565338997249219789,10760,1565338997188508269,map,1.80886554718,0.0422058105469,0.0,0.0,0.0,0.0532016733155,0.99858378815
1565338997315756507,10761,1565338997254917332,map,1.7994966507,0.0411348342896,0.0,0.0,0.0,0.0541240057645,0.998534221747
1565338997382661872,10762,1565338997321852384,map,1.79015636444,0.0389881134033,0.0,0.0,0.0,0.0553848432445,0.998465081582
1565338997447957914,10763,1565338997388335456,map,1.7811870575,0.0368013381958,0.0,0.0,0.0,0.0564727180934,0.998404142675
1565338997514757132,10764,1565338997455183842,map,1.77293109894,0.0358867645264,0.0,0.0,0.0,0.0569041680158,0.998379645056
1565338997582539268,10765,1565338997521525717,map,1.76371479034,0.0333375930786,0.0,0.0,0.0,0.0580253419283,0.998315110421
1565338997648830257,10766,1565338997588363581,map,1.7548456192,0.0326356887817,0.0,0.0,0.0,0.0589814586883,0.998259078361
1565338997717333851,10767,1565338997654868686,map,1.74612426758,0.0301179885864,0.0,0.0,0.0,0.0598301094472,0.998208574399
1565338997781862861,10768,1565338997721566133,map,1.73859500885,0.0292358398438,0.0,0.0,0.0,0.0604915080276,0.99816871192
1565338997848374788,10769,1565338997788433217,map,1.72909069061,0.0275363922119,0.0,0.0,0.0,0.0615661881604,0.998103002939
1565338997914841351,10770,1565338997854924675,map,1.72065544128,0.0254392623901,0.0,0.0,0.0,0.062685498065,0.998033330271
1565338997981682184,10771,1565338997921603008,map,1.71168994904,0.0237827301025,0.0,0.0,0.0,0.0634115328364,0.9979874636
1565338998049681715,10772,1565338997989129050,map,1.70224761963,0.0219221115112,0.0,0.0,0.0,0.0647599552444,0.997900870927
1565338998118999632,10773,1565338998056187123,map,1.69398021698,0.0198621749878,0.0,0.0,0.0,0.06573803506,0.997836915907
1565338998183375049,10774,1565338998123034883,map,1.68511486053,0.0179004669189,0.0,0.0,0.0,0.0665221871118,0.997784946079
1565338998249347236,10775,1565338998189379623,map,1.67619132996,0.015625,0.0,0.0,0.0,0.0674077675367,0.997725509785
1565338998316959892,10776,1565338998255350144,map,1.66676902771,0.0133266448975,0.0,0.0,0.0,0.0687535875941,0.997633672343
1565338998382363903,10777,1565338998322610560,map,1.65820884705,0.0115509033203,0.0,0.0,0.0,0.0694202706494,0.99758750294
1565338998447648955,10778,1565338998388173581,map,1.64870262146,0.00929832458496,0.0,0.0,0.0,0.0705860569748,0.997505693498
1565338998515258174,10779,1565338998454910039,map,1.63962268829,0.00717163085938,0.0,0.0,0.0,0.0716994596309,0.997426281731
1565338998581508434,10780,1565338998521697071,map,1.6302947998,0.00471782684326,0.0,0.0,0.0,0.072861637831,0.99734205854
1565338998647686924,10781,1565338998588230039,map,1.62159061432,0.00344085693359,0.0,0.0,0.0,0.0737371409893,0.997277711592
1565338998714806819,10782,1565338998654870404,map,1.6125087738,0.00124168395996,0.0,0.0,0.0,0.0746496397473,0.997209823099
1565338998781749267,10783,1565338998721614414,map,1.60301208496,-0.000542640686035,0.0,0.0,0.0,0.0755758870284,0.997140053002
1565338998848822080,10784,1565338998789107123,map,1.59388256073,-0.00289440155029,0.0,0.0,0.0,0.0765759403436,0.997063751904
1565338998915316246,10785,1565338998854864310,map,1.58482074738,-0.00468158721924,0.0,0.0,0.0,0.0774243522118,0.996998229529
1565338998981987132,10786,1565338998921621810,map,1.57607269287,-0.00666427612305,0.0,0.0,0.0,0.0782824383295,0.996931221223
1565338999049833121,10787,1565338998989099675,map,1.56665229797,-0.00929641723633,0.0,0.0,0.0,0.0795666103345,0.996829551388
1565338999117769892,10788,1565338999055795925,map,1.55640411377,-0.0116062164307,0.0,0.0,0.0,0.0805717491849,0.996748811503
1565338999182170778,10789,1565338999121593372,map,1.5468082428,-0.0145082473755,0.0,0.0,0.0,0.0817726363648,0.996651010104
1565338999248613746,10790,1565338999188187852,map,1.5380525589,-0.0162982940674,0.0,0.0,0.0,0.0823487252212,0.996603575879
1565338999317431715,10791,1565338999255658841,map,1.5291929245,-0.0190105438232,0.0,0.0,0.0,0.0835399475683,0.996504429072
1565338999382141663,10792,1565338999321947747,map,1.51995277405,-0.0204219818115,0.0,0.0,0.0,0.0844283268716,0.996429554771
1565338999448683486,10793,1565338999388341654,map,1.51022148132,-0.022759437561,0.0,0.0,0.0,0.0859781429922,0.996297023446
1565338999517203694,10794,1565338999455426133,map,1.50142860413,-0.0250730514526,0.0,0.0,0.0,0.0873278232943,0.996179628018
1565338999582544527,10795,1565338999522372226,map,1.49226379395,-0.0273399353027,0.0,0.0,0.0,0.0882759664121,0.99609605649
1565338999649313329,10796,1565338999588955820,map,1.48201942444,-0.0290803909302,0.0,0.0,0.0,0.0894562334019,0.995990754127
1565338999715222652,10797,1565338999654812956,map,1.47277641296,-0.0319032669067,0.0,0.0,0.0,0.0906625818908,0.995881667792
1565338999782586663,10798,1565338999721603997,map,1.46224975586,-0.0338764190674,0.0,0.0,0.0,0.0916304421742,0.995793081954
1565338999850388277,10799,1565338999788401862,map,1.45389080048,-0.0359792709351,0.0,0.0,0.0,0.0923941587853,0.995722511256
1565338999917906767,10800,1565338999854986497,map,1.44288825989,-0.0394124984741,0.0,0.0,0.0,0.0939812813243,0.995573964485
1565338999983938225,10801,1565338999921674935,map,1.43365764618,-0.0414991378784,0.0,0.0,0.0,0.09483199417,0.995493291229
1565339000049855204,10802,1565338999988350091,map,1.42573356628,-0.0442218780518,0.0,0.0,0.0,0.0964727133461,0.995335629614
1565339000116969058,10803,1565339000054962747,map,1.41404724121,-0.0466213226318,0.0,0.0,0.0,0.0978115682899,0.995204952313
1565339000181440100,10804,1565339000121648060,map,1.40553474426,-0.0487852096558,0.0,0.0,0.0,0.0989241726092,0.995094974399
1565339000247956090,10805,1565339000188573320,map,1.39559173584,-0.0511226654053,0.0,0.0,0.0,0.100061895211,0.994981214459
1565339000315438173,10806,1565339000255080299,map,1.38581848145,-0.0533695220947,0.0,0.0,0.0,0.101164270952,0.994869735334
1565339000382058642,10807,1565339000321625143,map,1.37438774109,-0.055811882019,0.0,0.0,0.0,0.102920188798,0.994689617287
1565339000449825933,10808,1565339000388305351,map,1.36393547058,-0.0584306716919,0.0,0.0,0.0,0.104324843619,0.994543275581
1565339000518344371,10809,1565339000454923632,map,1.35298156738,-0.0606899261475,0.0,0.0,0.0,0.105339615387,0.994436305366
1565339000581774527,10810,1565339000522359882,map,1.34138202667,-0.0642709732056,0.0,0.0,0.0,0.10683504297,0.994276759053
1565339000648198537,10811,1565339000588298164,map,1.33062267303,-0.067063331604,0.0,0.0,0.0,0.108123519454,0.994137467627
1565339000714912548,10812,1565339000654996914,map,1.31764984131,-0.0705289840698,0.0,0.0,0.0,0.109794399896,0.993954319751
1565339000782551610,10813,1565339000721723997,map,1.30538749695,-0.07448387146,0.0,0.0,0.0,0.111776560945,0.993733364854
1565339000849880100,10814,1565339000788983841,map,1.29152965546,-0.0792226791382,0.0,0.0,0.0,0.114109949463,0.993468127035
1565339000916864787,10815,1565339000855630247,map,1.27737236023,-0.0833988189697,0.0,0.0,0.0,0.116846134045,0.993150029431
1565339000982458277,10816,1565339000922284726,map,1.26388549805,-0.0884380340576,0.0,0.0,0.0,0.119385975642,0.992847918274
1565339001049203902,10817,1565339000989158268,map,1.24930381775,-0.0918226242065,0.0,0.0,0.0,0.121792871792,0.992555538185
1565339001116606923,10818,1565339001054903632,map,1.23572826385,-0.0954751968384,0.0,0.0,0.0,0.124780917804,0.99218431884
1565339001181601975,10819,1565339001121712226,map,1.22079753876,-0.100140571594,0.0,0.0,0.0,0.127792188332,0.991800966223
1565339001249157704,10820,1565339001188550559,map,1.20693683624,-0.103409767151,0.0,0.0,0.0,0.130549405247,0.991441805044
1565339001314724162,10821,1565339001255042799,map,1.19307231903,-0.107746124268,0.0,0.0,0.0,0.13341110112,0.99106078426
1565339001382271558,10822,1565339001321593215,map,1.17847919464,-0.112638473511,0.0,0.0,0.0,0.136511625163,0.990638468966
1565339001449188485,10823,1565339001388850715,map,1.16488170624,-0.116770744324,0.0,0.0,0.0,0.139620078813,0.990205147226
1565339001515181454,10824,1565339001454885299,map,1.15062904358,-0.12149143219,0.0,0.0,0.0,0.142400998795,0.989809050041
1565339001581327808,10825,1565339001521595038,map,1.13547515869,-0.12585735321,0.0,0.0,0.0,0.145254245823,0.989394362259
1565339001648015516,10826,1565339001588424882,map,1.12131977081,-0.12997341156,0.0,0.0,0.0,0.14805221573,0.9889795455
1565339001714983485,10827,1565339001654932851,map,1.10631084442,-0.135415077209,0.0,0.0,0.0,0.151445358499,0.988465630859
1565339001783430829,10828,1565339001722236392,map,1.09102153778,-0.140362739563,0.0,0.0,0.0,0.154520860907,0.98798952603
1565339001851382027,10829,1565339001789756549,map,1.07591724396,-0.146405220032,0.0,0.0,0.0,0.157798930336,0.987471264182
1565339001918138433,10830,1565339001855050819,map,1.06070709229,-0.152125358582,0.0,0.0,0.0,0.161118866579,0.986935008414
1565339001983118954,10831,1565339001921547746,map,1.0461063385,-0.156808853149,0.0,0.0,0.0,0.163556823967,0.986533914943
1565339002049461766,10832,1565339001988373996,map,1.03161144257,-0.161503791809,0.0,0.0,0.0,0.166263081628,0.986081430556
1565339002116938693,10833,1565339002054821913,map,1.01821327209,-0.16674041748,0.0,0.0,0.0,0.168944397537,0.985625583343
1565339002182400412,10834,1565339002121517173,map,1.00493907928,-0.171277999878,0.0,0.0,0.0,0.171426103215,0.985196980881
1565339002247797287,10835,1565339002188070767,map,0.992283821106,-0.175194740295,0.0,0.0,0.0,0.173814259346,0.984778453891
1565339002316936193,10836,1565339002255214048,map,0.980331420898,-0.179406166077,0.0,0.0,0.0,0.175963590644,0.984396675516
1565339002382020516,10837,1565339002322018267,map,0.968269348145,-0.182260513306,0.0,0.0,0.0,0.177588284939,0.984104872995
1565339002448893901,10838,1565339002388845038,map,0.957822799683,-0.186413764954,0.0,0.0,0.0,0.179766992876,0.983709219369
1565339002514838380,10839,1565339002455016757,map,0.947916030884,-0.189338684082,0.0,0.0,0.0,0.181558112702,0.983380217267
1565339002581831141,10840,1565339002521731288,map,0.938447952271,-0.193004608154,0.0,0.0,0.0,0.183723517569,0.982977959617
1565339002648985360,10841,1565339002588134309,map,0.929468154907,-0.196794509888,0.0,0.0,0.0,0.185663382641,0.982613407372
1565339002716031714,10842,1565339002654865350,map,0.919637680054,-0.199944496155,0.0,0.0,0.0,0.187452321479,0.98227370278
1565339002781760412,10843,1565339002721719934,map,0.910517692566,-0.203169822693,0.0,0.0,0.0,0.189108774317,0.981956145394
1565339002848289891,10844,1565339002788125194,map,0.901580810547,-0.207220077515,0.0,0.0,0.0,0.190998299811,0.981590367449
1565339002915761557,10845,1565339002854839152,map,0.892245292664,-0.209810256958,0.0,0.0,0.0,0.192418116603,0.98131303283
1565339002982533953,10846,1565339002921538527,map,0.883382797241,-0.213335990906,0.0,0.0,0.0,0.194096754512,0.980982390203
1565339003047967651,10847,1565339002988455194,map,0.874941825867,-0.216734886169,0.0,0.0,0.0,0.195854273459,0.980633011665
1565339003115099005,10848,1565339003054765142,map,0.867372512817,-0.219380378723,0.0,0.0,0.0,0.197531041734,0.980296632429
1565339003181222495,10849,1565339003121548267,map,0.858945846558,-0.221549987793,0.0,0.0,0.0,0.199177691336,0.979963390783
1565339003248541141,10850,1565339003188119100,map,0.851473808289,-0.224938392639,0.0,0.0,0.0,0.200999691022,0.979591304682
1565339003315328849,10851,1565339003254804360,map,0.843502998352,-0.227137565613,0.0,0.0,0.0,0.202410505654,0.979300764424
1565339003381225568,10852,1565339003321607798,map,0.837083816528,-0.230202674866,0.0,0.0,0.0,0.204153298913,0.978938930957
1565339003448793276,10853,1565339003388215715,map,0.829969406128,-0.231888771057,0.0,0.0,0.0,0.205660612699,0.978623376169
1565339003516807547,10854,1565339003454999621,map,0.823572158813,-0.233930587769,0.0,0.0,0.0,0.206929288233,0.978355901332
1565339003581221661,10855,1565339003521627694,map,0.816609382629,-0.236299514771,0.0,0.0,0.0,0.208475225042,0.978027648149
1565339003648053172,10856,1565339003588428371,map,0.80995464325,-0.239517211914,0.0,0.0,0.0,0.210055664456,0.977689428106
1565339003714829526,10857,1565339003655261912,map,0.802698135376,-0.24223613739,0.0,0.0,0.0,0.211478804098,0.977382583954
1565339003783647234,10858,1565339003723005923,map,0.796058654785,-0.244779586792,0.0,0.0,0.0,0.212559202414,0.977148190127
1565339003849643380,10859,1565339003788883058,map,0.788778305054,-0.247452735901,0.0,0.0,0.0,0.214027198878,0.976827701358
1565339003914784422,10860,1565339003854874152,map,0.78316783905,-0.250020980835,0.0,0.0,0.0,0.215549423769,0.97649293183
1565339003982369109,10861,1565339003921544985,map,0.77624797821,-0.252327919006,0.0,0.0,0.0,0.216946698033,0.976183451106
1565339004048676244,10862,1565339003988097277,map,0.770716667175,-0.255917549133,0.0,0.0,0.0,0.218893137658,0.975748837707
1565339004114849369,10863,1565339004054758839,map,0.764981269836,-0.257089614868,0.0,0.0,0.0,0.220107898037,0.975475531842
1565339004183056713,10864,1565339004121426027,map,0.758874893188,-0.26019859314,0.0,0.0,0.0,0.221782814145,0.975096089291
1565339004248890671,10865,1565339004188222016,map,0.753471374512,-0.262331008911,0.0,0.0,0.0,0.223376973506,0.974732131258
1565339004318563588,10866,1565339004255155610,map,0.747263908386,-0.264183998108,0.0,0.0,0.0,0.224667654674,0.974435449347
1565339004383755307,10867,1565339004321852641,map,0.742070198059,-0.266262054443,0.0,0.0,0.0,0.225769479291,0.974180754388
1565339004448680463,10868,1565339004388324516,map,0.736886978149,-0.267930984497,0.0,0.0,0.0,0.227205691598,0.973846791701
1565339004516263380,10869,1565339004455039516,map,0.73050403595,-0.270112991333,0.0,0.0,0.0,0.228778203377,0.973478573806
1565339004581494525,10870,1565339004521616287,map,0.725358963013,-0.272902488708,0.0,0.0,0.0,0.230249484156,0.973131632949
1565339004648086661,10871,1565339004588131235,map,0.719653129578,-0.275643348694,0.0,0.0,0.0,0.231682129727,0.972791545381
1565339004716434421,10872,1565339004654894672,map,0.714039802551,-0.277750015259,0.0,0.0,0.0,0.232925919473,0.972494481238
1565339004781811453,10873,1565339004721656183,map,0.709142684937,-0.279600143433,0.0,0.0,0.0,0.234264447838,0.972172910793
1565339004848755515,10874,1565339004788223787,map,0.704043388367,-0.282635688782,0.0,0.0,0.0,0.236021103524,0.971747929605
1565339004915408952,10875,1565339004854907172,map,0.699048995972,-0.283601760864,0.0,0.0,0.0,0.236984932329,0.971513325616
1565339004981589369,10876,1565339004921776287,map,0.694509506226,-0.286033630371,0.0,0.0,0.0,0.238463145841,0.97115154743
