%time,field.linear.x,field.linear.y,field.linear.z,field.angular.x,field.angular.y,field.angular.z
1565338972514076204,1550.0,1550.0,1550.0,1550.0,0.0,0.0
1565338972564313965,1550.0,1550.0,1550.0,1550.0,0.0,0.0
1565338972614151934,1550.0,1550.0,1550.0,1550.0,0.0,0.0
1565338972664152871,1550.0,1550.0,1550.0,1550.0,0.0,0.0
1565338972714124902,1550.0,1550.0,1550.0,1550.0,0.0,0.0
1565338972764951986,1550.0,1550.0,1550.0,1550.0,0.0,0.0
1565338972815619173,1550.0,1550.0,1550.0,1550.0,0.0,0.0
1565338972865406048,1550.0,1550.0,1550.0,1550.0,0.0,0.0
1565338972914970735,1550.0,1550.0,1550.0,1550.0,0.0,0.0
1565338972965195371,1550.0,1550.0,1550.0,1550.0,0.0,0.0
1565338973015335267,1550.0,1550.0,1550.0,1550.0,0.0,0.0
1565338973065348027,1550.0,1550.0,1550.0,1550.0,0.0,0.0
1565338973115236256,1550.0,1550.0,1550.0,1550.0,0.0,0.0
1565338973165150631,1550.0,1550.0,1550.0,1550.0,0.0,0.0
1565338973215323756,1550.0,1550.0,1550.0,1550.0,0.0,0.0
1565338973265510840,1550.0,1550.0,1550.0,1550.0,0.0,0.0
1565338973316364069,1550.0,1550.0,1550.0,1550.0,0.0,0.0
1565338973365621569,1550.0,1550.0,1550.0,1550.0,0.0,0.0
1565338973415607246,1550.0,1550.0,1550.0,1550.0,0.0,0.0
1565338973464913235,1550.0,1550.0,1550.0,1550.0,0.0,0.0
1565338973514903756,1550.0,1550.0,1550.0,1550.0,0.0,0.0
1565338973565717610,1550.0,1550.0,1550.0,1550.0,0.0,0.0
1565338973614806829,1550.0,1550.0,1550.0,1550.0,0.0,0.0
1565338973665181933,1550.0,1550.0,1550.0,1550.0,0.0,0.0
1565338973715649537,1550.0,1550.0,1550.0,1550.0,0.0,0.0
1565338973764980318,1550.0,1550.0,1550.0,1550.0,0.0,0.0
1565338973814867610,1550.0,1550.0,1550.0,1550.0,0.0,0.0
1565338973865361516,1550.0,1550.0,1550.0,1550.0,0.0,0.0
1565338973915936829,1550.0,1550.0,1550.0,1550.0,0.0,0.0
1565338973965483391,1550.0,1550.0,1550.0,1550.0,0.0,0.0
1565338974015416412,1550.0,1550.0,1550.0,1550.0,0.0,0.0
1565338974065701360,1550.0,1550.0,1550.0,1550.0,0.0,0.0
1565338974116439329,1550.0,1550.0,1550.0,1550.0,0.0,0.0
1565338974165502923,1550.0,1550.0,1550.0,1550.0,0.0,0.0
1565338974215276829,1550.0,1550.0,1550.0,1550.0,0.0,0.0
1565338974265258131,1550.0,1550.0,1550.0,1550.0,0.0,0.0
1565338974315254381,1550.0,1550.0,1550.0,1550.0,0.0,0.0
1565338974364938964,1550.0,1550.0,1550.0,1550.0,0.0,0.0
1565338974414909954,1550.0,1550.0,1550.0,1550.0,0.0,0.0
1565338974464919537,1550.0,1550.0,1559.93184745,1559.93184745,0.0,0.0
1565338974515074797,1550.0,1550.0,1559.93184745,1559.93184745,0.0,0.0
1565338974565162506,1550.0,1550.0,1579.46690619,1579.46690619,0.0,0.0
1565338974614859745,1550.0,1550.0,1579.46690619,1579.46690619,0.0,0.0
1565338974665317401,1550.0,1550.0,1590.31864405,1590.31864405,0.0,0.0
1565338974715463547,1550.0,1550.0,1590.31864405,1590.31864405,0.0,0.0
1565338974766327870,1550.0,1550.0,1594.65869963,1594.65869963,0.0,0.0
1565338974815036881,1550.0,1550.0,1594.65869963,1594.65869963,0.0,0.0
1565338974865201464,1550.0,1550.0,1594.65869963,1594.65869963,0.0,0.0
1565338974915195787,1550.0,1550.0,1616.36217833,1616.36217833,0.0,0.0
1565338974964784797,1550.0,1550.0,1616.36217833,1616.36217833,0.0,0.0
1565338975014790735,1550.0,1550.0,1631.55718446,1631.55718446,0.0,0.0
1565338975065584797,1550.0,1550.0,1631.55718446,1631.55718446,0.0,0.0
1565338975114786724,1550.0,1550.0,1630.47136664,1630.47136664,0.0,0.0
1565338975165051151,1550.0,1550.0,1630.47136664,1630.47136664,0.0,0.0
1565338975215029953,1550.0,1550.0,1630.47136664,1630.47136664,0.0,0.0
1565338975265021620,1550.0,1550.0,1630.47136664,1630.47136664,0.0,0.0
1565338975315662193,1550.0,1550.0,1630.47136664,1630.47136664,0.0,0.0
1565338975364878651,1550.0,1550.0,1641.32310748,1641.32310748,0.0,0.0
1565338975415737818,1550.0,1550.0,1641.32310748,1641.32310748,0.0,0.0
1565338975464947870,1550.0,1550.0,1650.0,1650.0,0.0,0.0
1565338975515361984,1550.0,1550.0,1650.0,1650.0,0.0,0.0
1565338975564711620,1550.0,1550.0,1650.0,1650.0,0.0,0.0
1565338975614657089,1550.0,1550.0,1650.0,1650.0,0.0,0.0
1565338975664913182,1550.0,1550.0,1650.0,1650.0,0.0,0.0
1565338975715587297,1550.0,1550.0,1650.0,1650.0,0.0,0.0
1565338975764714797,1550.0,1550.0,1650.0,1650.0,0.0,0.0
1565338975815808286,1550.0,1550.0,1650.0,1650.0,0.0,0.0
1565338975864895734,1550.0,1550.0,1650.0,1650.0,0.0,0.0
1565338975915289745,1550.0,1550.0,1650.0,1650.0,0.0,0.0
1565338975964674016,1550.0,1550.0,1650.0,1650.0,0.0,0.0
1565338976014946516,1550.0,1550.0,1650.0,1650.0,0.0,0.0
1565338976064892245,1550.0,1550.0,1650.0,1650.0,0.0,0.0
1565338976115191151,1550.0,1550.0,1650.0,1650.0,0.0,0.0
1565338976165001724,1550.0,1550.0,1650.0,1650.0,0.0,0.0
1565338976215080109,1550.0,1550.0,1650.0,1650.0,0.0,0.0
1565338976264927818,1550.0,1550.0,1650.0,1650.0,0.0,0.0
1565338976315050109,1550.0,1550.0,1650.0,1650.0,0.0,0.0
1565338976365256880,1550.0,1550.0,1650.0,1650.0,0.0,0.0
1565338976415757870,1550.0,1550.0,1650.0,1650.0,0.0,0.0
1565338976465264536,1550.0,1550.0,1650.0,1650.0,0.0,0.0
1565338976515912765,1550.0,1550.0,1650.0,1650.0,0.0,0.0
1565338976565417192,1550.0,1550.0,1650.0,1650.0,0.0,0.0
1565338976615776567,1550.0,1550.0,1650.0,1650.0,0.0,0.0
1565338976665460838,1550.0,1550.0,1650.0,1650.0,0.0,0.0
1565338976715837401,1550.0,1550.0,1650.0,1650.0,0.0,0.0
1565338976765322713,1550.0,1550.0,1650.0,1650.0,0.0,0.0
1565338976815326619,1550.0,1550.0,1550.0,1550.0,0.0,0.0
1565338976865325994,1550.0,1550.0,1550.0,1550.0,0.0,0.0
1565338976915665109,1550.0,1550.0,1550.0,1550.0,0.0,0.0
1565338976965719380,1550.0,1550.0,1550.0,1550.0,0.0,0.0
1565338977015261099,1550.0,1550.0,1550.0,1550.0,0.0,0.0
1565338977065719484,1550.0,1550.0,1550.0,1550.0,0.0,0.0
1565338977115685265,1550.0,1550.0,1550.0,1550.0,0.0,0.0
1565338977165203755,1550.0,1550.0,1550.0,1550.0,0.0,0.0
1565338977215257192,1550.0,1550.0,1550.0,1550.0,0.0,0.0
1565338977265581307,1550.0,1550.0,1550.0,1550.0,0.0,0.0
1565338977315281411,1550.0,1550.0,1550.0,1550.0,0.0,0.0
1565338977365590682,1550.0,1550.0,1550.0,1550.0,0.0,0.0
1565338977415257348,1550.0,1550.0,1550.0,1550.0,0.0,0.0
1565338977465240317,1550.0,1550.0,1550.0,1550.0,0.0,0.0
1565338977515430630,1550.0,1550.0,1550.0,1550.0,0.0,0.0
1565338977565244900,1550.0,1550.0,1550.0,1550.0,0.0,0.0
1565338977615580577,1550.0,1550.0,1550.0,1550.0,0.0,0.0
1565338977665702505,1550.0,1550.0,1550.0,1550.0,0.0,0.0
1565338977715932400,1550.0,1550.0,1550.0,1550.0,0.0,0.0
1565338977765788494,1550.0,1550.0,1550.0,1550.0,0.0,0.0
1565338977815397036,1550.0,1550.0,1550.0,1550.0,0.0,0.0
1565338977865706827,1550.0,1550.0,1550.0,1550.0,0.0,0.0
1565338977915885942,1550.0,1550.0,1550.0,1550.0,0.0,0.0
1565338977965291515,1550.0,1550.0,1550.0,1550.0,0.0,0.0
1565338978015306254,1550.0,1550.0,1550.0,1550.0,0.0,0.0
1565338978065749536,1550.0,1550.0,1550.0,1550.0,0.0,0.0
1565338978115818234,1550.0,1550.0,1550.0,1550.0,0.0,0.0
1565338978165330838,1550.0,1550.0,1550.0,1550.0,0.0,0.0
1565338978215680786,1550.0,1550.0,1550.0,1550.0,0.0,0.0
1565338978265328963,1550.0,1550.0,1550.0,1550.0,0.0,0.0
1565338978317069640,1550.0,1550.0,1550.0,1550.0,0.0,0.0
1565338978365261098,1550.0,1550.0,1550.0,1550.0,0.0,0.0
1565338978415216775,1550.0,1550.0,1550.0,1550.0,0.0,0.0
1565338978465232452,1550.0,1550.0,1550.0,1550.0,0.0,0.0
1565338978516161723,1550.0,1550.0,1550.0,1550.0,0.0,0.0
1565338978565216619,1550.0,1550.0,1550.0,1550.0,0.0,0.0
1565338978615730577,1550.0,1550.0,1550.0,1550.0,0.0,0.0
1565338978665263233,1550.0,1550.0,1550.0,1550.0,0.0,0.0
1565338978715350265,1550.0,1550.0,1550.16592431,1550.16592431,0.0,0.0
1565338978765235733,1550.0,1550.0,1550.16592431,1550.16592431,0.0,0.0
1565338978815798389,1550.0,1550.0,1550.16592431,1550.16592431,0.0,0.0
1565338978865255317,1550.0,1550.0,1550.16592431,1550.16592431,0.0,0.0
1565338978915833233,1550.0,1550.0,1572.95521945,1572.95521945,0.0,0.0
1565338978965540264,1550.0,1550.0,1572.95521945,1572.95521945,0.0,0.0
1565338979015262556,1551.24852825,1550.0,1606.75896574,1605.51043749,0.0,0.0
1565338979065298025,1551.24852825,1550.0,1606.75896574,1605.51043749,0.0,0.0
1565338979116034952,1574.03782308,1550.0,1674.03782308,1650.0,0.0,0.0
1565338979165211150,1574.03782308,1550.0,1674.03782308,1650.0,0.0,0.0
1565338979215241410,1575.12364089,1550.0,1675.12364089,1650.0,0.0,0.0
1565338979265217035,1575.12364089,1550.0,1675.12364089,1650.0,0.0,0.0
1565338979315329275,1575.12364089,1550.0,1675.12364089,1650.0,0.0,0.0
1565338979365221983,1575.12364089,1550.0,1675.12364089,1650.0,0.0,0.0
1565338979415336723,1575.12364089,1550.0,1675.12364089,1650.0,0.0,0.0
1565338979465270264,1575.12364089,1550.0,1675.12364089,1650.0,0.0,0.0
1565338979516236566,1550.0,1550.0,1580.54951131,1580.54951131,0.0,0.0
1565338979565316566,1550.0,1550.0,1580.54951131,1580.54951131,0.0,0.0
1565338979615212452,1550.0,1550.0,1550.0,1550.0,0.0,0.0
1565338979665272660,1550.0,1550.0,1550.0,1550.0,0.0,0.0
1565338979716306775,1550.0,1550.0,1550.0,1550.0,0.0,0.0
1565338979765236775,1550.0,1550.0,1550.0,1550.0,0.0,0.0
1565338979815455785,1550.0,1550.0,1550.0,1550.0,0.0,0.0
1565338979865523962,1550.0,1550.0,1550.0,1550.0,0.0,0.0
1565338979915576618,1550.0,1550.0,1550.0,1550.0,0.0,0.0
1565338979965226827,1550.0,1550.0,1550.0,1550.0,0.0,0.0
1565338980015577035,1550.0,1550.0,1550.0,1550.0,0.0,0.0
1565338980065554535,1550.0,1550.0,1550.0,1550.0,0.0,0.0
1565338980115498233,1550.0,1550.0,1550.0,1550.0,0.0,0.0
1565338980165204431,1550.0,1550.0,1550.0,1550.0,0.0,0.0
1565338980215226149,1550.0,1550.0,1550.0,1550.0,0.0,0.0
1565338980265235524,1550.0,1550.0,1550.0,1550.0,0.0,0.0
1565338980315442504,1550.0,1550.0,1550.0,1550.0,0.0,0.0
1565338980365341931,1550.0,1550.0,1550.0,1550.0,0.0,0.0
1565338980415607399,1550.0,1550.0,1550.0,1550.0,0.0,0.0
1565338980465207608,1550.0,1550.0,1550.0,1550.0,0.0,0.0
1565338980515313597,1550.0,1550.0,1550.0,1550.0,0.0,0.0
1565338980565246253,1550.0,1550.0,1550.0,1550.0,0.0,0.0
1565338980615191410,1550.0,1550.0,1550.0,1550.0,0.0,0.0
1565338980665240889,1550.0,1550.0,1550.0,1550.0,0.0,0.0
1565338980715732608,1550.0,1550.0,1550.0,1550.0,0.0,0.0
1565338980765677607,1550.0,1550.0,1570.7835868,1570.7835868,0.0,0.0
1565338980815779118,1550.0,1550.0,1570.7835868,1570.7835868,0.0,0.0
1565338980865229535,1550.0,1550.0,1587.06119657,1587.06119657,0.0,0.0
1565338980915440889,1550.0,1550.0,1587.06119657,1587.06119657,0.0,0.0
1565338980965538701,1550.0,1550.0,1587.06119657,1587.06119657,0.0,0.0
1565338981015576305,1550.0,1550.0,1603.33880782,1603.33880782,0.0,0.0
1565338981065236253,1550.0,1550.0,1603.33880782,1603.33880782,0.0,0.0
1565338981115258389,1550.0,1550.0,1606.5962553,1606.5962553,0.0,0.0
1565338981165215316,1550.0,1550.0,1606.5962553,1606.5962553,0.0,0.0
1565338981215613232,1550.0,1550.0,1606.5962553,1606.5962553,0.0,0.0
1565338981265229014,1550.0,1550.0,1614.19375539,1614.19375539,0.0,0.0
1565338981315282868,1550.0,1550.0,1614.19375539,1614.19375539,0.0,0.0
1565338981365301982,1550.0,1550.0,1618.53380799,1618.53380799,0.0,0.0
1565338981415602399,1550.0,1550.0,1618.53380799,1618.53380799,0.0,0.0
1565338981465261774,1550.0,1550.0,1618.53380799,1618.53380799,0.0,0.0
1565338981517535159,1550.0,1550.0,1618.53380799,1618.53380799,0.0,0.0
1565338981566096618,1550.0,1550.0,1620.70544362,1620.70544362,0.0,0.0
1565338981615874326,1550.0,1550.0,1620.70544362,1620.70544362,0.0,0.0
1565338981665221201,1550.0,1550.0,1620.70544362,1620.70544362,0.0,0.0
1565338981715902451,1550.0,1550.0,1631.55718446,1631.55718446,0.0,0.0
1565338981765540940,1550.0,1550.0,1631.55718446,1631.55718446,0.0,0.0
1565338981815211722,1550.0,1550.0,1631.55718446,1631.55718446,0.0,0.0
1565338981865260732,1550.0,1550.0,1631.55718446,1631.55718446,0.0,0.0
1565338981915498649,1550.0,1550.0,1631.55718446,1631.55718446,0.0,0.0
1565338981965173336,1550.0,1550.0,1635.89723706,1635.89723706,0.0,0.0
1565338982015173024,1550.0,1550.0,1635.89723706,1635.89723706,0.0,0.0
1565338982065209795,1550.0,1550.0,1644.57734227,1644.57734227,0.0,0.0
1565338982115553544,1550.0,1550.0,1644.57734227,1644.57734227,0.0,0.0
1565338982165214586,1550.0,1550.0,1650.0,1650.0,0.0,0.0
1565338982215252711,1550.0,1550.0,1650.0,1650.0,0.0,0.0
1565338982265188909,1550.0,1550.0,1650.0,1650.0,0.0,0.0
1565338982315391461,1550.0,1550.0,1650.0,1650.0,0.0,0.0
1565338982365196513,1550.0,1550.0,1550.0,1550.0,0.0,0.0
1565338982415202919,1550.0,1550.0,1550.0,1550.0,0.0,0.0
1565338982465199117,1550.0,1550.0,1550.0,1550.0,0.0,0.0
1565338982515196721,1550.0,1550.0,1550.0,1550.0,0.0,0.0
1565338982565087919,1550.0,1550.0,1550.0,1550.0,0.0,0.0
1565338982615122346,1550.0,1550.0,1550.0,1550.0,0.0,0.0
1565338982665185523,1550.0,1550.0,1550.0,1550.0,0.0,0.0
1565338982715231513,1550.0,1550.0,1550.0,1550.0,0.0,0.0
1565338982765176982,1550.0,1550.0,1550.0,1550.0,0.0,0.0
1565338982815184898,1550.0,1550.0,1550.0,1550.0,0.0,0.0
1565338982865168961,1550.0,1550.0,1550.0,1550.0,0.0,0.0
1565338982915294378,1550.0,1550.0,1550.0,1550.0,0.0,0.0
1565338982965226148,1550.0,1550.0,1550.0,1550.0,0.0,0.0
1565338983015675732,1550.0,1550.0,1550.0,1550.0,0.0,0.0
1565338983065642971,1550.0,1550.0,1550.0,1550.0,0.0,0.0
1565338983115261200,1550.0,1550.0,1550.0,1550.0,0.0,0.0
1565338983165220784,1550.0,1550.0,1550.0,1550.0,0.0,0.0
1565338983215461721,1550.0,1550.0,1550.0,1550.0,0.0,0.0
1565338983265228909,1550.0,1550.0,1550.0,1550.0,0.0,0.0
1565338983315216773,1550.0,1550.0,1550.0,1550.0,0.0,0.0
1565338983365456148,1550.0,1550.0,1550.0,1550.0,0.0,0.0
1565338983415290159,1550.0,1550.0,1550.0,1550.0,0.0,0.0
1565338983465240315,1550.0,1550.0,1550.0,1550.0,0.0,0.0
1565338983516339221,1550.0,1550.0,1550.0,1550.0,0.0,0.0
1565338983565249690,1550.0,1550.0,1550.0,1550.0,0.0,0.0
1565338983615627033,1550.0,1550.0,1550.0,1550.0,0.0,0.0
1565338983665335211,1550.0,1550.0,1550.0,1550.0,0.0,0.0
1565338983715408023,1550.0,1550.0,1550.0,1550.0,0.0,0.0
1565338983765497658,1560.39018705,1550.0,1550.0,1560.39018705,0.0,0.0
1565338983815410106,1560.39018705,1550.0,1550.0,1560.39018705,0.0,0.0
1565338983865158492,1572.32774347,1550.0,1550.0,1572.32774347,0.0,0.0
1565338983915296981,1572.32774347,1550.0,1550.0,1572.32774347,0.0,0.0
1565338983965530367,1580.46654761,1550.0,1550.0,1580.46654761,0.0,0.0
1565338984015382867,1580.46654761,1550.0,1550.0,1580.46654761,0.0,0.0
1565338984065621044,1583.72239172,1550.0,1550.0,1583.72239172,0.0,0.0
1565338984116144377,1583.72239172,1550.0,1550.0,1583.72239172,0.0,0.0
1565338984165712606,1583.72239172,1550.0,1550.0,1583.72239172,0.0,0.0
1565338984215293179,1585.89241803,1550.0,1550.0,1585.89241803,0.0,0.0
1565338984265212554,1585.89241803,1550.0,1550.0,1585.89241803,0.0,0.0
1565338984315353127,1586.43532693,1550.0,1550.0,1586.43532693,0.0,0.0
1565338984365201096,1586.43532693,1550.0,1550.0,1586.43532693,0.0,0.0
1565338984415074117,1550.0,1550.0,1550.0,1550.0,0.0,0.0
1565338984465762502,1550.0,1550.0,1550.0,1550.0,0.0,0.0
1565338984515814221,1550.0,1550.0,1550.0,1550.0,0.0,0.0
1565338984565031356,1550.0,1550.0,1550.0,1550.0,0.0,0.0
1565338984615275991,1550.0,1550.0,1550.0,1550.0,0.0,0.0
1565338984665219116,1550.0,1550.0,1550.0,1550.0,0.0,0.0
1565338984715286460,1550.0,1550.0,1550.0,1550.0,0.0,0.0
1565338984765306773,1550.0,1550.0,1550.0,1550.0,0.0,0.0
1565338984815256773,1550.0,1550.0,1550.0,1550.0,0.0,0.0
1565338984865245471,1550.0,1550.0,1550.0,1550.0,0.0,0.0
1565338984915407762,1550.0,1550.0,1550.0,1550.0,0.0,0.0
1565338984965301095,1550.0,1550.0,1550.0,1550.0,0.0,0.0
1565338985015640418,1550.0,1550.0,1550.0,1550.0,0.0,0.0
1565338985065333648,1550.0,1550.0,1550.0,1550.0,0.0,0.0
1565338985115364533,1550.0,1550.0,1550.0,1550.0,0.0,0.0
1565338985165242502,1550.0,1550.0,1550.0,1550.0,0.0,0.0
1565338985215380262,1550.0,1550.0,1550.0,1550.0,0.0,0.0
1565338985265244897,1550.0,1550.0,1550.0,1550.0,0.0,0.0
1565338985315943439,1550.0,1550.0,1550.0,1550.0,0.0,0.0
1565338985365468543,1550.0,1550.0,1550.0,1550.0,0.0,0.0
1565338985415392814,1550.0,1550.0,1550.0,1550.0,0.0,0.0
1565338985465056564,1550.0,1550.0,1550.0,1550.0,0.0,0.0
1565338985515334377,1550.0,1550.0,1550.0,1550.0,0.0,0.0
1565338985565180835,1550.0,1550.0,1550.0,1550.0,0.0,0.0
1565338985615228543,1550.0,1550.0,1550.0,1550.0,0.0,0.0
1565338985665232189,1550.0,1550.0,1550.0,1550.0,0.0,0.0
1565338985715382345,1550.0,1550.0,1550.0,1550.0,0.0,0.0
1565338985764795158,1550.0,1550.0,1550.0,1550.0,0.0,0.0
1565338985816030210,1550.0,1550.0,1550.0,1550.0,0.0,0.0
1565338985865736043,1550.0,1550.0,1550.0,1550.0,0.0,0.0
1565338985916276043,1550.0,1550.0,1550.0,1550.0,0.0,0.0
1565338985965192866,1550.0,1550.0,1550.0,1550.0,0.0,0.0
1565338986015113960,1550.0,1550.0,1550.0,1550.0,0.0,0.0
1565338986065236303,1550.0,1550.0,1550.0,1550.0,0.0,0.0
1565338986115386980,1550.0,1550.0,1550.0,1550.0,0.0,0.0
1565338986165219012,1550.0,1550.0,1550.0,1550.0,0.0,0.0
1565338986215230991,1550.0,1550.0,1550.0,1550.0,0.0,0.0
1565338986265230991,1550.0,1550.0,1550.0,1550.0,0.0,0.0
1565338986315569532,1550.0,1550.0,1550.0,1550.0,0.0,0.0
1565338986365080730,1550.0,1550.0,1550.0,1550.0,0.0,0.0
1565338986415152397,1550.0,1550.0,1550.0,1550.0,0.0,0.0
1565338986466218699,1550.0,1550.0,1550.0,1550.0,0.0,0.0
1565338986515715470,1550.0,1550.0,1550.0,1550.0,0.0,0.0
1565338986564871251,1550.0,1550.0,1550.0,1550.0,0.0,0.0
1565338986616491147,1550.0,1550.0,1550.0,1550.0,0.0,0.0
1565338986665215314,1550.0,1550.0,1550.0,1550.0,0.0,0.0
1565338986716842449,1550.0,1550.0,1550.0,1550.0,0.0,0.0
1565338986766025678,1550.0,1550.0,1550.0,1550.0,0.0,0.0
1565338986816175991,1550.0,1550.0,1550.0,1550.0,0.0,0.0
1565338986865322449,1550.0,1550.0,1550.0,1550.0,0.0,0.0
1565338986915901095,1550.0,1550.0,1550.0,1550.0,0.0,0.0
1565338986965316876,1550.0,1550.0,1550.0,1550.0,0.0,0.0
1565338987015286043,1550.0,1550.0,1550.0,1550.0,0.0,0.0
1565338987065150157,1563.18287104,1563.18287104,1550.0,1550.0,0.0,0.0
1565338987115209428,1563.18287104,1563.18287104,1550.0,1550.0,0.0,0.0
1565338987165004584,1575.1204282,1575.1204282,1550.0,1550.0,0.0,0.0
1565338987215087553,1575.1204282,1575.1204282,1550.0,1550.0,0.0,0.0
1565338987265067813,1575.1204282,1575.1204282,1550.0,1550.0,0.0,0.0
1565338987315412240,1578.37787569,1578.37787569,1550.0,1550.0,0.0,0.0
1565338987365811407,1578.37787569,1578.37787569,1550.0,1550.0,0.0,0.0
1565338987415605782,1600.08135438,1600.08135438,1550.0,1550.0,0.0,0.0
1565338987465115626,1600.08135438,1600.08135438,1550.0,1550.0,0.0,0.0
1565338987515362032,1607.67886043,1607.67886043,1550.0,1550.0,0.0,0.0
1565338987565427240,1607.67886043,1607.67886043,1550.0,1550.0,0.0,0.0
1565338987615035522,1607.67886043,1607.67886043,1550.0,1550.0,0.0,0.0
1565338987665066094,1607.67886043,1607.67886043,1550.0,1550.0,0.0,0.0
1565338987715076511,1607.67886043,1607.67886043,1550.0,1550.0,0.0,0.0
1565338987764993542,1607.67886043,1607.67886043,1550.0,1550.0,0.0,0.0
1565338987815420469,1607.67886043,1607.67886043,1550.0,1550.0,0.0,0.0
1565338987865439324,1607.67886043,1607.67886043,1550.0,1550.0,0.0,0.0
1565338987915217761,1607.67886043,1607.67886043,1550.0,1550.0,0.0,0.0
1565338987965156823,1607.67886043,1607.67886043,1550.0,1550.0,0.0,0.0
1565338988014655678,1607.67886043,1607.67886043,1550.0,1550.0,0.0,0.0
1565338988065631615,1607.67886043,1607.67886043,1550.0,1550.0,0.0,0.0
1565338988117818751,1607.67886043,1607.67886043,1550.0,1550.0,0.0,0.0
1565338988165705261,1607.67886043,1607.67886043,1550.0,1550.0,0.0,0.0
1565338988215000678,1607.67886043,1607.67886043,1550.0,1550.0,0.0,0.0
1565338988265273438,1607.67886043,1607.67886043,1550.0,1550.0,0.0,0.0
1565338988315392761,1607.67886043,1607.67886043,1550.0,1550.0,0.0,0.0
1565338988365101407,1607.67886043,1607.67886043,1550.0,1550.0,0.0,0.0
1565338988415087969,1607.67886043,1607.67886043,1550.0,1550.0,0.0,0.0
1565338988465053386,1607.67886043,1607.67886043,1550.0,1550.0,0.0,0.0
1565338988515519115,1607.67886043,1607.67886043,1550.0,1550.0,0.0,0.0
1565338988565880730,1607.67886043,1607.67886043,1550.0,1550.0,0.0,0.0
1565338988615093750,1607.67886043,1607.67886043,1550.0,1550.0,0.0,0.0
1565338988664945000,1607.67886043,1607.67886043,1550.0,1550.0,0.0,0.0
1565338988715610104,1607.67886043,1607.67886043,1550.0,1550.0,0.0,0.0
1565338988764961667,1607.67886043,1607.67886043,1550.0,1550.0,0.0,0.0
1565338988815037761,1607.67886043,1607.67886043,1550.0,1550.0,0.0,0.0
1565338988864964531,1607.67886043,1607.67886043,1550.0,1550.0,0.0,0.0
1565338988915355052,1607.67886043,1607.67886043,1550.0,1550.0,0.0,0.0
1565338988965612865,1607.67886043,1607.67886043,1550.0,1550.0,0.0,0.0
1565338989015051667,1607.67886043,1607.67886043,1550.0,1550.0,0.0,0.0
1565338989065154011,1607.67886043,1607.67886043,1550.0,1550.0,0.0,0.0
1565338989116661667,1607.67886043,1607.67886043,1550.0,1550.0,0.0,0.0
1565338989164907136,1607.67886043,1607.67886043,1550.0,1550.0,0.0,0.0
1565338989214895261,1607.67886043,1607.67886043,1550.0,1550.0,0.0,0.0
1565338989264686094,1606.59304261,1606.59304261,1550.0,1550.0,0.0,0.0
1565338989315414740,1606.59304261,1606.59304261,1550.0,1550.0,0.0,0.0
1565338989365152760,1606.59304261,1606.59304261,1550.0,1550.0,0.0,0.0
1565338989414874219,1598.99553955,1598.99553955,1550.0,1550.0,0.0,0.0
1565338989464925521,1598.99553955,1598.99553955,1550.0,1550.0,0.0,0.0
1565338989515046510,1595.74130177,1595.74130177,1550.0,1550.0,0.0,0.0
1565338989564834583,1595.74130177,1595.74130177,1550.0,1550.0,0.0,0.0
1565338989614948177,1595.74130177,1595.74130177,1550.0,1550.0,0.0,0.0
1565338989664931302,1595.74130177,1595.74130177,1550.0,1550.0,0.0,0.0
1565338989714990104,1608.76467228,1608.76467228,1550.0,1550.0,0.0,0.0
1565338989765117135,1608.76467228,1608.76467228,1550.0,1550.0,0.0,0.0
1565338989814893021,1608.76467228,1608.76467228,1550.0,1550.0,0.0,0.0
1565338989864936562,1609.8472774,1609.8472774,1550.0,1550.0,0.0,0.0
1565338989915075052,1609.8472774,1609.8472774,1550.0,1550.0,0.0,0.0
1565338989965291719,1609.8472774,1609.8472774,1550.0,1550.0,0.0,0.0
1565338990015302812,1609.8472774,1609.8472774,1550.0,1550.0,0.0,0.0
1565338990064947812,1609.8472774,1609.8472774,1550.0,1550.0,0.0,0.0
1565338990115556354,1609.8472774,1609.8472774,1550.0,1550.0,0.0,0.0
1565338990164992708,1609.8472774,1609.8472774,1550.0,1550.0,0.0,0.0
1565338990214947187,1609.8472774,1609.8472774,1550.0,1550.0,0.0,0.0
1565338990264935989,1609.8472774,1609.8472774,1550.0,1550.0,0.0,0.0
1565338990314983021,1609.8472774,1609.8472774,1550.0,1550.0,0.0,0.0
1565338990365194635,1609.8472774,1609.8472774,1550.0,1550.0,0.0,0.0
1565338990414970312,1609.8472774,1609.8472774,1550.0,1550.0,0.0,0.0
1565338990465303802,1609.8472774,1609.8472774,1550.0,1550.0,0.0,0.0
1565338990514902343,1609.8472774,1609.8472774,1550.0,1550.0,0.0,0.0
1565338990565236302,1609.8472774,1609.8472774,1550.0,1550.0,0.0,0.0
1565338990615397395,1607.67886043,1607.67886043,1550.0,1550.0,0.0,0.0
1565338990665646145,1607.67886043,1607.67886043,1550.0,1550.0,0.0,0.0
1565338990717681562,1607.67886043,1607.67886043,1550.0,1550.0,0.0,0.0
1565338990765775520,1607.67886043,1607.67886043,1550.0,1550.0,0.0,0.0
1565338990816241666,1607.67886043,1607.67886043,1550.0,1550.0,0.0,0.0
1565338990866271406,1550.0,1550.0,1550.0,1550.0,0.0,0.0
1565338990916608749,1550.0,1550.0,1550.0,1550.0,0.0,0.0
1565338990966368020,1550.0,1550.0,1550.0,1550.0,0.0,0.0
1565338991016120416,1550.0,1550.0,1550.0,1550.0,0.0,0.0
1565338991066819218,1550.0,1550.0,1550.0,1550.0,0.0,0.0
1565338991115539791,1550.0,1550.0,1550.0,1550.0,0.0,0.0
1565338991165661354,1550.0,1550.0,1550.0,1550.0,0.0,0.0
1565338991215808697,1550.0,1550.0,1550.0,1550.0,0.0,0.0
1565338991266008281,1551.70847438,1550.0,1550.0,1551.70847438,0.0,0.0
1565338991315759791,1551.70847438,1550.0,1550.0,1551.70847438,0.0,0.0
1565338991365227187,1551.70847438,1550.0,1550.0,1551.70847438,0.0,0.0
1565338991415974114,1553.87850106,1550.0,1550.0,1553.87850106,0.0,0.0
1565338991465112187,1553.87850106,1550.0,1550.0,1553.87850106,0.0,0.0
1565338991515300572,1559.30437073,1550.0,1550.0,1559.30437073,0.0,0.0
1565338991565011093,1559.30437073,1550.0,1550.0,1559.30437073,0.0,0.0
1565338991615041041,1559.84727889,1550.0,1550.0,1559.84727889,0.0,0.0
1565338991665182812,1559.84727889,1550.0,1550.0,1559.84727889,0.0,0.0
1565338991715897603,1559.84727889,1550.0,1550.0,1559.84727889,0.0,0.0
1565338991765004530,1559.84727889,1550.0,1550.0,1559.84727889,0.0,0.0
1565338991815513749,1559.84727889,1550.0,1550.0,1559.84727889,0.0,0.0
1565338991865115572,1566.90187305,1550.0,1550.0,1566.90187305,0.0,0.0
1565338991915585780,1566.90187305,1550.0,1550.0,1566.90187305,0.0,0.0
1565338991965110780,1569.61480826,1550.0,1550.0,1569.61480826,0.0,0.0
1565338992015204843,1569.61480826,1550.0,1550.0,1569.61480826,0.0,0.0
1565338992065240103,1569.61480826,1550.0,1550.0,1569.61480826,0.0,0.0
1565338992116580728,1570.15771717,1550.0,1550.0,1570.15771717,0.0,0.0
1565338992165283593,1570.15771717,1550.0,1550.0,1570.15771717,0.0,0.0
1565338992215063905,1570.15771717,1550.0,1550.0,1570.15771717,0.0,0.0
1565338992265711614,1570.15771717,1550.0,1550.0,1570.15771717,0.0,0.0
1565338992315114843,1560.93309522,1550.0,1550.0,1560.93309522,0.0,0.0
1565338992365120676,1560.93309522,1550.0,1550.0,1560.93309522,0.0,0.0
1565338992414983801,1550.0,1550.0,1550.0,1550.0,0.0,0.0
1565338992465106978,1550.0,1550.0,1550.0,1550.0,0.0,0.0
1565338992515187551,1550.0,1550.0,1550.0,1550.0,0.0,0.0
1565338992565145936,1550.0,1550.0,1550.0,1550.0,0.0,0.0
1565338992614923540,1550.0,1550.0,1550.0,1550.0,0.0,0.0
1565338992665120363,1550.0,1550.0,1550.0,1550.0,0.0,0.0
1565338992715139843,1550.0,1550.0,1550.0,1550.0,0.0,0.0
1565338992765063436,1550.0,1550.0,1550.0,1550.0,0.0,0.0
1565338992815066092,1550.0,1550.0,1550.0,1550.0,0.0,0.0
1565338992865132707,1550.0,1550.0,1550.0,1550.0,0.0,0.0
1565338992915514790,1550.0,1550.0,1550.0,1550.0,0.0,0.0
1565338992965243592,1550.0,1550.0,1550.0,1550.0,0.0,0.0
1565338993014821665,1550.0,1550.0,1550.0,1550.0,0.0,0.0
1565338993064953228,1550.0,1550.0,1550.0,1550.0,0.0,0.0
1565338993115027915,1562.10026741,1562.10026741,1550.0,1550.0,0.0,0.0
1565338993165062655,1562.10026741,1562.10026741,1550.0,1550.0,0.0,0.0
1565338993215024321,1566.44032151,1566.44032151,1550.0,1550.0,0.0,0.0
1565338993265034269,1566.44032151,1566.44032151,1550.0,1550.0,0.0,0.0
1565338993315284269,1566.44032151,1566.44032151,1550.0,1550.0,0.0,0.0
1565338993365318280,1566.44032151,1566.44032151,1550.0,1550.0,0.0,0.0
1565338993414902863,1566.44032151,1566.44032151,1550.0,1550.0,0.0,0.0
1565338993464869217,1566.44032151,1566.44032151,1550.0,1550.0,0.0,0.0
1565338993515392915,1566.44032151,1566.44032151,1550.0,1550.0,0.0,0.0
1565338993564850311,1566.44032151,1566.44032151,1550.0,1550.0,0.0,0.0
1565338993615096353,1566.44032151,1566.44032151,1550.0,1550.0,0.0,0.0
1565338993664650675,1566.44032151,1566.44032151,1550.0,1550.0,0.0,0.0
1565338993715343384,1568.60874146,1568.60874146,1550.0,1550.0,0.0,0.0
1565338993766477759,1568.60874146,1568.60874146,1550.0,1550.0,0.0,0.0
1565338993815048592,1568.60874146,1568.60874146,1550.0,1550.0,0.0,0.0
1565338993864928332,1578.37787569,1578.37787569,1550.0,1550.0,0.0,0.0
1565338993915411925,1578.37787569,1578.37787569,1550.0,1550.0,0.0,0.0
1565338993964977498,1579.4636935,1579.4636935,1550.0,1550.0,0.0,0.0
1565338994015002082,1579.4636935,1579.4636935,1550.0,1550.0,0.0,0.0
1565338994064871352,1592.48385429,1592.48385429,1550.0,1550.0,0.0,0.0
1565338994114979842,1592.48385429,1592.48385429,1550.0,1550.0,0.0,0.0
1565338994164942602,1592.48385429,1592.48385429,1550.0,1550.0,0.0,0.0
1565338994215261300,1618.5305953,1618.5305953,1550.0,1550.0,0.0,0.0
1565338994264960884,1618.5305953,1618.5305953,1550.0,1550.0,0.0,0.0
1565338994315242915,1617.44478345,1617.44478345,1550.0,1550.0,0.0,0.0
1565338994364912081,1617.44478345,1617.44478345,1550.0,1550.0,0.0,0.0
1565338994414926248,1617.44478345,1617.44478345,1550.0,1550.0,0.0,0.0
1565338994464948800,1617.44478345,1617.44478345,1550.0,1550.0,0.0,0.0
1565338994515035623,1610.93309522,1610.93309522,1550.0,1550.0,0.0,0.0
1565338994564934165,1610.93309522,1610.93309522,1550.0,1550.0,0.0,0.0
1565338994614894113,1606.59304261,1606.59304261,1550.0,1550.0,0.0,0.0
1565338994664614790,1606.59304261,1606.59304261,1550.0,1550.0,0.0,0.0
1565338994716706769,1590.31543434,1590.31543434,1550.0,1550.0,0.0,0.0
1565338994765259894,1590.31543434,1590.31543434,1550.0,1550.0,0.0,0.0
1565338994815502342,1590.31543434,1590.31543434,1550.0,1550.0,0.0,0.0
1565338994864640363,1590.31543434,1590.31543434,1550.0,1550.0,0.0,0.0
1565338994915280727,1590.31543434,1590.31543434,1550.0,1550.0,0.0,0.0
1565338994964635154,1592.48385429,1592.48385429,1550.0,1550.0,0.0,0.0
1565338995015358800,1592.48385429,1592.48385429,1550.0,1550.0,0.0,0.0
1565338995064934373,1592.48385429,1592.48385429,1550.0,1550.0,0.0,0.0
1565338995115357967,1592.48385429,1592.48385429,1550.0,1550.0,0.0,0.0
1565338995164603279,1592.48385429,1592.48385429,1550.0,1550.0,0.0,0.0
1565338995214926352,1592.48385429,1592.48385429,1550.0,1550.0,0.0,0.0
1565338995265549425,1592.48385429,1592.48385429,1550.0,1550.0,0.0,0.0
1565338995315677289,1594.65548694,1594.65548694,1550.0,1550.0,0.0,0.0
1565338995365068123,1594.65548694,1594.65548694,1550.0,1550.0,0.0,0.0
1565338995415162862,1593.56966913,1593.56966913,1550.0,1550.0,0.0,0.0
1565338995464992498,1593.56966913,1593.56966913,1550.0,1550.0,0.0,0.0
1565338995514972185,1593.56966913,1593.56966913,1550.0,1550.0,0.0,0.0
1565338995564927706,1593.56966913,1593.56966913,1550.0,1550.0,0.0,0.0
1565338995615019373,1593.56966913,1593.56966913,1550.0,1550.0,0.0,0.0
1565338995665245571,1593.56966913,1593.56966913,1550.0,1550.0,0.0,0.0
1565338995715676612,1593.56966913,1593.56966913,1550.0,1550.0,0.0,0.0
1565338995765091248,1593.56966913,1593.56966913,1550.0,1550.0,0.0,0.0
1565338995816019008,1593.56966913,1593.56966913,1550.0,1550.0,0.0,0.0
1565338995865210935,1594.65548694,1594.65548694,1550.0,1550.0,0.0,0.0
1565338995915249373,1594.65548694,1594.65548694,1550.0,1550.0,0.0,0.0
1565338995965026873,1593.56966913,1593.56966913,1550.0,1550.0,0.0,0.0
1565338996015073435,1593.56966913,1593.56966913,1550.0,1550.0,0.0,0.0
1565338996065160050,1593.56966913,1593.56966913,1550.0,1550.0,0.0,0.0
1565338996115474320,1593.56966913,1593.56966913,1550.0,1550.0,0.0,0.0
1565338996164930675,1593.56966913,1593.56966913,1550.0,1550.0,0.0,0.0
1565338996215091195,1593.56966913,1593.56966913,1550.0,1550.0,0.0,0.0
1565338996264631143,1594.65548694,1594.65548694,1550.0,1550.0,0.0,0.0
1565338996315447706,1594.65548694,1594.65548694,1550.0,1550.0,0.0,0.0
1565338996365127914,1593.56966913,1593.56966913,1550.0,1550.0,0.0,0.0
1565338996415144112,1593.56966913,1593.56966913,1550.0,1550.0,0.0,0.0
1565338996465150518,1593.56966913,1593.56966913,1550.0,1550.0,0.0,0.0
1565338996515176091,1593.56966913,1593.56966913,1550.0,1550.0,0.0,0.0
1565338996565075466,1593.56966913,1593.56966913,1550.0,1550.0,0.0,0.0
1565338996615627185,1593.56966913,1593.56966913,1550.0,1550.0,0.0,0.0
1565338996664945466,1593.56966913,1593.56966913,1550.0,1550.0,0.0,0.0
1565338996715048487,1593.56966913,1593.56966913,1550.0,1550.0,0.0,0.0
1565338996764992914,1594.65548694,1594.65548694,1550.0,1550.0,0.0,0.0
1565338996815179008,1594.65548694,1594.65548694,1550.0,1550.0,0.0,0.0
1565338996865356768,1593.56966913,1593.56966913,1550.0,1550.0,0.0,0.0
1565338996915553799,1593.56966913,1593.56966913,1550.0,1550.0,0.0,0.0
1565338996965262601,1593.56966913,1593.56966913,1550.0,1550.0,0.0,0.0
1565338997015128018,1593.56966913,1593.56966913,1550.0,1550.0,0.0,0.0
1565338997065061664,1593.56966913,1593.56966913,1550.0,1550.0,0.0,0.0
1565338997115293435,1593.56966913,1593.56966913,1550.0,1550.0,0.0,0.0
1565338997165193174,1593.56966913,1593.56966913,1550.0,1550.0,0.0,0.0
1565338997214979893,1594.65548694,1594.65548694,1550.0,1550.0,0.0,0.0
1565338997264976403,1594.65548694,1594.65548694,1550.0,1550.0,0.0,0.0
1565338997315570205,1594.65548694,1594.65548694,1550.0,1550.0,0.0,0.0
1565338997365018382,1594.65548694,1594.65548694,1550.0,1550.0,0.0,0.0
1565338997414908851,1593.56966913,1593.56966913,1550.0,1550.0,0.0,0.0
1565338997464893278,1593.56966913,1593.56966913,1550.0,1550.0,0.0,0.0
1565338997514843539,1593.56966913,1593.56966913,1550.0,1550.0,0.0,0.0
1565338997565061143,1594.65548694,1594.65548694,1550.0,1550.0,0.0,0.0
1565338997614881039,1594.65548694,1594.65548694,1550.0,1550.0,0.0,0.0
1565338997664949684,1593.56966913,1593.56966913,1550.0,1550.0,0.0,0.0
1565338997714946247,1593.56966913,1593.56966913,1550.0,1550.0,0.0,0.0
1565338997764874268,1593.56966913,1593.56966913,1550.0,1550.0,0.0,0.0
1565338997815005986,1594.65548694,1594.65548694,1550.0,1550.0,0.0,0.0
1565338997864947028,1594.65548694,1594.65548694,1550.0,1550.0,0.0,0.0
1565338997915579268,1594.65548694,1594.65548694,1550.0,1550.0,0.0,0.0
1565338997965603330,1594.65548694,1594.65548694,1550.0,1550.0,0.0,0.0
1565338998014939424,1593.56966913,1593.56966913,1550.0,1550.0,0.0,0.0
1565338998065483955,1593.56966913,1593.56966913,1550.0,1550.0,0.0,0.0
1565338998115149736,1593.56966913,1593.56966913,1550.0,1550.0,0.0,0.0
1565338998164982080,1594.65548694,1594.65548694,1550.0,1550.0,0.0,0.0
1565338998215005570,1594.65548694,1594.65548694,1550.0,1550.0,0.0,0.0
1565338998264990205,1594.65548694,1594.65548694,1550.0,1550.0,0.0,0.0
1565338998315157601,1593.56966913,1593.56966913,1550.0,1550.0,0.0,0.0
1565338998366055101,1593.56966913,1593.56966913,1550.0,1550.0,0.0,0.0
1565338998414962236,1593.56966913,1593.56966913,1550.0,1550.0,0.0,0.0
1565338998465068851,1593.56966913,1593.56966913,1550.0,1550.0,0.0,0.0
1565338998514698851,1593.56966913,1593.56966913,1550.0,1550.0,0.0,0.0
1565338998564956611,1593.56966913,1593.56966913,1550.0,1550.0,0.0,0.0
1565338998614906403,1594.65548694,1594.65548694,1550.0,1550.0,0.0,0.0
1565338998664878590,1594.65548694,1594.65548694,1550.0,1550.0,0.0,0.0
1565338998715163851,1594.65548694,1594.65548694,1550.0,1550.0,0.0,0.0
1565338998765602549,1593.56966913,1593.56966913,1550.0,1550.0,0.0,0.0
1565338998814932496,1593.56966913,1593.56966913,1550.0,1550.0,0.0,0.0
1565338998864936194,1593.56966913,1593.56966913,1550.0,1550.0,0.0,0.0
1565338998914995778,1593.56966913,1593.56966913,1550.0,1550.0,0.0,0.0
1565338998964685309,1593.56966913,1593.56966913,1550.0,1550.0,0.0,0.0
1565338999015654632,1593.56966913,1593.56966913,1550.0,1550.0,0.0,0.0
1565338999064963851,1594.65548694,1594.65548694,1550.0,1550.0,0.0,0.0
1565338999115084163,1594.65548694,1594.65548694,1550.0,1550.0,0.0,0.0
1565338999164950778,1594.65548694,1594.65548694,1550.0,1550.0,0.0,0.0
1565338999214939267,1594.65548694,1594.65548694,1550.0,1550.0,0.0,0.0
1565338999264901298,1593.56966913,1593.56966913,1550.0,1550.0,0.0,0.0
1565338999315120517,1593.56966913,1593.56966913,1550.0,1550.0,0.0,0.0
1565338999364912757,1593.56966913,1593.56966913,1550.0,1550.0,0.0,0.0
1565338999415036246,1593.56966913,1593.56966913,1550.0,1550.0,0.0,0.0
1565338999465207548,1593.56966913,1593.56966913,1550.0,1550.0,0.0,0.0
1565338999515093225,1593.56966913,1593.56966913,1550.0,1550.0,0.0,0.0
1565338999564982444,1593.56966913,1593.56966913,1550.0,1550.0,0.0,0.0
1565338999615040621,1593.56966913,1593.56966913,1550.0,1550.0,0.0,0.0
1565338999665157132,1593.56966913,1593.56966913,1550.0,1550.0,0.0,0.0
1565338999716163225,1593.56966913,1593.56966913,1550.0,1550.0,0.0,0.0
1565338999765820309,1593.56966913,1593.56966913,1550.0,1550.0,0.0,0.0
1565338999815171402,1593.56966913,1593.56966913,1550.0,1550.0,0.0,0.0
1565338999865004319,1595.74130177,1595.74130177,1550.0,1550.0,0.0,0.0
1565338999915074736,1595.74130177,1595.74130177,1550.0,1550.0,0.0,0.0
1565338999964861142,1594.65548694,1594.65548694,1550.0,1550.0,0.0,0.0
1565339000014929163,1594.65548694,1594.65548694,1550.0,1550.0,0.0,0.0
1565339000065265152,1595.74130177,1595.74130177,1550.0,1550.0,0.0,0.0
1565339000114983486,1595.74130177,1595.74130177,1550.0,1550.0,0.0,0.0
1565339000165136558,1642.4057126,1642.4057126,1550.0,1550.0,0.0,0.0
1565339000215040517,1642.4057126,1642.4057126,1550.0,1550.0,0.0,0.0
1565339000264920256,1648.91739488,1648.91739488,1550.0,1550.0,0.0,0.0
1565339000315350777,1648.91739488,1648.91739488,1550.0,1550.0,0.0,0.0
1565339000365795881,1648.91739488,1648.91739488,1550.0,1550.0,0.0,0.0
1565339000414674892,1650.0,1650.0,1550.0,1550.0,0.0,0.0
1565339000465246819,1650.0,1650.0,1550.0,1550.0,0.0,0.0
1565339000515115829,1650.0,1650.0,1550.0,1550.0,0.0,0.0
1565339000565280725,1650.0,1650.0,1550.0,1550.0,0.0,0.0
1565339000615753694,1650.0,1650.0,1550.0,1550.0,0.0,0.0
1565339000665512183,1650.0,1650.0,1550.0,1550.0,0.0,0.0
1565339000716402079,1650.0,1650.0,1550.0,1550.0,0.0,0.0
1565339000765442548,1650.0,1650.0,1550.0,1550.0,0.0,0.0
1565339000817155569,1650.0,1650.0,1550.0,1550.0,0.0,0.0
1565339000865068902,1650.0,1650.0,1550.0,1550.0,0.0,0.0
1565339000915850100,1650.0,1650.0,1550.0,1550.0,0.0,0.0
1565339000964956246,1650.0,1650.0,1550.0,1550.0,0.0,0.0
1565339001015863694,1650.0,1650.0,1550.0,1550.0,0.0,0.0
1565339001065245360,1650.0,1650.0,1550.0,1550.0,0.0,0.0
1565339001115319006,1650.0,1650.0,1550.0,1550.0,0.0,0.0
1565339001165150985,1650.0,1650.0,1550.0,1550.0,0.0,0.0
1565339001216434787,1650.0,1650.0,1550.0,1550.0,0.0,0.0
1565339001266058641,1650.0,1650.0,1550.0,1550.0,0.0,0.0
1565339001315754162,1650.0,1650.0,1550.0,1550.0,0.0,0.0
1565339001365213225,1650.0,1650.0,1550.0,1550.0,0.0,0.0
1565339001415061350,1650.0,1650.0,1550.0,1550.0,0.0,0.0
1565339001465089579,1650.0,1650.0,1550.0,1550.0,0.0,0.0
1565339001515248172,1650.0,1650.0,1550.0,1550.0,0.0,0.0
1565339001565382183,1650.0,1650.0,1550.0,1550.0,0.0,0.0
1565339001615193120,1650.0,1650.0,1550.0,1550.0,0.0,0.0
1565339001665194214,1650.0,1650.0,1550.0,1550.0,0.0,0.0
1565339001715048329,1650.0,1650.0,1550.0,1550.0,0.0,0.0
1565339001765258589,1650.0,1650.0,1550.0,1550.0,0.0,0.0
1565339001815217339,1550.0,1550.0,1550.0,1550.0,0.0,0.0
1565339001865712235,1550.0,1550.0,1550.0,1550.0,0.0,0.0
1565339001915079422,1550.0,1550.0,1550.0,1550.0,0.0,0.0
1565339001965113954,1550.0,1550.0,1550.0,1550.0,0.0,0.0
1565339002014962756,1550.0,1550.0,1550.0,1550.0,0.0,0.0
1565339002065215360,1550.0,1550.0,1550.0,1550.0,0.0,0.0
1565339002115223120,1550.0,1550.0,1550.0,1550.0,0.0,0.0
1565339002165210985,1550.0,1550.0,1550.0,1550.0,0.0,0.0
1565339002214767599,1550.0,1550.0,1550.0,1550.0,0.0,0.0
1565339002265990828,1550.0,1550.0,1550.0,1550.0,0.0,0.0
1565339002315055412,1550.0,1550.0,1550.0,1550.0,0.0,0.0
1565339002365045568,1550.0,1550.0,1550.0,1550.0,0.0,0.0
1565339002414989110,1550.0,1550.0,1550.0,1550.0,0.0,0.0
1565339002465095516,1550.0,1550.0,1550.0,1550.0,0.0,0.0
1565339002515176349,1550.0,1550.0,1550.0,1550.0,0.0,0.0
1565339002564996297,1550.0,1550.0,1550.0,1550.0,0.0,0.0
1565339002614937912,1550.0,1550.0,1550.0,1550.0,0.0,0.0
1565339002664980828,1550.0,1550.0,1550.0,1550.0,0.0,0.0
1565339002715308537,1550.0,1550.0,1550.0,1550.0,0.0,0.0
1565339002765032964,1550.0,1550.0,1550.0,1550.0,0.0,0.0
1565339002815139214,1550.0,1550.0,1550.0,1550.0,0.0,0.0
1565339002865029943,1550.0,1550.0,1550.0,1550.0,0.0,0.0
1565339002916082495,1550.0,1550.0,1550.0,1550.0,0.0,0.0
1565339002965139787,1550.0,1550.0,1550.0,1550.0,0.0,0.0
1565339003014908016,1550.0,1550.0,1550.0,1550.0,0.0,0.0
1565339003065029682,1550.0,1550.0,1550.0,1550.0,0.0,0.0
1565339003115518589,1550.0,1550.0,1550.0,1550.0,0.0,0.0
1565339003165102859,1550.0,1550.0,1550.0,1550.0,0.0,0.0
1565339003215088901,1550.0,1550.0,1550.0,1550.0,0.0,0.0
1565339003265103901,1550.0,1550.0,1550.0,1550.0,0.0,0.0
1565339003315475047,1550.0,1550.0,1550.0,1550.0,0.0,0.0
1565339003365174526,1550.0,1550.0,1550.0,1550.0,0.0,0.0
1565339003415093380,1550.0,1550.0,1550.0,1550.0,0.0,0.0
1565339003465022286,1550.0,1550.0,1550.0,1550.0,0.0,0.0
1565339003515365099,1550.0,1550.0,1550.0,1550.0,0.0,0.0
1565339003565156297,1550.0,1550.0,1550.0,1550.0,0.0,0.0
1565339003615173380,1550.0,1550.0,1550.0,1550.0,0.0,0.0
1565339003664937495,1550.0,1550.0,1550.0,1550.0,0.0,0.0
1565339003715934265,1550.0,1550.0,1550.0,1550.0,0.0,0.0
1565339003765025307,1550.0,1550.0,1550.0,1550.0,0.0,0.0
1565339003815158224,1550.0,1550.0,1550.0,1550.0,0.0,0.0
1565339003865215359,1550.0,1550.0,1550.0,1550.0,0.0,0.0
1565339003915365619,1550.0,1550.0,1550.0,1550.0,0.0,0.0
1565339003964941974,1550.0,1550.0,1550.0,1550.0,0.0,0.0
1565339004014629526,1550.0,1550.0,1550.0,1550.0,0.0,0.0
1565339004065056817,1550.0,1550.0,1550.0,1550.0,0.0,0.0
1565339004115651349,1550.0,1550.0,1550.0,1550.0,0.0,0.0
1565339004164781505,1550.0,1550.0,1550.0,1550.0,0.0,0.0
1565339004214986869,1550.0,1550.0,1550.0,1550.0,0.0,0.0
1565339004265150671,1550.0,1550.0,1550.0,1550.0,0.0,0.0
1565339004315362859,1550.0,1550.0,1550.0,1550.0,0.0,0.0
1565339004365090619,1550.0,1550.0,1550.0,1550.0,0.0,0.0
1565339004415050723,1550.0,1550.0,1550.0,1550.0,0.0,0.0
1565339004464651609,1550.0,1550.0,1550.0,1550.0,0.0,0.0
1565339004515033796,1550.0,1550.0,1550.0,1550.0,0.0,0.0
1565339004564977338,1550.0,1550.0,1550.0,1550.0,0.0,0.0
1565339004615219057,1550.0,1550.0,1550.0,1550.0,0.0,0.0
1565339004665987703,1550.0,1550.0,1550.0,1550.0,0.0,0.0
1565339004717149786,1550.0,1550.0,1550.0,1550.0,0.0,0.0
1565339004765181296,1550.0,1550.0,1550.0,1550.0,0.0,0.0
1565339004815240671,1550.0,1550.0,1550.0,1550.0,0.0,0.0
1565339004865250307,1550.0,1550.0,1550.0,1550.0,0.0,0.0
1565339004915741036,1550.0,1550.0,1550.0,1550.0,0.0,0.0
1565339004965050515,1550.0,1550.0,1550.0,1550.0,0.0,0.0
1565339005015142286,1550.0,1550.0,1550.0,1550.0,0.0,0.0
1565339005065184890,1550.0,1550.0,1550.0,1550.0,0.0,0.0
1565339005115245463,1550.0,1550.0,1550.0,1550.0,0.0,0.0
1565339005165239734,1550.0,1550.0,1550.0,1550.0,0.0,0.0
1565339005215090932,1550.0,1550.0,1550.0,1550.0,0.0,0.0
1565339005265176192,1550.0,1550.0,1550.0,1550.0,0.0,0.0
1565339005315388640,1550.0,1550.0,1550.0,1550.0,0.0,0.0
1565339005365051192,1550.0,1550.0,1556.67439774,1556.67439774,0.0,0.0
1565339005414932077,1550.0,1550.0,1556.67439774,1556.67439774,0.0,0.0
1565339005464959161,1550.0,1550.0,1556.67439774,1556.67439774,0.0,0.0
1565339005515019838,1550.0,1550.0,1556.67439774,1556.67439774,0.0,0.0
1565339005565162129,1550.0,1550.0,1556.67439774,1556.67439774,0.0,0.0
1565339005616589473,1550.0,1550.0,1593.57288182,1593.57288182,0.0,0.0
1565339005665175515,1550.0,1550.0,1593.57288182,1593.57288182,0.0,0.0
1565339005716479108,1550.0,1550.0,1596.83033228,1596.83033228,0.0,0.0
1565339005765205775,1550.0,1550.0,1596.83033228,1596.83033228,0.0,0.0
1565339005815440046,1550.0,1550.0,1596.83033228,1596.83033228,0.0,0.0
1565339005865609994,1550.0,1550.0,1597.91293442,1597.91293442,0.0,0.0
1565339005915300879,1550.0,1550.0,1597.91293442,1597.91293442,0.0,0.0
1565339005965050671,1550.0,1550.0,1597.91293442,1597.91293442,0.0,0.0
1565339006014640254,1550.0,1550.0,1597.91293442,1597.91293442,0.0,0.0
1565339006065800567,1550.0,1550.0,1597.91293442,1597.91293442,0.0,0.0
1565339006116823848,1550.0,1550.0,1597.91293442,1597.91293442,0.0,0.0
1565339006165928379,1550.0,1550.0,1601.17038488,1601.17038488,0.0,0.0
1565339006215211035,1550.0,1550.0,1601.17038488,1601.17038488,0.0,0.0
1565339006265591869,1550.0,1550.0,1601.17038488,1601.17038488,0.0,0.0
1565339006316263796,1550.0,1550.0,1614.19375539,1614.19375539,0.0,0.0
1565339006365688587,1550.0,1550.0,1614.19375539,1614.19375539,0.0,0.0
1565339006415078327,1550.0,1550.0,1614.19375539,1614.19375539,0.0,0.0
1565339006465216452,1550.0,1550.0,1615.27636051,1615.27636051,0.0,0.0
1565339006515026035,1550.0,1550.0,1615.27636051,1615.27636051,0.0,0.0
1565339006564988639,1550.0,1550.0,1614.19375539,1614.19375539,0.0,0.0
1565339006615088275,1550.0,1550.0,1614.19375539,1614.19375539,0.0,0.0
1565339006665118691,1550.0,1550.0,1614.19375539,1614.19375539,0.0,0.0
1565339006716209629,1550.0,1550.0,1614.19375539,1614.19375539,0.0,0.0
1565339006765241973,1550.0,1550.0,1614.19375539,1614.19375539,0.0,0.0
1565339006814953795,1550.0,1550.0,1614.19375539,1614.19375539,0.0,0.0
1565339006864973535,1550.0,1550.0,1614.19375539,1614.19375539,0.0,0.0
1565339006915211035,1550.0,1550.0,1614.19375539,1614.19375539,0.0,0.0
1565339006964989785,1550.0,1550.0,1614.19375539,1614.19375539,0.0,0.0
1565339007015053795,1550.0,1550.0,1614.19375539,1614.19375539,0.0,0.0
1565339007065359212,1550.0,1550.0,1614.19375539,1614.19375539,0.0,0.0
1565339007117154993,1550.0,1550.0,1614.19375539,1614.19375539,0.0,0.0
1565339007165355722,1550.0,1550.0,1614.19375539,1614.19375539,0.0,0.0
1565339007215296399,1550.0,1550.0,1614.19375539,1614.19375539,0.0,0.0
1565339007265222806,1550.0,1550.0,1614.19375539,1614.19375539,0.0,0.0
1565339007315926399,1550.0,1550.0,1614.19375539,1614.19375539,0.0,0.0
1565339007365454629,1550.0,1550.0,1614.19375539,1614.19375539,0.0,0.0
1565339007415222754,1550.0,1550.0,1614.19375539,1614.19375539,0.0,0.0
1565339007465551972,1550.0,1550.0,1614.19375539,1614.19375539,0.0,0.0
1565339007515797337,1550.0,1550.0,1614.19375539,1614.19375539,0.0,0.0
1565339007564924785,1550.0,1550.0,1614.19375539,1614.19375539,0.0,0.0
1565339007615358014,1550.0,1550.0,1614.19375539,1614.19375539,0.0,0.0
1565339007665420201,1550.0,1550.0,1613.10794353,1613.10794353,0.0,0.0
1565339007714974316,1550.0,1550.0,1613.10794353,1613.10794353,0.0,0.0
1565339007764991139,1550.0,1550.0,1614.19375539,1614.19375539,0.0,0.0
1565339007815312076,1550.0,1550.0,1614.19375539,1614.19375539,0.0,0.0
1565339007865706608,1550.0,1550.0,1614.19375539,1614.19375539,0.0,0.0
1565339007915864628,1550.0,1550.0,1614.19375539,1614.19375539,0.0,0.0
1565339007964947597,1550.0,1550.0,1614.19375539,1614.19375539,0.0,0.0
1565339008015080149,1550.0,1550.0,1614.19375539,1614.19375539,0.0,0.0
1565339008065227128,1550.0,1550.0,1614.19375539,1614.19375539,0.0,0.0
1565339008115647076,1550.0,1550.0,1613.10794353,1613.10794353,0.0,0.0
1565339008165263482,1550.0,1550.0,1613.10794353,1613.10794353,0.0,0.0
1565339008215417962,1550.0,1550.0,1613.10794353,1613.10794353,0.0,0.0
1565339008265329576,1550.0,1550.0,1613.10794353,1613.10794353,0.0,0.0
1565339008315139316,1550.0,1550.0,1614.19375539,1614.19375539,0.0,0.0
1565339008364991816,1550.0,1550.0,1614.19375539,1614.19375539,0.0,0.0
1565339008414947649,1550.0,1550.0,1614.19375539,1614.19375539,0.0,0.0
1565339008464909264,1550.0,1550.0,1613.10794353,1613.10794353,0.0,0.0
1565339008515247076,1550.0,1550.0,1613.10794353,1613.10794353,0.0,0.0
1565339008565347753,1550.0,1550.0,1613.10794353,1613.10794353,0.0,0.0
1565339008615372909,1550.0,1550.0,1613.10794353,1613.10794353,0.0,0.0
1565339008664853170,1550.0,1550.0,1613.10794353,1613.10794353,0.0,0.0
1565339008714929576,1550.0,1550.0,1614.19375539,1614.19375539,0.0,0.0
1565339008764901607,1550.0,1550.0,1614.19375539,1614.19375539,0.0,0.0
1565339008815342961,1550.0,1550.0,1614.19375539,1614.19375539,0.0,0.0
1565339008864874211,1550.0,1550.0,1614.19375539,1614.19375539,0.0,0.0
1565339008915938066,1550.0,1550.0,1614.19375539,1614.19375539,0.0,0.0
1565339008965966399,1550.0,1550.0,1613.10794353,1613.10794353,0.0,0.0
1565339009014659993,1550.0,1550.0,1613.10794353,1613.10794353,0.0,0.0
1565339009064716815,1550.0,1550.0,1614.19375539,1614.19375539,0.0,0.0
1565339009114954107,1550.0,1550.0,1614.19375539,1614.19375539,0.0,0.0
1565339009165051295,1550.0,1550.0,1614.19375539,1614.19375539,0.0,0.0
1565339009214921190,1550.0,1550.0,1614.19375539,1614.19375539,0.0,0.0
1565339009264693274,1550.0,1550.0,1614.19375539,1614.19375539,0.0,0.0
1565339009315868742,1550.0,1550.0,1614.19375539,1614.19375539,0.0,0.0
1565339009364844732,1550.0,1550.0,1614.19375539,1614.19375539,0.0,0.0
1565339009414962701,1550.0,1550.0,1614.19375539,1614.19375539,0.0,0.0
1565339009465426347,1550.0,1550.0,1614.19375539,1614.19375539,0.0,0.0
1565339009515858222,1550.0,1550.0,1614.19375539,1614.19375539,0.0,0.0
1565339009564670305,1550.0,1550.0,1614.19375539,1614.19375539,0.0,0.0
1565339009614769367,1550.0,1550.0,1614.19375539,1614.19375539,0.0,0.0
1565339009664733065,1550.0,1550.0,1614.19375539,1614.19375539,0.0,0.0
1565339009714987336,1550.0,1550.0,1617.44799614,1617.44799614,0.0,0.0
1565339009765089628,1550.0,1550.0,1617.44799614,1617.44799614,0.0,0.0
1565339009815224367,1550.0,1550.0,1620.70544362,1620.70544362,0.0,0.0
1565339009864942440,1550.0,1550.0,1620.70544362,1620.70544362,0.0,0.0
1565339009915244003,1550.0,1550.0,1630.47136664,1630.47136664,0.0,0.0
1565339009965005617,1550.0,1550.0,1630.47136664,1630.47136664,0.0,0.0
1565339010014902857,1550.0,1550.0,1635.89723706,1635.89723706,0.0,0.0
1565339010066054732,1550.0,1550.0,1635.89723706,1635.89723706,0.0,0.0
1565339010117197700,1550.0,1550.0,1635.89723706,1635.89723706,0.0,0.0
1565339010165347336,1550.0,1550.0,1635.89723706,1635.89723706,0.0,0.0
1565339010215099315,1550.0,1550.0,1635.89723706,1635.89723706,0.0,0.0
1565339010265187127,1550.0,1550.0,1635.89723706,1635.89723706,0.0,0.0
1565339010314971867,1550.0,1550.0,1635.89723706,1635.89723706,0.0,0.0
1565339010365159263,1550.0,1550.0,1635.89723706,1635.89723706,0.0,0.0
1565339010414940357,1550.0,1550.0,1635.89723706,1635.89723706,0.0,0.0
1565339010464974367,1550.0,1550.0,1635.89723706,1635.89723706,0.0,0.0
1565339010516429940,1550.0,1550.0,1635.89723706,1635.89723706,0.0,0.0
1565339010566457388,1550.0,1550.0,1635.89723706,1635.89723706,0.0,0.0
1565339010615145096,1550.0,1550.0,1638.06886673,1638.06886673,0.0,0.0
1565339010665014263,1550.0,1550.0,1638.06886673,1638.06886673,0.0,0.0
1565339010715516502,1550.0,1550.0,1641.32310748,1641.32310748,0.0,0.0
1565339010765067075,1550.0,1550.0,1641.32310748,1641.32310748,0.0,0.0
1565339010815279784,1550.0,1550.0,1640.23728967,1640.23728967,0.0,0.0
1565339010865412231,1550.0,1550.0,1640.23728967,1640.23728967,0.0,0.0
1565339010915449731,1550.0,1550.0,1641.32310748,1641.32310748,0.0,0.0
1565339010965097440,1550.0,1550.0,1641.32310748,1641.32310748,0.0,0.0
1565339011015079158,1550.0,1550.0,1641.32310748,1641.32310748,0.0,0.0
1565339011065096190,1550.0,1550.0,1641.32310748,1641.32310748,0.0,0.0
1565339011115559367,1550.0,1550.0,1642.40892529,1642.40892529,0.0,0.0
1565339011164826919,1550.0,1550.0,1642.40892529,1642.40892529,0.0,0.0
1565339011215346346,1550.0,1550.0,1641.32310748,1641.32310748,0.0,0.0
1565339011265592492,1550.0,1550.0,1641.32310748,1641.32310748,0.0,0.0
1565339011316900773,1550.0,1550.0,1641.32310748,1641.32310748,0.0,0.0
1565339011365390512,1550.0,1550.0,1641.32310748,1641.32310748,0.0,0.0
1565339011415392752,1550.0,1550.0,1641.32310748,1641.32310748,0.0,0.0
1565339011465649471,1550.0,1550.0,1642.40892529,1642.40892529,0.0,0.0
1565339011515717700,1550.0,1550.0,1642.40892529,1642.40892529,0.0,0.0
1565339011565440356,1550.0,1550.0,1642.40892529,1642.40892529,0.0,0.0
1565339011615387596,1550.0,1550.0,1642.40892529,1642.40892529,0.0,0.0
1565339011665428533,1550.0,1550.0,1642.40892529,1642.40892529,0.0,0.0
1565339011715492908,1550.0,1550.0,1642.40892529,1642.40892529,0.0,0.0
1565339011765278064,1550.0,1550.0,1642.40892529,1642.40892529,0.0,0.0
1565339011815629262,1550.0,1550.0,1642.40892529,1642.40892529,0.0,0.0
1565339011865586294,1550.0,1550.0,1642.40892529,1642.40892529,0.0,0.0
1565339011916077335,1550.0,1550.0,1644.57734227,1644.57734227,0.0,0.0
1565339011965473898,1550.0,1550.0,1644.57734227,1644.57734227,0.0,0.0
1565339012015287023,1550.0,1550.0,1644.57734227,1644.57734227,0.0,0.0
1565339012065332231,1550.0,1550.0,1550.0,1550.0,0.0,0.0
1565339012115876241,1550.0,1550.0,1550.0,1550.0,0.0,0.0
1565339012165534418,1550.0,1550.0,1550.0,1550.0,0.0,0.0
1565339012215664575,1550.0,1550.0,1550.0,1550.0,0.0,0.0
1565339012265646866,1550.0,1550.0,1550.0,1550.0,0.0,0.0
1565339012316171658,1550.0,1550.0,1550.0,1550.0,0.0,0.0
1565339012365227752,1550.0,1550.0,1550.0,1550.0,0.0,0.0
1565339012415205356,1550.0,1550.0,1550.0,1550.0,0.0,0.0
1565339012465224418,1550.0,1550.0,1550.0,1550.0,0.0,0.0
1565339012515662283,1550.0,1550.0,1550.0,1550.0,0.0,0.0
1565339012565510877,1561.47600338,1550.0,1550.0,1561.47600338,0.0,0.0
1565339012615356397,1561.47600338,1550.0,1550.0,1561.47600338,0.0,0.0
1565339012665348637,1561.47600338,1550.0,1550.0,1561.47600338,0.0,0.0
1565339012715898481,1569.07189935,1550.0,1550.0,1569.07189935,0.0,0.0
1565339012765364835,1569.07189935,1550.0,1550.0,1569.07189935,0.0,0.0
1565339012815261293,1575.5835861,1550.0,1550.0,1575.5835861,0.0,0.0
1565339012865251345,1575.5835861,1550.0,1550.0,1575.5835861,0.0,0.0
1565339012915354470,1579.38233614,1550.0,1550.0,1579.38233614,0.0,0.0
1565339012965613272,1579.38233614,1550.0,1550.0,1579.38233614,0.0,0.0
1565339013015684991,1579.38233614,1550.0,1550.0,1579.38233614,0.0,0.0
1565339013065389731,1579.38233614,1550.0,1550.0,1579.38233614,0.0,0.0
1565339013116175460,1579.9236387,1550.0,1550.0,1579.9236387,0.0,0.0
1565339013165229522,1579.9236387,1550.0,1550.0,1579.9236387,0.0,0.0
1565339013215232960,1581.55236542,1550.0,1550.0,1581.55236542,0.0,0.0
1565339013265282595,1581.55236542,1550.0,1550.0,1581.55236542,0.0,0.0
1565339013315699314,1581.55236542,1550.0,1550.0,1581.55236542,0.0,0.0
1565339013365322283,1581.00945652,1550.0,1550.0,1581.00945652,0.0,0.0
1565339013415246501,1581.00945652,1550.0,1550.0,1581.00945652,0.0,0.0
1565339013465220251,1581.00945652,1550.0,1550.0,1581.00945652,0.0,0.0
1565339013515453637,1581.00945652,1550.0,1550.0,1581.00945652,0.0,0.0
1565339013565247387,1581.00945652,1550.0,1550.0,1581.00945652,0.0,0.0
1565339013614811970,1581.00945652,1550.0,1550.0,1581.00945652,0.0,0.0
1565339013664851501,1581.00945652,1550.0,1550.0,1581.00945652,0.0,0.0
1565339013715320824,1553.87850106,1550.0,1550.0,1553.87850106,0.0,0.0
1565339013765198324,1553.87850106,1550.0,1550.0,1553.87850106,0.0,0.0
1565339013815241345,1550.0,1550.0,1550.0,1550.0,0.0,0.0
1565339013864930459,1550.0,1550.0,1550.0,1550.0,0.0,0.0
1565339013915206189,1550.0,1550.0,1550.0,1550.0,0.0,0.0
1565339013965087334,1550.0,1550.0,1550.0,1550.0,0.0,0.0
1565339014014992439,1550.0,1550.0,1550.0,1550.0,0.0,0.0
1565339014064890511,1550.0,1550.0,1550.0,1550.0,0.0,0.0
1565339014115695355,1550.0,1550.0,1550.0,1550.0,0.0,0.0
1565339014165037803,1550.0,1550.0,1550.0,1550.0,0.0,0.0
1565339014215367126,1550.0,1550.0,1550.0,1550.0,0.0,0.0
1565339014265174782,1550.0,1550.0,1550.0,1550.0,0.0,0.0
1565339014315368063,1550.0,1550.0,1550.0,1550.0,0.0,0.0
1565339014365171970,1550.0,1550.0,1550.0,1550.0,0.0,0.0
1565339014415058584,1550.0,1550.0,1550.0,1550.0,0.0,0.0
1565339014465190511,1550.0,1550.0,1550.0,1550.0,0.0,0.0
1565339014516672334,1550.0,1550.0,1550.0,1550.0,0.0,0.0
1565339014565257699,1550.0,1550.0,1550.0,1550.0,0.0,0.0
1565339014614875720,1550.0,1550.0,1550.0,1550.0,0.0,0.0
1565339014664666813,1550.0,1550.0,1550.0,1550.0,0.0,0.0
1565339014715355199,1550.0,1550.0,1550.0,1550.0,0.0,0.0
1565339014764591865,1550.0,1550.0,1550.0,1550.0,0.0,0.0
1565339014814797438,1550.0,1550.0,1550.0,1550.0,0.0,0.0
1565339014864862594,1565.81605673,1550.0,1550.0,1565.81605673,0.0,0.0
1565339014914958428,1565.81605673,1550.0,1550.0,1565.81605673,0.0,0.0
1565339014964639574,1565.81605673,1550.0,1550.0,1565.81605673,0.0,0.0
1565339015014982334,1565.81605673,1550.0,1550.0,1565.81605673,0.0,0.0
1565339015064701084,1565.81605673,1550.0,1550.0,1565.81605673,0.0,0.0
1565339015115161449,1565.81605673,1550.0,1550.0,1565.81605673,0.0,0.0
1565339015165056032,1565.27314931,1550.0,1550.0,1565.27314931,0.0,0.0
1565339015214880824,1565.27314931,1550.0,1550.0,1565.27314931,0.0,0.0
1565339015265213011,1565.27314931,1550.0,1550.0,1565.27314931,0.0,0.0
1565339015314866917,1550.0,1550.0,1550.0,1550.0,0.0,0.0
1565339015366301396,1550.0,1550.0,1550.0,1550.0,0.0,0.0
1565339015414988480,1550.0,1550.0,1550.0,1550.0,0.0,0.0
1565339015464755876,1550.0,1550.0,1550.0,1550.0,0.0,0.0
1565339015515177542,1550.0,1550.0,1550.0,1550.0,0.0,0.0
1565339015565114365,1550.0,1550.0,1550.0,1550.0,0.0,0.0
1565339015615223688,1550.0,1550.0,1550.0,1550.0,0.0,0.0
1565339015665317855,1550.0,1550.0,1550.0,1550.0,0.0,0.0
1565339015715055771,1571.24192715,1550.0,1550.0,1571.24192715,0.0,0.0
1565339015764917438,1571.24192715,1550.0,1550.0,1571.24192715,0.0,0.0
1565339015815028219,1571.24192715,1550.0,1550.0,1571.24192715,0.0,0.0
1565339015865054052,1571.24192715,1550.0,1550.0,1571.24192715,0.0,0.0
1565339015914815250,1550.0,1550.0,1550.0,1550.0,0.0,0.0
1565339015964947594,1550.0,1550.0,1550.0,1550.0,0.0,0.0
1565339016014711865,1550.0,1550.0,1550.0,1550.0,0.0,0.0
1565339016064815719,1550.0,1550.0,1550.0,1550.0,0.0,0.0
1565339016114905823,1550.0,1550.0,1550.0,1550.0,0.0,0.0
1565339016164702073,1550.0,1550.0,1550.0,1550.0,0.0,0.0
1565339016216339417,1550.0,1550.0,1550.0,1550.0,0.0,0.0
1565339016265433115,1550.0,1620.70223093,1550.0,1620.70223093,0.0,0.0
1565339016316182959,1550.0,1620.70223093,1550.0,1620.70223093,0.0,0.0
1565339016365290615,1550.0,1627.21070647,1550.0,1627.21070647,0.0,0.0
1565339016415013792,1550.0,1627.21070647,1550.0,1627.21070647,0.0,0.0
1565339016464979938,1550.0,1627.21070647,1550.0,1627.21070647,0.0,0.0
1565339016514959313,1550.0,1630.46815395,1550.0,1630.46815395,0.0,0.0
1565339016565193063,1550.0,1630.46815395,1550.0,1630.46815395,0.0,0.0
1565339016614835198,1550.0,1641.31989479,1550.0,1641.31989479,0.0,0.0
1565339016664733167,1550.0,1641.31989479,1550.0,1641.31989479,0.0,0.0
1565339016715781917,1550.0,1642.4057126,1550.0,1642.4057126,0.0,0.0
1565339016765362021,1550.0,1642.4057126,1550.0,1642.4057126,0.0,0.0
1565339016814990927,1550.0,1642.4057126,1550.0,1642.4057126,0.0,0.0
1565339016864918896,1550.0,1642.4057126,1550.0,1642.4057126,0.0,0.0
1565339016915449260,1550.0,1642.4057126,1550.0,1642.4057126,0.0,0.0
1565339016964903531,1550.0,1642.4057126,1550.0,1642.4057126,0.0,0.0
1565339017015033583,1550.0,1642.4057126,1550.0,1642.4057126,0.0,0.0
1565339017064906604,1550.0,1550.0,1550.0,1550.0,0.0,0.0
1565339017115315771,1550.0,1550.0,1550.0,1550.0,0.0,0.0
1565339017165132958,1550.0,1550.0,1550.0,1550.0,0.0,0.0
1565339017215168583,1550.0,1550.0,1550.0,1550.0,0.0,0.0
1565339017266494677,1550.0,1550.0,1550.0,1550.0,0.0,0.0
1565339017316530510,1550.0,1550.0,1550.0,1550.0,0.0,0.0
1565339017364968739,1550.0,1550.0,1550.0,1550.0,0.0,0.0
1565339017414957437,1550.0,1550.0,1550.0,1550.0,0.0,0.0
1565339017464831812,1550.0,1550.0,1550.0,1550.0,0.0,0.0
1565339017515266291,1550.0,1550.0,1550.0,1550.0,0.0,0.0
1565339017565137958,1550.0,1550.0,1550.0,1550.0,0.0,0.0
1565339017614926343,1550.0,1550.0,1550.0,1550.0,0.0,0.0
1565339017665079312,1550.0,1550.0,1550.0,1550.0,0.0,0.0
1565339017715035458,1550.0,1550.0,1550.0,1550.0,0.0,0.0
1565339017764946239,1550.0,1550.0,1550.0,1550.0,0.0,0.0
1565339017814941448,1550.0,1550.0,1550.0,1550.0,0.0,0.0
1565339017865488166,1550.0,1550.0,1550.0,1550.0,0.0,0.0
1565339017915438427,1550.0,1550.0,1550.0,1550.0,0.0,0.0
1565339017964980250,1550.0,1550.0,1550.0,1550.0,0.0,0.0
1565339018014929156,1550.0,1550.0,1550.0,1550.0,0.0,0.0
1565339018064911864,1550.0,1550.0,1550.0,1550.0,0.0,0.0
1565339018115451083,1550.0,1550.0,1550.0,1550.0,0.0,0.0
1565339018164975562,1550.0,1550.0,1550.0,1550.0,0.0,0.0
1565339018215119833,1550.0,1550.0,1558.84603113,1558.84603113,0.0,0.0
1565339018264639104,1550.0,1550.0,1558.84603113,1558.84603113,0.0,0.0
1565339018314734885,1550.0,1550.0,1566.4435342,1566.4435342,0.0,0.0
1565339018365348531,1550.0,1550.0,1566.4435342,1566.4435342,0.0,0.0
1565339018414842958,1550.0,1550.0,1566.4435342,1566.4435342,0.0,0.0
1565339018465053843,1550.0,1550.0,1642.40892529,1642.40892529,0.0,0.0
1565339018514912645,1550.0,1550.0,1642.40892529,1642.40892529,0.0,0.0
1565339018564748947,1550.0,1550.0,1642.40892529,1642.40892529,0.0,0.0
1565339018615354520,1550.0,1550.0,1650.0,1650.0,0.0,0.0
1565339018665547385,1550.0,1550.0,1650.0,1650.0,0.0,0.0
1565339018716768531,1550.0,1550.0,1650.0,1650.0,0.0,0.0
1565339018765262176,1550.0,1550.0,1650.0,1650.0,0.0,0.0
1565339018815156291,1550.0,1550.0,1650.0,1650.0,0.0,0.0
1565339018865485770,1550.0,1550.0,1650.0,1650.0,0.0,0.0
1565339018915906708,1550.0,1550.0,1650.0,1650.0,0.0,0.0
1565339018964994364,1550.0,1550.0,1650.0,1650.0,0.0,0.0
1565339019016389832,1550.0,1550.0,1650.0,1650.0,0.0,0.0
1565339019064849520,1550.0,1550.0,1650.0,1650.0,0.0,0.0
1565339019114710666,1550.0,1550.0,1650.0,1650.0,0.0,0.0
1565339019164922801,1550.0,1550.0,1650.0,1650.0,0.0,0.0
1565339019215062697,1550.0,1550.0,1650.0,1650.0,0.0,0.0
1565339019264788009,1550.0,1550.0,1650.0,1650.0,0.0,0.0
1565339019315270770,1550.0,1550.0,1650.0,1650.0,0.0,0.0
1565339019364746759,1550.0,1550.0,1650.0,1650.0,0.0,0.0
1565339019414695301,1550.0,1550.0,1650.0,1650.0,0.0,0.0
1565339019464861551,1550.0,1550.0,1650.0,1650.0,0.0,0.0
