%time,field.header.seq,field.header.stamp,field.header.frame_id,field.pose.position.x,field.pose.position.y,field.pose.position.z,field.pose.orientation.x,field.pose.orientation.y,field.pose.orientation.z,field.pose.orientation.w
1565341090185307115,42154,1565341090130269294,map,1.32407665253,0.102174758911,0.0,0.0,0.0,-0.296215606806,0.955121099277
1565341090252553574,42155,1565341090197389814,map,1.32892608643,0.101969718933,0.0,0.0,0.0,-0.299630621816,0.954055286904
1565341090318957167,42156,1565341090263869814,map,1.33243083954,0.102516174316,0.0,0.0,0.0,-0.302745963326,0.953071288881
1565341090385303365,42157,1565341090330237575,map,1.33739471436,0.102704048157,0.0,0.0,0.0,-0.305990634318,0.952034522331
1565341090452165917,42158,1565341090396894710,map,1.34168434143,0.102975845337,0.0,0.0,0.0,-0.309159879757,0.951010078153
1565341090526041490,42159,1565341090466086012,map,1.34551048279,0.103067398071,0.0,0.0,0.0,-0.31245796363,0.949931587518
1565341090592071386,42160,1565341090532507679,map,1.35049247742,0.103345870972,0.0,0.0,0.0,-0.315947507806,0.948776671463
1565341090658855553,42161,1565341090599263408,map,1.35422325134,0.102722167969,0.0,0.0,0.0,-0.319062915531,0.947733536355
1565341090726093209,42162,1565341090666558512,map,1.35852241516,0.103036880493,0.0,0.0,0.0,-0.322127706341,0.946696224143
1565341090793417844,42163,1565341090732976689,map,1.36277770996,0.103212356567,0.0,0.0,0.0,-0.325275249292,0.945619380194
1565341090860415709,42164,1565341090799526064,map,1.36658763885,0.10343170166,0.0,0.0,0.0,-0.328207501945,0.944605650876
1565341090927647219,42165,1565341090866639866,map,1.37137794495,0.104066848755,0.0,0.0,0.0,-0.331215782809,0.943555035606
1565341090993348209,42166,1565341090932678564,map,1.3756608963,0.104212760925,0.0,0.0,0.0,-0.33462222401,0.942352358303
1565341091059711177,42167,1565341090999563095,map,1.379778862,0.105127334595,0.0,0.0,0.0,-0.337632044609,0.941278174852
1565341091126936021,42168,1565341091066742418,map,1.38450813293,0.105959892273,0.0,0.0,0.0,-0.340607931096,0.940205422913
1565341091192140292,42169,1565341091132380022,map,1.38784599304,0.106233596802,0.0,0.0,0.0,-0.343486367638,0.939157662614
1565341091261696646,42170,1565341091199251012,map,1.39155006409,0.106966972351,0.0,0.0,0.0,-0.34627099697,0.938134530149
1565341091327798052,42171,1565341091266920126,map,1.39594268799,0.107249259949,0.0,0.0,0.0,-0.349177022205,0.93705677905
1565341091392201594,42172,1565341091332155387,map,1.40023517609,0.108075141907,0.0,0.0,0.0,-0.351986413507,0.936005109338
1565341091459897427,42173,1565341091399601220,map,1.40387248993,0.108820915222,0.0,0.0,0.0,-0.354818494616,0.934935204107
1565341091525894511,42174,1565341091466408668,map,1.40762329102,0.10897064209,0.0,0.0,0.0,-0.357445818195,0.933933877239
1565341091592438886,42175,1565341091532206533,map,1.41233825684,0.109417915344,0.0,0.0,0.0,-0.360466203068,0.932772274698
1565341091658692896,42176,1565341091598758408,map,1.41637229919,0.109359741211,0.0,0.0,0.0,-0.363236701495,0.931696892067
1565341091726399719,42177,1565341091665807939,map,1.41991138458,0.110277175903,0.0,0.0,0.0,-0.365907473967,0.930651234618
1565341091792838156,42178,1565341091732407626,map,1.42455482483,0.111833572388,0.0,0.0,0.0,-0.368168725422,0.92975899545
1565341091860197011,42179,1565341091799119345,map,1.42761421204,0.112649917603,0.0,0.0,0.0,-0.368774033072,0.929519075938
1565341091926234875,42180,1565341091865707366,map,1.43163013458,0.113911628723,0.0,0.0,0.0,-0.36757678711,0.929993175017
1565341091993679823,42181,1565341091933010907,map,1.43464183807,0.115919113159,0.0,0.0,0.0,-0.364539827013,0.931187797666
1565341092060590396,42182,1565341091999714032,map,1.43863487244,0.117036819458,0.0,0.0,0.0,-0.360502230018,0.932758351424
1565341092125801594,42183,1565341092066350178,map,1.44184684753,0.119013786316,0.0,0.0,0.0,-0.354473857963,0.93506592496
1565341092193558573,42184,1565341092133119189,map,1.44655132294,0.120025634766,0.0,0.0,0.0,-0.346953542115,0.937882316505
1565341092260795083,42185,1565341092199851324,map,1.44988059998,0.121780395508,0.0,0.0,0.0,-0.338079271959,0.941117636575
1565341092325506333,42186,1565341092266084709,map,1.45350837708,0.122903823853,0.0,0.0,0.0,-0.327340975231,0.944906284207
1565341092392340500,42187,1565341092332488772,map,1.45810413361,0.124708175659,0.0,0.0,0.0,-0.316148597829,0.948709683776
1565341092459832114,42188,1565341092399570959,map,1.46175956726,0.126696586609,0.0,0.0,0.0,-0.302970912494,0.952999803873
1565341092526350864,42189,1565341092466179605,map,1.46505260468,0.128392219543,0.0,0.0,0.0,-0.288826020119,0.957381601088
1565341092593271958,42190,1565341092532494553,map,1.46747016907,0.129379272461,0.0,0.0,0.0,-0.273460560073,0.961883216448
1565341092659548000,42191,1565341092599096168,map,1.47093009949,0.131944656372,0.0,0.0,0.0,-0.257151650824,0.966371061487
1565341092726262687,42192,1565341092665774501,map,1.47429847717,0.134152412415,0.0,0.0,0.0,-0.239592294555,0.970873592385
1565341092792695500,42193,1565341092732572730,map,1.47669410706,0.135684013367,0.0,0.0,0.0,-0.220816804958,0.975315302171
1565341092860203781,42194,1565341092799216272,map,1.47968578339,0.137784004211,0.0,0.0,0.0,-0.200729083282,0.979646791004
1565341092926602375,42195,1565341092865896324,map,1.48439979553,0.138694763184,0.0,0.0,0.0,-0.179472394761,0.983763009835
1565341092993985708,42196,1565341092932834032,map,1.4898891449,0.139730453491,0.0,0.0,0.0,-0.157865777805,0.987460579567
1565341093061110864,42197,1565341092999097313,map,1.49622344971,0.141324996948,0.0,0.0,0.0,-0.1358771852,0.990725688847
1565341093126726854,42198,1565341093066423355,map,1.50416278839,0.142358779907,0.0,0.0,0.0,-0.113476085552,0.993540727906
1565341093194070968,42199,1565341093133112157,map,1.51126289368,0.144038200378,0.0,0.0,0.0,-0.0906068583252,0.995886739155
1565341093260048625,42200,1565341093199758042,map,1.51684856415,0.145486831665,0.0,0.0,0.0,-0.0674785132651,0.997720727582
1565341093327615968,42201,1565341093266274240,map,1.51842784882,0.146333694458,0.0,0.0,0.0,-0.0437724497768,0.999041526985
1565341093393344354,42202,1565341093332836792,map,1.52536010742,0.14804649353,0.0,0.0,0.0,-0.021564154992,0.999767466574
1565341093459748104,42203,1565341093399861219,map,1.52969646454,0.149670600891,0.0,0.0,0.0,-0.000930221733592,0.999999567344
1565341093527660708,42204,1565341093467319553,map,1.53105449677,0.151600837708,0.0,0.0,0.0,0.0184658104639,0.999829492386
1565341093592090291,42205,1565341093532154396,map,1.53355979919,0.153343200684,0.0,0.0,0.0,0.0364599872678,0.999335113627
1565341093661215708,42206,1565341093598859292,map,1.53574848175,0.155183792114,0.0,0.0,0.0,0.0540122208188,0.998540274602
1565341093726440551,42207,1565341093665572730,map,1.53978252411,0.158220291138,0.0,0.0,0.0,0.0701680530069,0.997535184511
1565341093792716958,42208,1565341093732232001,map,1.54172515869,0.159838676453,0.0,0.0,0.0,0.0856700773263,0.996323560823
1565341093859891853,42209,1565341093799528042,map,1.54559612274,0.161943435669,0.0,0.0,0.0,0.0998972988359,0.994997753608
1565341093926264510,42210,1565341093865510542,map,1.54717826843,0.163182258606,0.0,0.0,0.0,0.113914855007,0.993490516215
1565341093992671228,42211,1565341093932371584,map,1.54971504211,0.16473197937,0.0,0.0,0.0,0.126422882609,0.991976438608
1565341094059291020,42212,1565341093998783303,map,1.55227088928,0.166272163391,0.0,0.0,0.0,0.138570861194,0.990352521291
1565341094128571958,42213,1565341094065489240,map,1.55474281311,0.167017936707,0.0,0.0,0.0,0.15030606576,0.988639512965
1565341094192985395,42214,1565341094132205177,map,1.56117534637,0.169687271118,0.0,0.0,0.0,0.159937983166,0.987127064537
1565341094259089926,42215,1565341094199708302,map,1.56033611298,0.171084403992,0.0,0.0,0.0,0.170996489147,0.985271638026
1565341094326617843,42216,1565341094266085229,map,1.56214427948,0.173057556152,0.0,0.0,0.0,0.180626185502,0.98355181923
1565341094392075030,42217,1565341094332387677,map,1.56517791748,0.174909591675,0.0,0.0,0.0,0.189925044156,0.981798593196
1565341094459172114,42218,1565341094399109552,map,1.5669298172,0.176447868347,0.0,0.0,0.0,0.198704368897,0.980059474614
1565341094527131280,42219,1565341094466203667,map,1.56764221191,0.178016662598,0.0,0.0,0.0,0.207715316146,0.978189320857
1565341094592690134,42220,1565341094532381063,map,1.56867218018,0.179679870605,0.0,0.0,0.0,0.215970564337,0.976399874713
1565341094659632426,42221,1565341094599155334,map,1.57099914551,0.1812915802,0.0,0.0,0.0,0.224086951234,0.97456915521
1565341094726507582,42222,1565341094666148719,map,1.57249736786,0.184377670288,0.0,0.0,0.0,0.231677824495,0.972792570714
1565341094793165707,42223,1565341094732809969,map,1.57509422302,0.184921264648,0.0,0.0,0.0,0.23907908258,0.971000099007
1565341094859915655,42224,1565341094799656740,map,1.5774936676,0.187832832336,0.0,0.0,0.0,0.245370990423,0.969429253251
1565341094927134509,42225,1565341094866393302,map,1.58003234863,0.18844127655,0.0,0.0,0.0,0.252265504479,0.967658056986
1565341094992509978,42226,1565341094932527052,map,1.58229064941,0.190289497375,0.0,0.0,0.0,0.258543407681,0.965999640965
1565341095058438416,42227,1565341094998944083,map,1.58412361145,0.191950798035,0.0,0.0,0.0,0.264966053763,0.964257740624
1565341095126230082,42228,1565341095066556219,map,1.58702278137,0.193483352661,0.0,0.0,0.0,0.270841653082,0.962623913559
1565341095192056332,42229,1565341095132329396,map,1.58998298645,0.195062637329,0.0,0.0,0.0,0.276581109439,0.960990577426
1565341095260335238,42230,1565341095199386635,map,1.59194660187,0.196415901184,0.0,0.0,0.0,0.282392540686,0.959298938269
1565341095326079040,42231,1565341095266630021,map,1.59351921082,0.197961807251,0.0,0.0,0.0,0.287800179214,0.957690480711
1565341095391960863,42232,1565341095332399344,map,1.59688854218,0.199604988098,0.0,0.0,0.0,0.292551866078,0.956249656551
1565341095458720395,42233,1565341095399262312,map,1.59907722473,0.200956344604,0.0,0.0,0.0,0.297540273669,0.954709267549
1565341095526094249,42234,1565341095466676062,map,1.6014509201,0.2016954422,0.0,0.0,0.0,0.302414388181,0.953176551233
1565341095592157738,42235,1565341095532296844,map,1.60415172577,0.204005241394,0.0,0.0,0.0,0.307006321082,0.951707475444
1565341095659853624,42236,1565341095598985541,map,1.6064081192,0.205770492554,0.0,0.0,0.0,0.311352976593,0.950294335439
1565341095728059509,42237,1565341095667008146,map,1.60861778259,0.20774269104,0.0,0.0,0.0,0.315651021165,0.948875351581
1565341095792926488,42238,1565341095732308250,map,1.61108875275,0.208749771118,0.0,0.0,0.0,0.320073440831,0.94739273402
1565341095859965238,42239,1565341095799533146,map,1.61340045929,0.210664749146,0.0,0.0,0.0,0.323733253113,0.946148392605
1565341095925975186,42240,1565341095866113354,map,1.61517810822,0.210655212402,0.0,0.0,0.0,0.328242325056,0.94459355071
1565341095992154874,42241,1565341095932345021,map,1.61752414703,0.212404251099,0.0,0.0,0.0,0.331706743555,0.943382550337
1565341096059225030,42242,1565341095998964760,map,1.62010192871,0.21321105957,0.0,0.0,0.0,0.335816098985,0.941927570285
1565341096125720238,42243,1565341096065819083,map,1.62166309357,0.214471817017,0.0,0.0,0.0,0.340324350121,0.940308107332
1565341096193224821,42244,1565341096133158979,map,1.62339782715,0.215719223022,0.0,0.0,0.0,0.346969362372,0.93787646392
1565341096259817478,42245,1565341096200116270,map,1.62476158142,0.216753005981,0.0,0.0,0.0,0.355467316105,0.93468871138
1565341096326593832,42246,1565341096266637104,map,1.62631034851,0.217371940613,0.0,0.0,0.0,0.365392146525,0.930853683056
1565341096392335446,42247,1565341096332488041,map,1.62876701355,0.219088554382,0.0,0.0,0.0,0.376136024855,0.926564455829
1565341096459118050,42248,1565341096399283979,map,1.63018894196,0.220011711121,0.0,0.0,0.0,0.388651706036,0.921384746669
1565341096526666800,42249,1565341096465798406,map,1.63104534149,0.221639633179,0.0,0.0,0.0,0.402016815983,0.915632284089
1565341096592487790,42250,1565341096532468406,map,1.63220024109,0.222949028015,0.0,0.0,0.0,0.416885084935,0.908959199282
1565341096660002477,42251,1565341096599071166,map,1.63333415985,0.224319458008,0.0,0.0,0.0,0.432977571957,0.901404693899
1565341096725517009,42252,1565341096665800437,map,1.63446521759,0.226388931274,0.0,0.0,0.0,0.449529400843,0.893265535985
1565341096792647529,42253,1565341096732555593,map,1.63529682159,0.226704597473,0.0,0.0,0.0,0.467403220174,0.884044246501
1565341096859103154,42254,1565341096799086062,map,1.63699626923,0.228170394897,0.0,0.0,0.0,0.485421206377,0.874280419774
1565341096925775394,42255,1565341096866230489,map,1.6381072998,0.229687690735,0.0,0.0,0.0,0.504070976278,0.863662231937
1565341096992400446,42256,1565341096932402676,map,1.63928222656,0.230073928833,0.0,0.0,0.0,0.523188483765,0.852216997281
1565341097059600498,42257,1565341096999048874,map,1.64112854004,0.231025695801,0.0,0.0,0.0,0.542870040833,0.839816717365
1565341097126089456,42258,1565341097066034239,map,1.64277935028,0.232664108276,0.0,0.0,0.0,0.562827649946,0.82657427764
1565341097192512581,42259,1565341097132576530,map,1.64393615723,0.233568191528,0.0,0.0,0.0,0.582909537249,0.812537058468
1565341097260786956,42260,1565341097199758301,map,1.64530944824,0.235322952271,0.0,0.0,0.0,0.603066398767,0.797690991975
1565341097327816331,42261,1565341097265821530,map,1.64675712585,0.236338615417,0.0,0.0,0.0,0.623538992417,0.781792251775
1565341097393240602,42262,1565341097332470749,map,1.64781475067,0.238809585571,0.0,0.0,0.0,0.643621964936,0.765343560927
1565341097459122269,42263,1565341097399062155,map,1.64984703064,0.240727424622,0.0,0.0,0.0,0.664263975973,0.747498073726
1565341097526227321,42264,1565341097466114968,map,1.65054035187,0.239959716797,0.0,0.0,0.0,0.686005959488,0.727595920513
1565341097592713258,42265,1565341097532925176,map,1.65305805206,0.24195098877,0.0,0.0,0.0,0.71041667479,0.703781321278
1565341097660422165,42266,1565341097599984968,map,1.65323162079,0.240501403809,0.0,0.0,0.0,0.729533227591,0.683945370509
1565341097726042998,42267,1565341097666346166,map,1.65391540527,0.239603996277,0.0,0.0,0.0,0.748984929229,0.662587032614
1565341097793157737,42268,1565341097732409395,map,1.65720653534,0.240077018738,0.0,0.0,0.0,0.767682364447,0.640830544931
1565341097859154664,42269,1565341097799159707,map,1.66133213043,0.239858627319,0.0,0.0,0.0,0.785607629474,0.618725021728
1565341097926715498,42270,1565341097866182780,map,1.66586589813,0.240719795227,0.0,0.0,0.0,0.80246256076,0.596702470733
1565341097993015446,42271,1565341097932304811,map,1.666639328,0.241241455078,0.0,0.0,0.0,0.818194562758,0.574941438298
1565341098059157894,42272,1565341097998821270,map,1.66817951202,0.241937637329,0.0,0.0,0.0,0.831950610782,0.554849692457
1565341098125841904,42273,1565341098065616895,map,1.67075443268,0.242517471313,0.0,0.0,0.0,0.844768153551,0.535132475884
1565341098192764873,42274,1565341098132378613,map,1.67300987244,0.243432998657,0.0,0.0,0.0,0.85687958656,0.515516608982
1565341098259583154,42275,1565341098199465436,map,1.67342472076,0.243914604187,0.0,0.0,0.0,0.867538487121,0.497370056762
1565341098326550133,42276,1565341098265578509,map,1.67590141296,0.244120597839,0.0,0.0,0.0,0.877636643033,0.479326530463
1565341098391847581,42277,1565341098332343145,map,1.67784690857,0.244425773621,0.0,0.0,0.0,0.88680499738,0.462143805132
1565341098458588935,42278,1565341098398852936,map,1.67917919159,0.24493598938,0.0,0.0,0.0,0.895169625095,0.445725635687
1565341098525948623,42279,1565341098465635176,map,1.68103599548,0.244850158691,0.0,0.0,0.0,0.902945574788,0.429754917332
1565341098593269664,42280,1565341098532401842,map,1.68345928192,0.244832992554,0.0,0.0,0.0,0.909878334066,0.414875182673
1565341098659441956,42281,1565341098599008301,map,1.68505859375,0.245439529419,0.0,0.0,0.0,0.916498061365,0.400039127479
1565341098728643050,42282,1565341098665674186,map,1.68746948242,0.246747970581,0.0,0.0,0.0,0.922638934177,0.385664876726
1565341098794237633,42283,1565341098732558092,map,1.69045066833,0.247326850891,0.0,0.0,0.0,0.928342181393,0.371726773648
1565341098858862216,42284,1565341098798946426,map,1.69030094147,0.248507499695,0.0,0.0,0.0,0.93356990743,0.358395351449
1565341098926581331,42285,1565341098866063196,map,1.69505596161,0.247894287109,0.0,0.0,0.0,0.938271692387,0.345899163436
1565341098992868310,42286,1565341098932787832,map,1.69726276398,0.248799324036,0.0,0.0,0.0,0.942678474267,0.333702403578
1565341099060368049,42287,1565341098999465176,map,1.70023059845,0.249455451965,0.0,0.0,0.0,0.946773636108,0.321900111792
1565341099126595497,42288,1565341099066399030,map,1.70276165009,0.249137878418,0.0,0.0,0.0,0.950519700879,0.31066428543
1565341099192111799,42289,1565341099132305176,map,1.70463657379,0.249406814575,0.0,0.0,0.0,0.954127968504,0.299399097725
1565341099259345133,42290,1565341099199360801,map,1.70660686493,0.249488830566,0.0,0.0,0.0,0.957213127863,0.289383876274
1565341099325711539,42291,1565341099265602571,map,1.70926761627,0.249468803406,0.0,0.0,0.0,0.96024432862,0.279160938085
1565341099392626174,42292,1565341099332441061,map,1.71281147003,0.249278068542,0.0,0.0,0.0,0.963023471202,0.269417508553
1565341099460593414,42293,1565341099399829655,map,1.71424102783,0.248911857605,0.0,0.0,0.0,0.965567242788,0.260153607808
1565341099525469976,42294,1565341099465696217,map,1.71681213379,0.24952507019,0.0,0.0,0.0,0.967980529072,0.251025288244
1565341099591917320,42295,1565341099532295905,map,1.71900653839,0.249528884888,0.0,0.0,0.0,0.97018641215,0.242359909389
1565341099658574403,42296,1565341099599108977,map,1.72119426727,0.249949455261,0.0,0.0,0.0,0.972326534062,0.233626007026
1565341099726417008,42297,1565341099665775280,map,1.7204618454,0.249151229858,0.0,0.0,0.0,0.974152025873,0.225893405146
1565341099795717632,42298,1565341099732601269,map,1.72261333466,0.249872207642,0.0,0.0,0.0,0.976079165971,0.217415412879
1565341099859648935,42299,1565341099798965852,map,1.72561168671,0.250430107117,0.0,0.0,0.0,0.977742342031,0.209809229064
1565341099925769612,42300,1565341099865759290,map,1.72402763367,0.250801086426,0.0,0.0,0.0,0.979429800665,0.201785196606
1565341099993860445,42301,1565341099932857363,map,1.72189903259,0.251414299011,0.0,0.0,0.0,0.981099581735,0.193503516037
1565341100058879924,42302,1565341099998954602,map,1.72361278534,0.250539779663,0.0,0.0,0.0,0.982363512899,0.186981091357
1565341100126314143,42303,1565341100065871425,map,1.72794818878,0.250413894653,0.0,0.0,0.0,0.983480084789,0.181016360651
1565341100193214403,42304,1565341100132815227,map,1.72820854187,0.250129699707,0.0,0.0,0.0,0.984587013461,0.174895434257
1565341100259225653,42305,1565341100199485540,map,1.73057365417,0.249824523926,0.0,0.0,0.0,0.985715016146,0.168421812556
1565341100325481539,42306,1565341100265701477,map,1.73368930817,0.249235153198,0.0,0.0,0.0,0.986604508371,0.163130451058
1565341100394015184,42307,1565341100334050019,map,1.73499584198,0.249194145203,0.0,0.0,0.0,0.987517886477,0.157506901078
1565341100461417893,42308,1565341100400148821,map,1.73764896393,0.24875164032,0.0,0.0,0.0,0.988380573375,0.151999480839
1565341100527725236,42309,1565341100467344185,map,1.74278068542,0.248942375183,0.0,0.0,0.0,0.98917003471,0.146774120443
1565341100593447268,42310,1565341100532906633,map,1.74610137939,0.249117851257,0.0,0.0,0.0,0.989842769441,0.142166422846
1565341100658946382,42311,1565341100599170383,map,1.74799060822,0.249542236328,0.0,0.0,0.0,0.990518785765,0.137377345467
1565341100725561643,42312,1565341100665702623,map,1.74865818024,0.24940776825,0.0,0.0,0.0,0.991196191936,0.132401318316
1565341100792754038,42313,1565341100732488248,map,1.75311565399,0.249320983887,0.0,0.0,0.0,0.99172918569,0.128348051218
1565341100858972424,42314,1565341100799188248,map,1.75860881805,0.248990058899,0.0,0.0,0.0,0.992239098667,0.12434456593
1565341100925533622,42315,1565341100865690539,map,1.75982761383,0.249467849731,0.0,0.0,0.0,0.992766437321,0.120061654695
1565341100993397840,42316,1565341100932657571,map,1.7619600296,0.24928855896,0.0,0.0,0.0,0.993267654798,0.115841986916
1565341101058762945,42317,1565341100999189706,map,1.76701831818,0.248701095581,0.0,0.0,0.0,0.993703090236,0.112045385698
1565341101125985184,42318,1565341101065883456,map,1.76695728302,0.248802185059,0.0,0.0,0.0,0.994161440547,0.107902873596
1565341101192105549,42319,1565341101132297519,map,1.77058982849,0.248445510864,0.0,0.0,0.0,0.994535461019,0.104399314058
1565341101260605444,42320,1565341101200387206,map,1.77236175537,0.249150276184,0.0,0.0,0.0,0.994884305103,0.101020886252
1565341101325747111,42321,1565341101265728821,map,1.7765712738,0.248257637024,0.0,0.0,0.0,0.995245179394,0.0974014008789
1565341101392447788,42322,1565341101332719862,map,1.77872467041,0.248738288879,0.0,0.0,0.0,0.995573613577,0.093984998531
1565341101459396121,42323,1565341101399182518,map,1.7820520401,0.248805046082,0.0,0.0,0.0,0.995888862573,0.0905835161747
1565341101525509351,42324,1565341101465768612,map,1.78330993652,0.249354362488,0.0,0.0,0.0,0.996301684089,0.0859241193238
1565341101592538778,42325,1565341101532586320,map,1.78812408447,0.249147415161,0.0,0.0,0.0,0.996825896131,0.0796123910142
1565341101659150028,42326,1565341101599146685,map,1.79081249237,0.249223709106,0.0,0.0,0.0,0.997410526991,0.0719182914732
1565341101725967684,42327,1565341101665967362,map,1.79328250885,0.250015258789,0.0,0.0,0.0,0.998044265746,0.0625111479012
1565341101793555340,42328,1565341101733146164,map,1.79513263702,0.250587463379,0.0,0.0,0.0,0.998651691654,0.0519114511125
1565341101860096121,42329,1565341101800167466,map,1.79624652863,0.250730514526,0.0,0.0,0.0,0.999195149263,0.0401130114654
1565341101926735809,42330,1565341101866537050,map,1.80078220367,0.251365661621,0.0,0.0,0.0,0.9996495506,0.0264721737949
1565341101993293830,42331,1565341101932580904,map,1.80387210846,0.252088546753,0.0,0.0,0.0,0.999929611997,0.0118646977016
1565341102059506902,42332,1565341101999313872,map,1.80757427216,0.252339363098,0.0,0.0,0.0,-0.999989911517,0.00449186642274
1565341102126114975,42333,1565341102065927570,map,1.80837059021,0.252759933472,0.0,0.0,0.0,-0.999762680414,0.0217849225537
1565341102193045079,42334,1565341102132522674,map,1.81455802917,0.253005981445,0.0,0.0,0.0,-0.999190235618,0.0402352214559
1565341102259667579,42335,1565341102199846529,map,1.81988620758,0.253437995911,0.0,0.0,0.0,-0.998193483751,0.0600813531597
1565341102326490027,42336,1565341102266633143,map,1.82596683502,0.254369735718,0.0,0.0,0.0,-0.996724240335,0.0808751428399
1565341102392061173,42337,1565341102332534289,map,1.8311662674,0.255200386047,0.0,0.0,0.0,-0.994702185528,0.102798648368
1565341102460954559,42338,1565341102399169497,map,1.83637809753,0.255518913269,0.0,0.0,0.0,-0.992129171478,0.125218637198
1565341102526755965,42339,1565341102466777101,map,1.8392868042,0.256029129028,0.0,0.0,0.0,-0.988872987097,0.148762278115
1565341102592261017,42340,1565341102532575643,map,1.84206676483,0.257593154907,0.0,0.0,0.0,-0.984959722426,0.172784099957
1565341102658668986,42341,1565341102599096060,map,1.84513378143,0.258424758911,0.0,0.0,0.0,-0.980372694483,0.197153188945
1565341102726074819,42342,1565341102666535435,map,1.84741306305,0.259023666382,0.0,0.0,0.0,-0.975037682235,0.222039451948
1565341102792247215,42343,1565341102732538403,map,1.85062217712,0.260350227356,0.0,0.0,0.0,-0.968979198499,0.24714229277
1565341102858584090,42344,1565341102799024549,map,1.85289573669,0.261202812195,0.0,0.0,0.0,-0.962209841803,0.272309052984
1565341102926175756,42345,1565341102866471424,map,1.85539722443,0.262942314148,0.0,0.0,0.0,-0.954707329709,0.297546491493
1565341102993088413,42346,1565341102932632049,map,1.85722923279,0.263885498047,0.0,0.0,0.0,-0.946460176043,0.322820592843
1565341103059244037,42347,1565341102999289653,map,1.86144828796,0.264940261841,0.0,0.0,0.0,-0.937746029613,0.347321729733
1565341103125969194,42348,1565341103066167882,map,1.86423206329,0.265879631042,0.0,0.0,0.0,-0.928192194063,0.37210112991
1565341103192536381,42349,1565341103132971841,map,1.86845111847,0.266955375671,0.0,0.0,0.0,-0.918175136216,0.396174733212
1565341103259526589,42350,1565341103200004914,map,1.871134758,0.268345832825,0.0,0.0,0.0,-0.907237868344,0.420617938566
1565341103327047892,42351,1565341103266988299,map,1.87423706055,0.269351005554,0.0,0.0,0.0,-0.895686711957,0.444685635054
1565341103392364350,42352,1565341103332628403,map,1.87695884705,0.270428657532,0.0,0.0,0.0,-0.883379695376,0.468657992354
1565341103458967944,42353,1565341103399275591,map,1.87982273102,0.27072429657,0.0,0.0,0.0,-0.870443900281,0.492267626869
1565341103526289975,42354,1565341103465682778,map,1.88206958771,0.271722793579,0.0,0.0,0.0,-0.856784809447,0.515674112498
1565341103592633829,42355,1565341103532865122,map,1.88418579102,0.271585464478,0.0,0.0,0.0,-0.842906576689,0.538059943663
1565341103658647527,42356,1565341103598862309,map,1.88626194,0.271385192871,0.0,0.0,0.0,-0.829494527188,0.558514842564
1565341103726022266,42357,1565341103665619497,map,1.8880777359,0.270790100098,0.0,0.0,0.0,-0.816698112465,0.577065154984
1565341103804687943,42358,1565341103732643924,map,1.88911914825,0.270914077759,0.0,0.0,0.0,-0.804106042614,0.59448588901
1565341103859155808,42359,1565341103799044601,map,1.89206409454,0.270406723022,0.0,0.0,0.0,-0.79218626445,0.610279380626
1565341103926305079,42360,1565341103865594392,map,1.89381504059,0.270973205566,0.0,0.0,0.0,-0.780336675542,0.625359634773
1565341103992485964,42361,1565341103932790695,map,1.89508628845,0.272549629211,0.0,0.0,0.0,-0.768701847778,0.639607277337
1565341104060303048,42362,1565341103999570538,map,1.89722251892,0.273205757141,0.0,0.0,0.0,-0.757859877257,0.652417356026
1565341104125878152,42363,1565341104065523247,map,1.89912128448,0.273887634277,0.0,0.0,0.0,-0.747461636284,0.664304976862
1565341104192853256,42364,1565341104132302257,map,1.90128040314,0.274258613586,0.0,0.0,0.0,-0.737654947218,0.675177886816
1565341104259612527,42365,1565341104199651215,map,1.90332508087,0.27490234375,0.0,0.0,0.0,-0.72829865699,0.685259853068
1565341104326740808,42366,1565341104265717986,map,1.90546417236,0.275317192078,0.0,0.0,0.0,-0.719225625327,0.694776582703
1565341104392700912,42367,1565341104332431059,map,1.90678119659,0.275800704956,0.0,0.0,0.0,-0.710287083414,0.703912110377
1565341104460540964,42368,1565341104399794705,map,1.90859985352,0.27592754364,0.0,0.0,0.0,-0.702038771125,0.712138725135
1565341104526253152,42369,1565341104465716111,map,1.91076660156,0.276005744934,0.0,0.0,0.0,-0.694153721817,0.719826792005
1565341104592864349,42370,1565341104533254548,map,1.91267871857,0.276148796082,0.0,0.0,0.0,-0.686786580167,0.726859128926
1565341104662310443,42371,1565341104601558038,map,1.91423892975,0.276815414429,0.0,0.0,0.0,-0.679583479208,0.733598183468
1565341104726497474,42372,1565341104666170851,map,1.91726493835,0.277145385742,0.0,0.0,0.0,-0.672756779666,0.739863714081
1565341104793935547,42373,1565341104733390486,map,1.91766929626,0.277276992798,0.0,0.0,0.0,-0.666307288024,0.745677274648
1565341104859649349,42374,1565341104799485486,map,1.91958332062,0.277522087097,0.0,0.0,0.0,-0.660007475899,0.751259031066
1565341104925809610,42375,1565341104865569132,map,1.92119121552,0.278767585754,0.0,0.0,0.0,-0.653958388642,0.756530518832
1565341104992745026,42376,1565341104932470798,map,1.92329883575,0.279371261597,0.0,0.0,0.0,-0.648313319189,0.761373653446
1565341105060229453,42377,1565341104999698402,map,1.92500114441,0.279072761536,0.0,0.0,0.0,-0.642970808547,0.765890683685
1565341105126219558,42378,1565341105065616944,map,1.92743778229,0.279695510864,0.0,0.0,0.0,-0.637819041929,0.770186256534
1565341105193927214,42379,1565341105132287934,map,1.9291229248,0.279890060425,0.0,0.0,0.0,-0.632662950653,0.774427266353
1565341105261960807,42380,1565341105199340538,map,1.93032932281,0.279995918274,0.0,0.0,0.0,-0.6279263224,0.778272788704
1565341105325826120,42381,1565341105265542100,map,1.93223381042,0.279870986938,0.0,0.0,0.0,-0.623057232542,0.782176249305
1565341105392748047,42382,1565341105332356319,map,1.9332818985,0.280515670776,0.0,0.0,0.0,-0.618389679719,0.78587162057
1565341105459525859,42383,1565341105398871371,map,1.93558502197,0.280471801758,0.0,0.0,0.0,-0.613901043115,0.789382992763
1565341105526133464,42384,1565341105465878246,map,1.93685626984,0.282066345215,0.0,0.0,0.0,-0.609814118526,0.792544472472
1565341105594336276,42385,1565341105533161423,map,1.93860435486,0.28201007843,0.0,0.0,0.0,-0.605690614433,0.795700244808
1565341105658667057,42386,1565341105598895277,map,1.94057941437,0.283366203308,0.0,0.0,0.0,-0.601982076974,0.798509598566
1565341105725385755,42387,1565341105665567517,map,1.94238376617,0.283027648926,0.0,0.0,0.0,-0.597957277622,0.801527974645
1565341105792865755,42388,1565341105732488194,map,1.94474887848,0.284505844116,0.0,0.0,0.0,-0.594383352432,0.804181839108
1565341105858494766,42389,1565341105799030277,map,1.94613456726,0.284255981445,0.0,0.0,0.0,-0.59010243022,0.807328385385
1565341105927906588,42390,1565341105867209756,map,1.94810581207,0.285326957703,0.0,0.0,0.0,-0.585642528859,0.810569446989
1565341105993551588,42391,1565341105932901579,map,1.95033550262,0.285494804382,0.0,0.0,0.0,-0.580861530558,0.814002384712
1565341106059213620,42392,1565341105999697777,map,1.95093250275,0.28519153595,0.0,0.0,0.0,-0.575259740553,0.817970800762
1565341106127096432,42393,1565341106066961631,map,1.95324993134,0.286540031433,0.0,0.0,0.0,-0.570046194253,0.821612643779
1565341106194483776,42394,1565341106132386840,map,1.95555591583,0.287443161011,0.0,0.0,0.0,-0.56409656404,0.825708826668
1565341106260016484,42395,1565341106199882673,map,1.95665836334,0.287536621094,0.0,0.0,0.0,-0.557755615737,0.830005224751
1565341106326070182,42396,1565341106266523454,map,1.95793628693,0.28849029541,0.0,0.0,0.0,-0.551142445776,0.834411172303
1565341106392185234,42397,1565341106332414496,map,1.96041679382,0.289535522461,0.0,0.0,0.0,-0.544484874226,0.838770660991
1565341106459802578,42398,1565341106399103506,map,1.96270751953,0.290690422058,0.0,0.0,0.0,-0.537449258753,0.843296089322
1565341106527967682,42399,1565341106467503194,map,1.96449565887,0.291010856628,0.0,0.0,0.0,-0.52991268936,0.848052204558
1565341106593196067,42400,1565341106532454964,map,1.96679496765,0.292554855347,0.0,0.0,0.0,-0.522193133564,0.852827257573
1565341106658763515,42401,1565341106599059287,map,1.96734142303,0.29229927063,0.0,0.0,0.0,-0.513184900982,0.858278076968
1565341106726843672,42402,1565341106666543089,map,1.96947193146,0.293348312378,0.0,0.0,0.0,-0.502952239852,0.86431420469
1565341106792196588,42403,1565341106732823402,map,1.97102165222,0.293395996094,0.0,0.0,0.0,-0.491044776358,0.87113433385
1565341106858811119,42404,1565341106799295225,map,1.97208881378,0.294695854187,0.0,0.0,0.0,-0.477923100957,0.878401678944
1565341106927412369,42405,1565341106867631214,map,1.97412109375,0.294891357422,0.0,0.0,0.0,-0.46395782302,0.88585729012
1565341106992745234,42406,1565341106932740589,map,1.97478485107,0.295379638672,0.0,0.0,0.0,-0.448279220262,0.893893584652
1565341107058852317,42407,1565341106999186839,map,1.97559452057,0.296377182007,0.0,0.0,0.0,-0.431780105878,0.901978902286
1565341107128538567,42408,1565341107066444964,map,1.97745609283,0.297729492188,0.0,0.0,0.0,-0.414194726745,0.910188292793
1565341107194499869,42409,1565341107132509027,map,1.98009300232,0.298985481262,0.0,0.0,0.0,-0.395856372294,0.918312437308
1565341107259616796,42410,1565341107199924391,map,1.98171806335,0.299885749817,0.0,0.0,0.0,-0.376065442961,0.926593105203
1565341107326419296,42411,1565341107265985485,map,1.98460388184,0.301918029785,0.0,0.0,0.0,-0.355891552596,0.934527261663
1565341107393469557,42412,1565341107332949652,map,1.98660373688,0.301997184753,0.0,0.0,0.0,-0.334343613246,0.942451244512
1565341107461175650,42413,1565341107399795954,map,1.9892206192,0.3023853302,0.0,0.0,0.0,-0.31289503952,0.949787710093
1565341107526520234,42414,1565341107466583714,map,1.99162864685,0.303583145142,0.0,0.0,0.0,-0.290279458978,0.956941918663
1565341107592529348,42415,1565341107532511214,map,1.99220561981,0.304258346558,0.0,0.0,0.0,-0.2669647817,0.963706285822
1565341107659580234,42416,1565341107599109651,map,1.99676036835,0.304990768433,0.0,0.0,0.0,-0.24412285911,0.969744311486
1565341107727414713,42417,1565341107665961474,map,1.9973115921,0.304776191711,0.0,0.0,0.0,-0.219624674711,0.975584441378
1565341107794683827,42418,1565341107732483297,map,2.0005273819,0.305170059204,0.0,0.0,0.0,-0.195099666249,0.980783421674
1565341107859298931,42419,1565341107799104964,map,2.00552940369,0.304692268372,0.0,0.0,0.0,-0.170306613335,0.985391119026
1565341107926146952,42420,1565341107865816578,map,2.01447296143,0.305607795715,0.0,0.0,0.0,-0.146150612303,0.989262350706
1565341107992552838,42421,1565341107932702985,map,2.01849365234,0.305353164673,0.0,0.0,0.0,-0.12101614044,0.992650539592
1565341108059035598,42422,1565341107999115641,map,2.01692771912,0.306091308594,0.0,0.0,0.0,-0.0954860494801,0.995430768238
1565341108126365702,42423,1565341108065935485,map,2.02223014832,0.306449890137,0.0,0.0,0.0,-0.0705417845018,0.997508825344
1565341108192497525,42424,1565341108132419495,map,2.02220916748,0.305742263794,0.0,0.0,0.0,-0.0449974280486,0.998987102754
1565341108260582786,42425,1565341108200371891,map,2.02375793457,0.306421279907,0.0,0.0,0.0,-0.0221154856252,0.999755422739
1565341108325517473,42426,1565341108265582464,map,2.02745628357,0.307312011719,0.0,0.0,0.0,-0.00176277863303,0.999998446305
1565341108392595442,42427,1565341108332261110,map,2.0281124115,0.306791305542,0.0,0.0,0.0,0.0185958938869,0.999827081415
1565341108459774973,42428,1565341108398866370,map,2.03034687042,0.307802200317,0.0,0.0,0.0,0.0371253836357,0.999310615319
1565341108527638150,42429,1565341108465635172,map,2.03166484833,0.308570861816,0.0,0.0,0.0,0.0551209822952,0.998479682973
1565341108592479660,42430,1565341108532350328,map,2.03547382355,0.308813095093,0.0,0.0,0.0,0.0717267402915,0.997424320301
1565341108660734296,42431,1565341108598979026,map,2.03656864166,0.309446334839,0.0,0.0,0.0,0.0879644300483,0.996123616348
1565341108727792629,42432,1565341108665893193,map,2.03790283203,0.310640335083,0.0,0.0,0.0,0.102591415728,0.994723580408
1565341108793223983,42433,1565341108732818401,map,2.03859233856,0.311075210571,0.0,0.0,0.0,0.116801477677,0.993155282326
1565341108859950702,42434,1565341108799670745,map,2.04096317291,0.312299728394,0.0,0.0,0.0,0.129127604703,0.991627985539
1565341108926357317,42435,1565341108866526266,map,2.04282951355,0.313171386719,0.0,0.0,0.0,0.141776617711,0.989898676972
1565341108992247994,42436,1565341108932493818,map,2.04426288605,0.314384460449,0.0,0.0,0.0,0.153420222588,0.98816103713
1565341109058828723,42437,1565341108999094338,map,2.04484272003,0.315504074097,0.0,0.0,0.0,0.16479716671,0.986327477993
1565341109125875546,42438,1565341109065717620,map,2.04699230194,0.316884994507,0.0,0.0,0.0,0.174583581998,0.984642357862
1565341109193580077,42439,1565341109132737099,map,2.04772186279,0.318277359009,0.0,0.0,0.0,0.184146769707,0.982898757353
1565341109259958566,42440,1565341109199569130,map,2.04932880402,0.318934440613,0.0,0.0,0.0,0.193404189033,0.981119166903
1565341109326204504,42441,1565341109265811578,map,2.05223941803,0.319875717163,0.0,0.0,0.0,0.20112309287,0.979565976091
1565341109393220545,42442,1565341109332445224,map,2.05333423615,0.320942878723,0.0,0.0,0.0,0.209110902402,0.977891931911
1565341109459450181,42443,1565341109399366630,map,2.05518913269,0.321655273438,0.0,0.0,0.0,0.216735641177,0.976230332372
1565341109525704035,42444,1565341109465737203,map,2.05626010895,0.322560310364,0.0,0.0,0.0,0.223759796743,0.974644321464
1565341109592796118,42445,1565341109532482515,map,2.05749988556,0.323289871216,0.0,0.0,0.0,0.230715991637,0.973021136051
1565341109659948097,42446,1565341109599210328,map,2.05879020691,0.324350357056,0.0,0.0,0.0,0.236778113158,0.971563752478
1565341109725752264,42447,1565341109666259599,map,2.05980205536,0.32585144043,0.0,0.0,0.0,0.242525219606,0.970145101444
1565341109793379087,42448,1565341109732948244,map,2.05942344666,0.326838493347,0.0,0.0,0.0,0.248255960646,0.968694470927
1565341109859117577,42449,1565341109799386682,map,2.05817508698,0.328256607056,0.0,0.0,0.0,0.25365969683,0.967293522259
1565341109925660441,42450,1565341109866149911,map,2.05879020691,0.329469680786,0.0,0.0,0.0,0.259061745754,0.965860762163
1565341109992929504,42451,1565341109933225953,map,2.06044101715,0.330642700195,0.0,0.0,0.0,0.263735314865,0.964595087948
1565341110059174712,42452,1565341109999388609,map,2.06034851074,0.332018852234,0.0,0.0,0.0,0.268378269659,0.963313606452
1565341110126669504,42453,1565341110066427671,map,2.05953788757,0.332746505737,0.0,0.0,0.0,0.273223681703,0.961950528747
1565341110193147264,42454,1565341110133494390,map,2.06092357635,0.333795547485,0.0,0.0,0.0,0.277128542006,0.960832852897
1565341110259815701,42455,1565341110200172880,map,2.06229114532,0.33479309082,0.0,0.0,0.0,0.280778502622,0.959772594142
1565341110326118462,42456,1565341110266685484,map,2.06318378448,0.335180282593,0.0,0.0,0.0,0.284293118572,0.95873741073
1565341110392368722,42457,1565341110332614703,map,2.06272888184,0.336036682129,0.0,0.0,0.0,0.288516373638,0.957474961627
1565341110458764660,42458,1565341110399277723,map,2.06440734863,0.33664894104,0.0,0.0,0.0,0.29174183499,0.956497099691
1565341110525585753,42459,1565341110465952307,map,2.06590557098,0.338354110718,0.0,0.0,0.0,0.294577590738,0.955627565025
1565341110592068410,42460,1565341110532581057,map,2.06632709503,0.339408874512,0.0,0.0,0.0,0.298049844939,0.954550307701
1565341110659575910,42461,1565341110599158869,map,2.06822013855,0.340474128723,0.0,0.0,0.0,0.301593629992,0.953436564407
1565341110726370910,42462,1565341110666125952,map,2.06883525848,0.341766357422,0.0,0.0,0.0,0.305523126541,0.952184656014
1565341110796009816,42463,1565341110733310744,map,2.0687713623,0.342721939087,0.0,0.0,0.0,0.311301800134,0.950311101289
1565341110861177055,42464,1565341110799498348,map,2.06938457489,0.343304634094,0.0,0.0,0.0,0.318076665424,0.948064995089
1565341110927182212,42465,1565341110866578348,map,2.06960105896,0.344551086426,0.0,0.0,0.0,0.32553211306,0.945530984879
1565341110993135493,42466,1565341110932636473,map,2.06978321075,0.345726013184,0.0,0.0,0.0,0.334374649461,0.942440233542
1565341111058681014,42467,1565341110999220275,map,2.07081413269,0.346522331238,0.0,0.0,0.0,0.344597769026,0.938750434132
1565341111126952993,42468,1565341111066386525,map,2.07114124298,0.34751701355,0.0,0.0,0.0,0.356046678223,0.934468171168
1565341111192910180,42469,1565341111132970015,map,2.07183647156,0.349093437195,0.0,0.0,0.0,0.368906665665,0.92946644481
1565341111259801066,42470,1565341111200117983,map,2.0713558197,0.349540710449,0.0,0.0,0.0,0.383140428426,0.923690106099
1565341111326579972,42471,1565341111266693192,map,2.07242679596,0.35068321228,0.0,0.0,0.0,0.398088333545,0.917347087364
1565341111392579868,42472,1565341111332812983,map,2.07297325134,0.352281570435,0.0,0.0,0.0,0.414494904608,0.910051632631
1565341111460216951,42473,1565341111399324077,map,2.07378196716,0.353788375854,0.0,0.0,0.0,0.431391204262,0.902164967667
1565341111526185128,42474,1565341111466650744,map,2.07345581055,0.354860305786,0.0,0.0,0.0,0.449405686945,0.893327783371
1565341111592841690,42475,1565341111533171369,map,2.07403659821,0.356401443481,0.0,0.0,0.0,0.467949084667,0.883755426665
1565341111659847628,42476,1565341111600186056,map,2.07329082489,0.358152389526,0.0,0.0,0.0,0.487226758917,0.873275492268
1565341111726401274,42477,1565341111666907619,map,2.07364749908,0.360410690308,0.0,0.0,0.0,0.506691774566,0.862127279227
1565341111793289399,42478,1565341111732550014,map,2.07346153259,0.361477851868,0.0,0.0,0.0,0.526893863169,0.849931089533
1565341111860458982,42479,1565341111799344858,map,2.07483196259,0.363069534302,0.0,0.0,0.0,0.546801840969,0.837262053787
1565341111927713357,42480,1565341111866239858,map,2.07414245605,0.364486694336,0.0,0.0,0.0,0.567274236778,0.823528955343
1565341111993172472,42481,1565341111932583556,map,2.07554626465,0.366815567017,0.0,0.0,0.0,0.587504342701,0.809221012646
1565341112059344242,42482,1565341111999351160,map,2.07647705078,0.368594169617,0.0,0.0,0.0,0.608087542073,0.7938699775
1565341112127054138,42483,1565341112066976056,map,2.07703876495,0.37082195282,0.0,0.0,0.0,0.628564790143,0.777757227284
1565341112192696430,42484,1565341112132520066,map,2.07905864716,0.374656677246,0.0,0.0,0.0,0.648583524617,0.761143489491
1565341112259443305,42485,1565341112199698348,map,2.07869720459,0.375117301941,0.0,0.0,0.0,0.667759843787,0.744376780284
1565341112327035128,42486,1565341112267247462,map,2.07925987244,0.375971794128,0.0,0.0,0.0,0.682592978118,0.730798759046
1565341112393495388,42487,1565341112332507723,map,2.07866668701,0.376072883606,0.0,0.0,0.0,0.696952249108,0.717117537412
1565341112458729294,42488,1565341112399012566,map,2.07877922058,0.377288818359,0.0,0.0,0.0,0.711019257934,0.703172535618
1565341112526129138,42489,1565341112465807306,map,2.0799036026,0.377385139465,0.0,0.0,0.0,0.722930882418,0.690920356659
1565341112592256482,42490,1565341112532306108,map,2.08081531525,0.377794265747,0.0,0.0,0.0,0.733841123254,0.679321136004
1565341112660225440,42491,1565341112599324285,map,2.08167552948,0.379056930542,0.0,0.0,0.0,0.744181391623,0.667977586721
1565341112725636898,42492,1565341112665763868,map,2.08055686951,0.379669189453,0.0,0.0,0.0,0.753378087305,0.657587604482
1565341112792255284,42493,1565341112732346577,map,2.08128929138,0.382278442383,0.0,0.0,0.0,0.762506441659,0.646980622916
1565341112859227211,42494,1565341112798996681,map,2.08159160614,0.382833480835,0.0,0.0,0.0,0.770029174914,0.638008675318
1565341112925374138,42495,1565341112865788816,map,2.08445835114,0.383279800415,0.0,0.0,0.0,0.777153554093,0.629311014809
1565341112993260857,42496,1565341112933000952,map,2.0845041275,0.384510993958,0.0,0.0,0.0,0.784472950204,0.620163035337
1565341113059699711,42497,1565341112999744545,map,2.08566379547,0.385487556458,0.0,0.0,0.0,0.790504066238,0.612456791343
1565341113126797679,42498,1565341113066544129,map,2.0859375,0.385884284973,0.0,0.0,0.0,0.796072224127,0.605201630841
1565341113192212367,42499,1565341113132370691,map,2.08592987061,0.387580871582,0.0,0.0,0.0,0.801529996676,0.597954567195
1565341113259188669,42500,1565341113199533087,map,2.08659076691,0.388745307922,0.0,0.0,0.0,0.806499753751,0.591234426602
1565341113325845388,42501,1565341113266065170,map,2.08626270294,0.389287948608,0.0,0.0,0.0,0.811184017302,0.584790979815
1565341113392580440,42502,1565341113332660170,map,2.08630466461,0.390630722046,0.0,0.0,0.0,0.815974507162,0.57808788576
1565341113459082523,42503,1565341113399297045,map,2.08863639832,0.391163825989,0.0,0.0,0.0,0.819761928075,0.572704444961
1565341113526342679,42504,1565341113465854858,map,2.08849430084,0.391395568848,0.0,0.0,0.0,0.823451238212,0.567387044518
1565341113592986690,42505,1565341113532488035,map,2.08910179138,0.392473220825,0.0,0.0,0.0,0.827147595888,0.561984745894
1565341113659531742,42506,1565341113599271680,map,2.08887481689,0.39306640625,0.0,0.0,0.0,0.830592457052,0.55688075051
1565341113725939190,42507,1565341113665861264,map,2.09050559998,0.394157409668,0.0,0.0,0.0,0.833724069331,0.552181289268
1565341113792042627,42508,1565341113732386680,map,2.0913143158,0.395795822144,0.0,0.0,0.0,0.836587375444,0.547833517821
1565341113860000700,42509,1565341113799242826,map,2.09200763702,0.396444320679,0.0,0.0,0.0,0.839406272032,0.543504471438
1565341113926617210,42510,1565341113866056837,map,2.09387969971,0.397242546082,0.0,0.0,0.0,0.841836506627,0.539732615384
1565341113992369606,42511,1565341113932396628,map,2.09333515167,0.397723197937,0.0,0.0,0.0,0.844244010467,0.535959001035
1565341114059425023,42512,1565341113999012566,map,2.0938873291,0.399507522583,0.0,0.0,0.0,0.846698413546,0.532073111986
1565341114126228669,42513,1565341114066368555,map,2.09488773346,0.399569511414,0.0,0.0,0.0,0.848726863218,0.528831458645
1565341114194115023,42514,1565341114133141368,map,2.09561157227,0.400461196899,0.0,0.0,0.0,0.850593687947,0.52582352365
1565341114261249346,42515,1565341114199653451,map,2.09691429138,0.401098251343,0.0,0.0,0.0,0.852357974157,0.522958778385
1565341114325349658,42516,1565341114265805586,map,2.09660434723,0.402354240417,0.0,0.0,0.0,0.85457615135,0.519326103276
1565341114394796116,42517,1565341114333118347,map,2.09925937653,0.402684211731,0.0,0.0,0.0,0.856469907378,0.516196956361
1565341114460304346,42518,1565341114399897409,map,2.1003780365,0.403114318848,0.0,0.0,0.0,0.859420482687,0.511269433799
1565341114527270335,42519,1565341114466488920,map,2.10090732574,0.404688835144,0.0,0.0,0.0,0.863262956171,0.50475446358
1565341114592850596,42520,1565341114532750013,map,2.1022567749,0.405285835266,0.0,0.0,0.0,0.867609627602,0.497245949297
1565341114659619918,42521,1565341114599591732,map,2.1034040451,0.406160354614,0.0,0.0,0.0,0.872590913172,0.488451735845
1565341114726410596,42522,1565341114666011524,map,2.10547351837,0.407201766968,0.0,0.0,0.0,0.878019316346,0.478625197962
1565341114792693981,42523,1565341114732610118,map,2.10591888428,0.407522201538,0.0,0.0,0.0,0.883981840062,0.467521236353
1565341114859834085,42524,1565341114799758659,map,2.10756778717,0.408579826355,0.0,0.0,0.0,0.890600743729,0.454786010416
1565341114927762262,42525,1565341114865938972,map,2.10906505585,0.408564567566,0.0,0.0,0.0,0.897556569734,0.440899312913
1565341114993518564,42526,1565341114932602982,map,2.11025524139,0.409419059753,0.0,0.0,0.0,0.90490742828,0.425608442402
1565341115059791064,42527,1565341114999322357,map,2.11133289337,0.40899848938,0.0,0.0,0.0,0.912207568377,0.40972838832
1565341115127056950,42528,1565341115066420065,map,2.11337852478,0.410036087036,0.0,0.0,0.0,0.919951670055,0.3920317905
1565341115193538668,42529,1565341115133044128,map,2.1157989502,0.409139633179,0.0,0.0,0.0,0.927445610594,0.3739580717
1565341115259957939,42530,1565341115200145899,map,2.11721324921,0.409227371216,0.0,0.0,0.0,0.934984413375,0.354688802678
1565341115325798304,42531,1565341115266109857,map,2.11913585663,0.409582138062,0.0,0.0,0.0,0.942647799577,0.333789044088
1565341115392485908,42532,1565341115332535586,map,2.12180805206,0.409045219421,0.0,0.0,0.0,0.949894765729,0.31256988665
1565341115459295908,42533,1565341115399297930,map,2.12421226501,0.409013748169,0.0,0.0,0.0,0.95685417517,0.290568558966
1565341115526778824,42534,1565341115465903607,map,2.12452507019,0.40887260437,0.0,0.0,0.0,0.963433735905,0.267946704627
1565341115594179554,42535,1565341115533076419,map,2.12624835968,0.408177375793,0.0,0.0,0.0,0.969618860579,0.24462065573
1565341115658933720,42536,1565341115599160586,map,2.1253080368,0.40858745575,0.0,0.0,0.0,0.975391151181,0.220481523484
1565341115725992210,42537,1565341115665843190,map,2.11958026886,0.408885002136,0.0,0.0,0.0,0.980414295547,0.196946208611
1565341115793847626,42538,1565341115733140117,map,2.11672210693,0.408581733704,0.0,0.0,0.0,0.984518114152,0.175282865409
1565341115861727106,42539,1565341115801896732,map,2.11780357361,0.408355712891,0.0,0.0,0.0,0.987836167516,0.155498251266
1565341115925786949,42540,1565341115866356992,map,2.12115478516,0.407201766968,0.0,0.0,0.0,0.990599873439,0.136791413267
1565341115992250647,42541,1565341115932304752,map,2.12065410614,0.407238960266,0.0,0.0,0.0,0.992896763215,0.118979063692
1565341116058674918,42542,1565341115998882096,map,2.12086200714,0.407150268555,0.0,0.0,0.0,0.994828844188,0.101565598362
1565341116125511741,42543,1565341116065618659,map,2.12292957306,0.406748771667,0.0,0.0,0.0,0.996313126862,0.0857913354721
1565341116192498928,42544,1565341116132315742,map,2.12390422821,0.406643867493,0.0,0.0,0.0,0.997481315758,0.0709297167217
1565341116259571272,42545,1565341116199729857,map,2.12644004822,0.406686782837,0.0,0.0,0.0,0.998357114729,0.0572980930738
1565341116325959449,42546,1565341116265911002,map,2.12928009033,0.405835151672,0.0,0.0,0.0,0.998998371546,0.0447465490004
1565341116392561376,42547,1565341116332294231,map,2.13180065155,0.406053543091,0.0,0.0,0.0,0.999471526792,0.0325064167788
1565341116458915022,42548,1565341116399098867,map,2.1334028244,0.405822753906,0.0,0.0,0.0,0.999785411022,0.020715499192
1565341116525661897,42549,1565341116465693502,map,2.1346206665,0.405133247375,0.0,0.0,0.0,0.999948502184,0.0101485457323
1565341116592979136,42550,1565341116532498971,map,2.13833904266,0.405636787415,0.0,0.0,0.0,0.999999918842,0.000402883676393
1565341116658598772,42551,1565341116599041731,map,2.13995838165,0.405096054077,0.0,0.0,0.0,-0.999958485323,0.00911194986798
1565341116725714605,42552,1565341116665795221,map,2.14130687714,0.405186653137,0.0,0.0,0.0,-0.999835703226,0.0181264049263
1565341116793089553,42553,1565341116732402981,map,2.14506340027,0.405172348022,0.0,0.0,0.0,-0.999669808687,0.0256957895437
1565341116858568407,42554,1565341116798950169,map,2.14579105377,0.405245780945,0.0,0.0,0.0,-0.999434686102,0.0336200567478
1565341116925220803,42555,1565341116865786210,map,2.14738559723,0.404745101929,0.0,0.0,0.0,-0.999146748883,0.0413010193232
1565341116994953563,42556,1565341116932511888,map,2.14947509766,0.405000686646,0.0,0.0,0.0,-0.99884057568,0.0481404650476
1565341117059150334,42557,1565341116999250533,map,2.1494884491,0.405550003052,0.0,0.0,0.0,-0.998503892746,0.0546806745721
1565341117126153303,42558,1565341117066264804,map,2.15074443817,0.405133247375,0.0,0.0,0.0,-0.99814286246,0.0609165504672
1565341117192596011,42559,1565341117132814700,map,2.15296649933,0.404873847961,0.0,0.0,0.0,-0.997782846528,0.0665536713853
1565341117259427417,42560,1565341117200080794,map,2.1536359787,0.404922485352,0.0,0.0,0.0,-0.997403595114,0.0720143628245
1565341117326405074,42561,1565341117266742981,map,2.15533256531,0.405110359192,0.0,0.0,0.0,-0.997032929904,0.0769762085719
1565341117392281115,42562,1565341117332355533,map,2.15793323517,0.404994010925,0.0,0.0,0.0,-0.996649408714,0.0817921518901
1565341117458427157,42563,1565341117398990429,map,2.15853977203,0.405494689941,0.0,0.0,0.0,-0.996233069329,0.0867160398925
1565341117525718563,42564,1565341117466167564,map,2.15992069244,0.40497303009,0.0,0.0,0.0,-0.995842504954,0.0910917412681
1565341117593797990,42565,1565341117532458919,map,2.16104888916,0.405654907227,0.0,0.0,0.0,-0.995454103012,0.0952424736979
1565341117658555386,42566,1565341117599024387,map,2.16259479523,0.405232429504,0.0,0.0,0.0,-0.995094218803,0.0989317729798
1565341117726597209,42567,1565341117665810116,map,2.16531467438,0.40567779541,0.0,0.0,0.0,-0.994718777471,0.102637974189
1565341117792578459,42568,1565341117732579179,map,2.16468143463,0.405982971191,0.0,0.0,0.0,-0.994293116669,0.106682698435
1565341117858973407,42569,1565341117799175898,map,2.16745281219,0.406122207642,0.0,0.0,0.0,-0.993892622961,0.110351502137
1565341117925975126,42570,1565341117866233866,map,2.16872406006,0.40630531311,0.0,0.0,0.0,-0.993524547386,0.113617664744
1565341117992596480,42571,1565341117932603137,map,2.16949558258,0.40606880188,0.0,0.0,0.0,-0.993179179901,0.116598098663
1565341118062001167,42572,1565341117999609075,map,2.1716966629,0.405952453613,0.0,0.0,0.0,-0.992877631159,0.119138614829
1565341118125635698,42573,1565341118065877877,map,2.17262077332,0.40571308136,0.0,0.0,0.0,-0.99265333249,0.120993229133
1565341118191900125,42574,1565341118132370533,map,2.17493915558,0.405624389648,0.0,0.0,0.0,-0.992596669445,0.121457201547
1565341118259105073,42575,1565341118199727877,map,2.17617321014,0.405481338501,0.0,0.0,0.0,-0.992704073371,0.12057621122
1565341118325432000,42576,1565341118265870845,map,2.17723178864,0.405367851257,0.0,0.0,0.0,-0.992954598839,0.118495420349
1565341118391823250,42577,1565341118332357252,map,2.17822742462,0.405595779419,0.0,0.0,0.0,-0.993313919793,0.115444604665
1565341118458388980,42578,1565341118399026158,map,2.18052196503,0.405181884766,0.0,0.0,0.0,-0.993787979734,0.111289942652
1565341118527409292,42579,1565341118466902720,map,2.18129062653,0.405395507812,0.0,0.0,0.0,-0.994335172429,0.106290003627
1565341118593254396,42580,1565341118532748189,map,2.181681633,0.405179023743,0.0,0.0,0.0,-0.994919937348,0.10066935118
1565341118659089604,42581,1565341118599530324,map,2.1824092865,0.404874801636,0.0,0.0,0.0,-0.995619408298,0.0934986300437
1565341118726411636,42582,1565341118666540585,map,2.18471622467,0.404960632324,0.0,0.0,0.0,-0.99634885543,0.0853753962386
1565341118792937521,42583,1565341118732864074,map,2.18664836884,0.40488243103,0.0,0.0,0.0,-0.997072384527,0.0764634554121
1565341118859509709,42584,1565341118799074647,map,2.18856143951,0.40453338623,0.0,0.0,0.0,-0.997760049978,0.0668945638193
1565341118926461219,42585,1565341118865898293,map,2.18943595886,0.404431343079,0.0,0.0,0.0,-0.998412096943,0.056331915269
1565341118992626896,42586,1565341118932606991,map,2.19004535675,0.404217720032,0.0,0.0,0.0,-0.998968087913,0.0454176103626
1565341119061391740,42587,1565341118999794803,map,2.19193840027,0.403791427612,0.0,0.0,0.0,-0.999430301091,0.0337501594161
1565341119125629240,42588,1565341119065988501,map,2.19477653503,0.403546333313,0.0,0.0,0.0,-0.999771527363,0.0213750572795
1565341119192064813,42589,1565341119132638293,map,2.19540405273,0.403241157532,0.0,0.0,0.0,-0.999970118452,0.00773060171428
1565341119259389135,42590,1565341119199362980,map,2.19654941559,0.402812004089,0.0,0.0,0.0,0.999971100918,0.0076024554942
1565341119326416115,42591,1565341119265677460,map,2.19757652283,0.402565002441,0.0,0.0,0.0,0.999729784971,0.0232455811049
1565341119393021115,42592,1565341119332489595,map,2.1996049881,0.402377128601,0.0,0.0,0.0,0.99918222509,0.0404336625161
1565341119458539396,42593,1565341119398932512,map,2.20032215118,0.402299880981,0.0,0.0,0.0,0.998257482089,0.0590084693367
1565341119525947469,42594,1565341119466465428,map,2.20156097412,0.40235710144,0.0,0.0,0.0,0.996954066416,0.0779909575293
1565341119592657469,42595,1565341119533035480,map,2.20284080505,0.401948928833,0.0,0.0,0.0,0.995220124521,0.0976570721865
1565341119658650125,42596,1565341119599164022,map,2.20575714111,0.402569770813,0.0,0.0,0.0,0.993002361832,0.118094493502
1565341119725585437,42597,1565341119666042303,map,2.20440769196,0.40318775177,0.0,0.0,0.0,0.99033259942,0.138713166378
1565341119794489708,42598,1565341119733320793,map,2.20717144012,0.404340744019,0.0,0.0,0.0,0.986975395647,0.160871278939
1565341119859581896,42599,1565341119799744543,map,2.20945453644,0.404779434204,0.0,0.0,0.0,0.983133645213,0.18288858808
1565341119926310906,42600,1565341119866046209,map,2.21160411835,0.406099319458,0.0,0.0,0.0,0.978601176564,0.20576621984
1565341119993342677,42601,1565341119932876209,map,2.21399784088,0.406947135925,0.0,0.0,0.0,0.973475549657,0.22879107111
1565341120059886739,42602,1565341119999691313,map,2.21602916718,0.408050537109,0.0,0.0,0.0,0.967660872203,0.252254705421
1565341120126731948,42603,1565341120066523188,map,2.21739292145,0.409301757812,0.0,0.0,0.0,0.961156828602,0.276002809464
1565341120194016791,42604,1565341120132929959,map,2.21747398376,0.409647941589,0.0,0.0,0.0,0.954031445785,0.299706523876
1565341120260028614,42605,1565341120200032824,map,2.21803855896,0.410258293152,0.0,0.0,0.0,0.946308794617,0.32326407971
1565341120325752416,42606,1565341120266221261,map,2.21862316132,0.411832809448,0.0,0.0,0.0,0.937894832147,0.346919708048
1565341120392336531,42607,1565341120332675584,map,2.21727848053,0.412455558777,0.0,0.0,0.0,0.928945519496,0.370216452645
1565341120459716948,42608,1565341120398999647,map,2.21849346161,0.413576126099,0.0,0.0,0.0,0.919140467635,0.39392994397
1565341120526908562,42609,1565341120466662042,map,2.21995544434,0.414472579956,0.0,0.0,0.0,0.908630353904,0.417601340951
1565341120594590541,42610,1565341120532635897,map,2.21942424774,0.4163646698,0.0,0.0,0.0,0.897602606782,0.440805581066
1565341120659224291,42611,1565341120599122407,map,2.22373485565,0.416076660156,0.0,0.0,0.0,0.885974272647,0.463734394031
1565341120725880593,42612,1565341120666196886,map,2.22550773621,0.416613578796,0.0,0.0,0.0,0.873572092274,0.486694770468
1565341120792937572,42613,1565341120732625949,map,2.22605228424,0.417439460754,0.0,0.0,0.0,0.860392508305,0.509631957056
1565341120859804916,42614,1565341120799553136,map,2.22700500488,0.417307853699,0.0,0.0,0.0,0.846825689423,0.531870521586
1565341120926053874,42615,1565341120866167771,map,2.22746753693,0.417465209961,0.0,0.0,0.0,0.832503419192,0.554019906713
1565341120992952416,42616,1565341120932691001,map,2.22992515564,0.418188095093,0.0,0.0,0.0,0.817614072009,0.57576664479
1565341121062269291,42617,1565341120999804803,map,2.23310852051,0.418870925903,0.0,0.0,0.0,0.803034026176,0.595933178137
1565341121128105645,42618,1565341121067251990,map,2.23349761963,0.418228149414,0.0,0.0,0.0,0.790073547031,0.613012063733
1565341121193550749,42619,1565341121132665375,map,2.23536682129,0.417773246765,0.0,0.0,0.0,0.776938990059,0.62957589354
1565341121261280385,42620,1565341121200101313,map,2.2376909256,0.417938232422,0.0,0.0,0.0,0.763940226965,0.64528701337
1565341121327290958,42621,1565341121266753448,map,2.23905467987,0.418226242065,0.0,0.0,0.0,0.751604082703,0.659614510805
1565341121393986166,42622,1565341121333198709,map,2.23994255066,0.418874740601,0.0,0.0,0.0,0.73979212172,0.672835504891
1565341121461062572,42623,1565341121400458032,map,2.24260807037,0.418416976929,0.0,0.0,0.0,0.728662194527,0.684873277525
1565341121527777103,42624,1565341121466921730,map,2.24474143982,0.419728279114,0.0,0.0,0.0,0.718351928878,0.695679887791
1565341121592206999,42625,1565341121532678709,map,2.24778556824,0.419690132141,0.0,0.0,0.0,0.708199198159,0.706012673914
1565341121659199291,42626,1565341121599378500,map,2.24845123291,0.420753479004,0.0,0.0,0.0,0.698950955467,0.715169603557
1565341121728023874,42627,1565341121666504438,map,2.25199985504,0.421144485474,0.0,0.0,0.0,0.689374552377,0.724405084559
1565341121794561062,42628,1565341121732679490,map,2.25370502472,0.421725273132,0.0,0.0,0.0,0.680653339098,0.732605645606
1565341121859049655,42629,1565341121799368188,map,2.25547504425,0.422366142273,0.0,0.0,0.0,0.672352597335,0.740231034783
1565341121926710853,42630,1565341121867230167,map,2.25666046143,0.422777175903,0.0,0.0,0.0,0.664518387416,0.747271913553
1565341121996521791,42631,1565341121932812042,map,2.25797843933,0.422770500183,0.0,0.0,0.0,0.656821086314,0.754046457835
1565341122060179447,42632,1565341121999344281,map,2.25928497314,0.423098564148,0.0,0.0,0.0,0.649818938035,0.76008903937
1565341122126540749,42633,1565341122066965479,map,2.26086521149,0.423475265503,0.0,0.0,0.0,0.642891601245,0.765957171811
1565341122193040228,42634,1565341122132797250,map,2.26134300232,0.424018859863,0.0,0.0,0.0,0.636691902069,0.771118293026
1565341122260530332,42635,1565341122200036938,map,2.26354503632,0.424737930298,0.0,0.0,0.0,0.630097458353,0.776516060991
1565341122326376999,42636,1565341122266609906,map,2.26443195343,0.424824714661,0.0,0.0,0.0,0.624301465532,0.781183512457
1565341122392841113,42637,1565341122332942354,map,2.26567935944,0.427533149719,0.0,0.0,0.0,0.61846143847,0.785815149463
1565341122460387051,42638,1565341122399811260,map,2.26747608185,0.427293777466,0.0,0.0,0.0,0.613214809367,0.789916196551
1565341122526426582,42639,1565341122466418917,map,2.26904392242,0.427991867065,0.0,0.0,0.0,0.608413514134,0.793620183601
1565341122592867884,42640,1565341122532874073,map,2.27084159851,0.428670883179,0.0,0.0,0.0,0.603466423224,0.797388409774
1565341122661080332,42641,1565341122599636677,map,2.27096366882,0.42987537384,0.0,0.0,0.0,0.599014490509,0.800738184528
1565341122727357051,42642,1565341122666547667,map,2.27331352234,0.430498123169,0.0,0.0,0.0,0.594022597036,0.804448353973
1565341122793035801,42643,1565341122733293187,map,2.27607727051,0.429815292358,0.0,0.0,0.0,0.58938346836,0.807853407014
1565341122860313405,42644,1565341122800151000,map,2.27572727203,0.43049621582,0.0,0.0,0.0,0.58554657374,0.810638766641
1565341122926564186,42645,1565341122866785166,map,2.27779483795,0.43047618866,0.0,0.0,0.0,0.581381382882,0.813631174205
1565341122992954915,42646,1565341122932844958,map,2.28047943115,0.430952072144,0.0,0.0,0.0,0.577148136721,0.816639472643
