%time,field.linear.x,field.linear.y,field.linear.z,field.angular.x,field.angular.y,field.angular.z
1565341090164762792,1550.0,1550.0,1550.0,1550.0,0.0,0.0
1565341090214522740,1550.0,1550.0,1550.0,1550.0,0.0,0.0
1565341090264808678,1550.0,1550.0,1550.0,1550.0,0.0,0.0
1565341090314859876,1550.0,1550.0,1550.0,1550.0,0.0,0.0
1565341090364661646,1550.0,1550.0,1550.0,1550.0,0.0,0.0
1565341090414259407,1550.0,1550.0,1550.0,1550.0,0.0,0.0
1565341090465396021,1550.0,1550.0,1550.0,1550.0,0.0,0.0
1565341090514915969,1550.0,1550.0,1550.0,1550.0,0.0,0.0
1565341090565591438,1550.0,1550.0,1550.0,1550.0,0.0,0.0
1565341090616185396,1550.0,1550.0,1550.0,1550.0,0.0,0.0
1565341090665528730,1550.0,1550.0,1550.0,1550.0,0.0,0.0
1565341090715434563,1550.0,1550.0,1550.0,1550.0,0.0,0.0
1565341090765504094,1550.0,1550.0,1550.0,1550.0,0.0,0.0
1565341090815026803,1550.0,1550.0,1550.0,1550.0,0.0,0.0
1565341090865484980,1550.0,1550.0,1550.0,1550.0,0.0,0.0
1565341090915146125,1550.0,1550.0,1550.0,1550.0,0.0,0.0
1565341090964997323,1550.0,1550.0,1550.0,1550.0,0.0,0.0
1565341091014986698,1550.0,1550.0,1550.0,1550.0,0.0,0.0
1565341091065213990,1550.0,1550.0,1550.0,1550.0,0.0,0.0
1565341091115587740,1550.0,1550.0,1550.0,1550.0,0.0,0.0
1565341091165216177,1550.0,1550.0,1550.0,1550.0,0.0,0.0
1565341091215236438,1550.0,1550.0,1550.0,1550.0,0.0,0.0
1565341091265218209,1550.0,1550.0,1550.0,1550.0,0.0,0.0
1565341091315259823,1550.0,1550.0,1550.0,1550.0,0.0,0.0
1565341091365422479,1550.0,1550.0,1550.0,1550.0,0.0,0.0
1565341091415258990,1550.0,1550.0,1550.0,1550.0,0.0,0.0
1565341091465248677,1550.0,1550.0,1550.0,1550.0,0.0,0.0
1565341091515260656,1550.0,1550.0,1550.0,1550.0,0.0,0.0
1565341091565276281,1550.0,1550.0,1550.0,1550.0,0.0,0.0
1565341091615337740,1550.0,1585.35272181,1585.35272181,1550.0,0.0,0.0
1565341091665254354,1550.0,1585.35272181,1585.35272181,1550.0,0.0,0.0
1565341091715608000,1550.0,1600.0,1600.0,1550.0,0.0,0.0
1565341091765441750,1550.0,1600.0,1600.0,1550.0,0.0,0.0
1565341091815643469,1550.0,1600.0,1600.0,1550.0,0.0,0.0
1565341091865330031,1550.0,1600.0,1600.0,1550.0,0.0,0.0
1565341091915452063,1550.0,1600.0,1600.0,1550.0,0.0,0.0
1565341091965269927,1550.0,1600.0,1600.0,1550.0,0.0,0.0
1565341092015259458,1550.0,1600.0,1600.0,1550.0,0.0,0.0
1565341092065275500,1550.0,1600.0,1600.0,1550.0,0.0,0.0
1565341092115309615,1550.0,1600.0,1600.0,1550.0,0.0,0.0
1565341092165365708,1550.0,1600.0,1600.0,1550.0,0.0,0.0
1565341092215306802,1550.0,1600.0,1600.0,1550.0,0.0,0.0
1565341092265248937,1550.0,1600.0,1600.0,1550.0,0.0,0.0
1565341092315304667,1550.0,1600.0,1600.0,1550.0,0.0,0.0
1565341092365317479,1550.0,1600.0,1600.0,1550.0,0.0,0.0
1565341092415255656,1550.0,1600.0,1600.0,1550.0,0.0,0.0
1565341092465824927,1550.0,1600.0,1600.0,1550.0,0.0,0.0
1565341092515915239,1550.0,1600.0,1600.0,1550.0,0.0,0.0
1565341092565286437,1550.0,1600.0,1600.0,1550.0,0.0,0.0
1565341092615309198,1550.0,1600.0,1600.0,1550.0,0.0,0.0
1565341092665308312,1550.0,1600.0,1600.0,1550.0,0.0,0.0
1565341092715363937,1550.0,1600.0,1600.0,1550.0,0.0,0.0
1565341092765260604,1550.0,1600.0,1600.0,1550.0,0.0,0.0
1565341092815239666,1550.0,1600.0,1600.0,1550.0,0.0,0.0
1565341092865536802,1550.0,1600.0,1600.0,1550.0,0.0,0.0
1565341092915595916,1550.0,1600.0,1600.0,1550.0,0.0,0.0
1565341092965520396,1550.0,1600.0,1600.0,1550.0,0.0,0.0
1565341093014934823,1550.0,1600.0,1600.0,1550.0,0.0,0.0
1565341093064931541,1550.0,1600.0,1600.0,1550.0,0.0,0.0
1565341093114982166,1550.0,1589.69277442,1589.69277442,1550.0,0.0,0.0
1565341093164892270,1550.0,1589.69277442,1589.69277442,1550.0,0.0,0.0
1565341093214887218,1550.0,1589.69277442,1589.69277442,1550.0,0.0,0.0
1565341093264845916,1550.0,1550.0,1550.0,1550.0,0.0,0.0
1565341093314863520,1550.0,1550.0,1550.0,1550.0,0.0,0.0
1565341093364862010,1550.0,1550.0,1550.0,1550.0,0.0,0.0
1565341093414856177,1550.0,1550.0,1550.0,1550.0,0.0,0.0
1565341093464866385,1550.0,1550.0,1550.0,1550.0,0.0,0.0
1565341093514848885,1550.0,1550.0,1550.0,1550.0,0.0,0.0
1565341093564862062,1550.0,1550.0,1550.0,1550.0,0.0,0.0
1565341093614882374,1550.0,1550.0,1550.0,1550.0,0.0,0.0
1565341093665225239,1550.0,1550.0,1550.0,1550.0,0.0,0.0
1565341093715440604,1550.0,1550.0,1550.0,1550.0,0.0,0.0
1565341093764839874,1550.0,1550.0,1550.0,1550.0,0.0,0.0
1565341093814876385,1550.0,1550.0,1550.0,1550.0,0.0,0.0
1565341093865036072,1550.0,1550.0,1550.0,1550.0,0.0,0.0
1565341093914844510,1550.0,1550.0,1550.0,1550.0,0.0,0.0
1565341093964839510,1550.0,1550.0,1550.0,1550.0,0.0,0.0
1565341094015328676,1550.0,1550.0,1550.0,1550.0,0.0,0.0
1565341094064835656,1550.0,1550.0,1550.0,1550.0,0.0,0.0
1565341094115225083,1550.0,1550.0,1550.0,1550.0,0.0,0.0
1565341094164877114,1550.0,1550.0,1550.0,1550.0,0.0,0.0
1565341094214903208,1550.0,1550.0,1550.0,1550.0,0.0,0.0
1565341094264893468,1550.0,1550.0,1550.0,1550.0,0.0,0.0
1565341094314827010,1550.0,1550.0,1550.0,1550.0,0.0,0.0
1565341094365251072,1550.0,1550.0,1550.0,1550.0,0.0,0.0
1565341094414882947,1550.0,1550.0,1550.0,1550.0,0.0,0.0
1565341094464915291,1550.0,1550.0,1550.0,1550.0,0.0,0.0
1565341094514997843,1550.0,1550.0,1550.0,1550.0,0.0,0.0
1565341094564889770,1550.0,1550.0,1550.0,1550.0,0.0,0.0
1565341094614926280,1550.0,1550.0,1550.0,1550.0,0.0,0.0
1565341094664904145,1550.0,1550.0,1550.0,1550.0,0.0,0.0
1565341094714901541,1550.0,1550.0,1550.0,1550.0,0.0,0.0
1565341094764916124,1550.0,1550.0,1550.0,1550.0,0.0,0.0
1565341094814928884,1550.0,1550.0,1550.0,1550.0,0.0,0.0
1565341094865481228,1550.0,1550.0,1550.0,1550.0,0.0,0.0
1565341094914856697,1550.0,1550.0,1550.0,1550.0,0.0,0.0
1565341094965912374,1550.0,1550.0,1550.0,1550.0,0.0,0.0
1565341095015208572,1550.0,1550.0,1550.0,1550.0,0.0,0.0
1565341095065535238,1550.0,1550.0,1550.0,1550.0,0.0,0.0
1565341095115061905,1550.0,1550.0,1550.0,1550.0,0.0,0.0
1565341095165658520,1550.0,1550.0,1550.0,1550.0,0.0,0.0
1565341095215043988,1550.0,1550.0,1550.0,1550.0,0.0,0.0
1565341095265161436,1550.0,1550.0,1550.0,1550.0,0.0,0.0
1565341095314618728,1550.0,1550.0,1550.0,1550.0,0.0,0.0
1565341095365138468,1550.0,1550.0,1550.0,1550.0,0.0,0.0
1565341095415116228,1550.0,1550.0,1550.0,1550.0,0.0,0.0
1565341095465118728,1550.0,1550.0,1550.0,1550.0,0.0,0.0
1565341095515121957,1550.0,1550.0,1550.0,1550.0,0.0,0.0
1565341095565026905,1550.0,1550.0,1550.0,1550.0,0.0,0.0
1565341095615024197,1550.0,1550.0,1550.0,1550.0,0.0,0.0
1565341095665185499,1550.0,1550.0,1550.0,1550.0,0.0,0.0
1565341095715568467,1550.0,1550.0,1550.0,1550.0,0.0,0.0
1565341095765284561,1550.0,1550.0,1550.0,1550.0,0.0,0.0
1565341095815074717,1550.0,1550.0,1550.0,1550.0,0.0,0.0
1565341095865100394,1550.0,1550.0,1550.0,1550.0,0.0,0.0
1565341095915852842,1550.0,1550.0,1550.0,1550.0,0.0,0.0
1565341095965343676,1550.0,1600.0,1600.0,1550.0,0.0,0.0
1565341096014815863,1550.0,1600.0,1600.0,1550.0,0.0,0.0
1565341096066068571,1550.0,1600.0,1600.0,1550.0,0.0,0.0
1565341096115990342,1550.0,1600.0,1600.0,1550.0,0.0,0.0
1565341096165369248,1550.0,1600.0,1600.0,1550.0,0.0,0.0
1565341096215321592,1550.0,1600.0,1600.0,1550.0,0.0,0.0
1565341096265263103,1550.0,1600.0,1600.0,1550.0,0.0,0.0
1565341096315361123,1550.0,1600.0,1600.0,1550.0,0.0,0.0
1565341096364947425,1550.0,1600.0,1600.0,1550.0,0.0,0.0
1565341096414896123,1550.0,1600.0,1600.0,1550.0,0.0,0.0
1565341096465584353,1550.0,1600.0,1600.0,1550.0,0.0,0.0
1565341096515477373,1550.0,1600.0,1600.0,1550.0,0.0,0.0
1565341096565346488,1550.0,1600.0,1600.0,1550.0,0.0,0.0
1565341096614804248,1550.0,1600.0,1600.0,1550.0,0.0,0.0
1565341096664873311,1550.0,1600.0,1600.0,1550.0,0.0,0.0
1565341096715499352,1550.0,1600.0,1600.0,1550.0,0.0,0.0
1565341096764835290,1550.0,1600.0,1600.0,1550.0,0.0,0.0
1565341096815702842,1550.0,1600.0,1600.0,1550.0,0.0,0.0
1565341096865887790,1550.0,1600.0,1600.0,1550.0,0.0,0.0
1565341096915733519,1550.0,1600.0,1600.0,1550.0,0.0,0.0
1565341096964985290,1550.0,1600.0,1600.0,1550.0,0.0,0.0
1565341097015451123,1550.0,1600.0,1600.0,1550.0,0.0,0.0
1565341097064904040,1550.0,1600.0,1600.0,1550.0,0.0,0.0
1565341097115283519,1550.0,1600.0,1600.0,1550.0,0.0,0.0
1565341097165059196,1550.0,1600.0,1600.0,1550.0,0.0,0.0
1565341097215489613,1550.0,1600.0,1600.0,1550.0,0.0,0.0
1565341097265751331,1550.0,1600.0,1600.0,1550.0,0.0,0.0
1565341097315563623,1550.0,1600.0,1600.0,1550.0,0.0,0.0
1565341097365525550,1550.0,1600.0,1600.0,1550.0,0.0,0.0
1565341097415558571,1550.0,1600.0,1600.0,1550.0,0.0,0.0
1565341097465710029,1550.0,1600.0,1600.0,1550.0,0.0,0.0
1565341097515334456,1550.0,1600.0,1600.0,1550.0,0.0,0.0
1565341097565507321,1550.0,1600.0,1600.0,1550.0,0.0,0.0
1565341097615518935,1550.0,1600.0,1600.0,1550.0,0.0,0.0
1565341097665267060,1550.0,1600.0,1600.0,1550.0,0.0,0.0
1565341097715158571,1550.0,1600.0,1600.0,1550.0,0.0,0.0
1565341097764926175,1550.0,1600.0,1600.0,1550.0,0.0,0.0
1565341097814888102,1550.0,1550.0,1550.0,1550.0,0.0,0.0
1565341097864830081,1550.0,1550.0,1550.0,1550.0,0.0,0.0
1565341097914948675,1550.0,1550.0,1550.0,1550.0,0.0,0.0
1565341097964859873,1550.0,1550.0,1550.0,1550.0,0.0,0.0
1565341098014917008,1550.0,1550.0,1550.0,1550.0,0.0,0.0
1565341098064845862,1550.0,1550.0,1550.0,1550.0,0.0,0.0
1565341098114965237,1550.0,1550.0,1550.0,1550.0,0.0,0.0
1565341098164957789,1550.0,1550.0,1550.0,1550.0,0.0,0.0
1565341098215171852,1550.0,1550.0,1550.0,1550.0,0.0,0.0
1565341098265403883,1550.0,1550.0,1550.0,1550.0,0.0,0.0
1565341098315326123,1550.0,1550.0,1550.0,1550.0,0.0,0.0
1565341098365288466,1550.0,1550.0,1550.0,1550.0,0.0,0.0
1565341098415298102,1550.0,1550.0,1550.0,1550.0,0.0,0.0
1565341098465282008,1550.0,1550.0,1550.0,1550.0,0.0,0.0
1565341098515227893,1550.0,1550.0,1550.0,1550.0,0.0,0.0
1565341098565791487,1550.0,1550.0,1550.0,1550.0,0.0,0.0
1565341098614817425,1550.0,1550.0,1550.0,1550.0,0.0,0.0
1565341098665357789,1550.0,1550.0,1550.0,1550.0,0.0,0.0
1565341098715676070,1550.0,1550.0,1550.0,1550.0,0.0,0.0
1565341098765317789,1550.0,1550.0,1550.0,1550.0,0.0,0.0
1565341098814803466,1550.0,1550.0,1550.0,1550.0,0.0,0.0
1565341098865043518,1550.0,1550.0,1550.0,1550.0,0.0,0.0
1565341098915268570,1550.0,1550.0,1550.0,1550.0,0.0,0.0
1565341098965048414,1550.0,1550.0,1550.0,1550.0,0.0,0.0
1565341099015249664,1550.0,1550.0,1550.0,1550.0,0.0,0.0
1565341099065357477,1550.0,1550.0,1550.0,1550.0,0.0,0.0
1565341099115716747,1550.0,1550.0,1550.0,1550.0,0.0,0.0
1565341099165438935,1550.0,1550.0,1550.0,1550.0,0.0,0.0
1565341099215652008,1550.0,1550.0,1550.0,1550.0,0.0,0.0
1565341099265478101,1550.0,1550.0,1550.0,1550.0,0.0,0.0
1565341099315632164,1550.0,1550.0,1550.0,1550.0,0.0,0.0
1565341099365494195,1550.0,1550.0,1550.0,1550.0,0.0,0.0
1565341099415587633,1550.0,1550.0,1550.0,1550.0,0.0,0.0
1565341099464793518,1550.0,1550.0,1550.0,1550.0,0.0,0.0
1565341099515649456,1550.0,1550.0,1550.0,1550.0,0.0,0.0
1565341099564863570,1550.0,1550.0,1550.0,1550.0,0.0,0.0
1565341099614856851,1550.0,1550.0,1550.0,1550.0,0.0,0.0
1565341099665237164,1550.0,1550.0,1550.0,1550.0,0.0,0.0
1565341099715625966,1550.0,1550.0,1550.0,1550.0,0.0,0.0
1565341099764829820,1550.0,1550.0,1550.0,1550.0,0.0,0.0
1565341099814841278,1550.0,1550.0,1550.0,1550.0,0.0,0.0
1565341099864900341,1550.0,1550.0,1550.0,1550.0,0.0,0.0
1565341099914904403,1550.0,1550.0,1550.0,1550.0,0.0,0.0
1565341099964963674,1550.0,1550.0,1550.0,1550.0,0.0,0.0
1565341100015163257,1550.0,1550.0,1550.0,1550.0,0.0,0.0
1565341100065251434,1550.0,1550.0,1550.0,1550.0,0.0,0.0
1565341100115299820,1550.0,1550.0,1550.0,1550.0,0.0,0.0
1565341100165430393,1550.0,1550.0,1550.0,1550.0,0.0,0.0
1565341100215147945,1550.0,1550.0,1550.0,1550.0,0.0,0.0
1565341100265079507,1550.0,1550.0,1550.0,1550.0,0.0,0.0
1565341100314908309,1550.0,1550.0,1550.0,1550.0,0.0,0.0
1565341100365125601,1550.0,1550.0,1550.0,1550.0,0.0,0.0
1565341100415109038,1550.0,1550.0,1550.0,1550.0,0.0,0.0
1565341100464926903,1550.0,1550.0,1550.0,1550.0,0.0,0.0
1565341100515106278,1550.0,1550.0,1550.0,1550.0,0.0,0.0
1565341100564865028,1550.0,1550.0,1550.0,1550.0,0.0,0.0
1565341100614878778,1550.0,1550.0,1550.0,1550.0,0.0,0.0
1565341100665511695,1550.0,1550.0,1550.0,1550.0,0.0,0.0
1565341100715577580,1550.0,1550.0,1550.0,1550.0,0.0,0.0
1565341100765901747,1550.0,1550.0,1550.0,1550.0,0.0,0.0
1565341100815115861,1550.0,1550.0,1550.0,1550.0,0.0,0.0
1565341100864830288,1550.0,1550.0,1550.0,1550.0,0.0,0.0
1565341100914830392,1550.0,1550.0,1550.0,1550.0,0.0,0.0
1565341100964832788,1550.0,1550.0,1550.0,1550.0,0.0,0.0
1565341101014867059,1550.0,1550.0,1550.0,1550.0,0.0,0.0
1565341101064849455,1550.0,1550.0,1550.0,1550.0,0.0,0.0
1565341101115910236,1550.0,1550.0,1550.0,1550.0,0.0,0.0
1565341101164902267,1550.0,1550.0,1550.0,1550.0,0.0,0.0
1565341101214898361,1550.0,1550.0,1550.0,1550.0,0.0,0.0
1565341101265168674,1550.0,1557.67885819,1557.67885819,1550.0,0.0,0.0
1565341101315171330,1550.0,1557.67885819,1557.67885819,1550.0,0.0,0.0
1565341101365182996,1550.0,1578.84103656,1578.84103656,1550.0,0.0,0.0
1565341101414886330,1550.0,1578.84103656,1578.84103656,1550.0,0.0,0.0
1565341101465099246,1550.0,1595.11864483,1595.11864483,1550.0,0.0,0.0
1565341101514883361,1550.0,1595.11864483,1595.11864483,1550.0,0.0,0.0
1565341101564867215,1550.0,1597.28867114,1597.28867114,1550.0,0.0,0.0
1565341101614868934,1550.0,1597.28867114,1597.28867114,1550.0,0.0,0.0
1565341101664834923,1550.0,1596.20446265,1596.20446265,1550.0,0.0,0.0
1565341101714892215,1550.0,1596.20446265,1596.20446265,1550.0,0.0,0.0
1565341101764912840,1550.0,1596.74736857,1596.74736857,1550.0,0.0,0.0
1565341101814861955,1550.0,1596.74736857,1596.74736857,1550.0,0.0,0.0
1565341101864848048,1550.0,1596.74736857,1596.74736857,1550.0,0.0,0.0
1565341101915062267,1550.0,1596.74736857,1596.74736857,1550.0,0.0,0.0
1565341101964899559,1550.0,1596.74736857,1596.74736857,1550.0,0.0,0.0
1565341102015196069,1550.0,1598.37448895,1598.37448895,1550.0,0.0,0.0
1565341102064825913,1550.0,1598.37448895,1598.37448895,1550.0,0.0,0.0
1565341102115154090,1550.0,1600.0,1600.0,1550.0,0.0,0.0
1565341102165184975,1550.0,1600.0,1600.0,1550.0,0.0,0.0
1565341102214901798,1550.0,1600.0,1600.0,1550.0,0.0,0.0
1565341102264961954,1550.0,1600.0,1600.0,1550.0,0.0,0.0
1565341102315176121,1550.0,1600.0,1600.0,1550.0,0.0,0.0
1565341102365058882,1550.0,1600.0,1600.0,1550.0,0.0,0.0
1565341102415291798,1550.0,1600.0,1600.0,1550.0,0.0,0.0
1565341102465605652,1550.0,1600.0,1600.0,1550.0,0.0,0.0
1565341102516009871,1550.0,1600.0,1600.0,1550.0,0.0,0.0
1565341102565963048,1550.0,1600.0,1600.0,1550.0,0.0,0.0
1565341102615826746,1550.0,1600.0,1600.0,1550.0,0.0,0.0
1565341102664941902,1550.0,1600.0,1600.0,1550.0,0.0,0.0
1565341102714921798,1550.0,1600.0,1600.0,1550.0,0.0,0.0
1565341102765431381,1550.0,1600.0,1600.0,1550.0,0.0,0.0
1565341102815008673,1550.0,1600.0,1600.0,1550.0,0.0,0.0
1565341102864935808,1550.0,1600.0,1600.0,1550.0,0.0,0.0
1565341102915142527,1550.0,1600.0,1600.0,1550.0,0.0,0.0
1565341102964912371,1550.0,1600.0,1600.0,1550.0,0.0,0.0
1565341103015018881,1550.0,1600.0,1600.0,1550.0,0.0,0.0
1565341103064965912,1550.0,1600.0,1600.0,1550.0,0.0,0.0
1565341103115017162,1550.0,1600.0,1600.0,1550.0,0.0,0.0
1565341103164670548,1550.0,1600.0,1600.0,1550.0,0.0,0.0
1565341103215154194,1550.0,1600.0,1600.0,1550.0,0.0,0.0
1565341103265682787,1550.0,1600.0,1600.0,1550.0,0.0,0.0
1565341103315229402,1550.0,1600.0,1600.0,1550.0,0.0,0.0
1565341103365423412,1550.0,1600.0,1600.0,1550.0,0.0,0.0
1565341103415301589,1550.0,1600.0,1600.0,1550.0,0.0,0.0
1565341103465033673,1550.0,1550.0,1550.0,1550.0,0.0,0.0
1565341103515164506,1550.0,1550.0,1550.0,1550.0,0.0,0.0
1565341103564906954,1550.0,1550.0,1550.0,1550.0,0.0,0.0
1565341103614982006,1550.0,1550.0,1550.0,1550.0,0.0,0.0
1565341103665320496,1550.0,1550.0,1550.0,1550.0,0.0,0.0
1565341103715159818,1550.0,1550.0,1550.0,1550.0,0.0,0.0
1565341103765118204,1550.0,1550.0,1550.0,1550.0,0.0,0.0
1565341103815207891,1550.0,1550.0,1550.0,1550.0,0.0,0.0
1565341103865140287,1550.0,1550.0,1550.0,1550.0,0.0,0.0
1565341103915157891,1550.0,1550.0,1550.0,1550.0,0.0,0.0
1565341103965197735,1550.0,1550.0,1550.0,1550.0,0.0,0.0
1565341104015129975,1550.0,1550.0,1550.0,1550.0,0.0,0.0
1565341104065071120,1550.0,1550.0,1550.0,1550.0,0.0,0.0
1565341104114959245,1550.0,1550.0,1550.0,1550.0,0.0,0.0
1565341104164906381,1550.0,1550.0,1550.0,1550.0,0.0,0.0
1565341104214907735,1550.0,1550.0,1550.0,1550.0,0.0,0.0
1565341104264956016,1550.0,1550.0,1550.0,1550.0,0.0,0.0
1565341104315286381,1550.0,1550.0,1550.0,1550.0,0.0,0.0
1565341104365059454,1550.0,1550.0,1550.0,1550.0,0.0,0.0
1565341104414969818,1550.0,1550.0,1550.0,1550.0,0.0,0.0
1565341104465008620,1550.0,1550.0,1550.0,1550.0,0.0,0.0
1565341104515333568,1550.0,1550.0,1550.0,1550.0,0.0,0.0
1565341104564901745,1550.0,1550.0,1550.0,1550.0,0.0,0.0
1565341104614877683,1550.0,1550.0,1550.0,1550.0,0.0,0.0
1565341104664938881,1550.0,1550.0,1550.0,1550.0,0.0,0.0
1565341104715017110,1550.0,1550.0,1550.0,1550.0,0.0,0.0
1565341104765629870,1550.0,1550.0,1550.0,1550.0,0.0,0.0
1565341104814968933,1550.0,1550.0,1550.0,1550.0,0.0,0.0
1565341104865914141,1550.0,1550.0,1550.0,1550.0,0.0,0.0
1565341104915131901,1550.0,1550.0,1550.0,1550.0,0.0,0.0
1565341104965841693,1550.0,1550.0,1550.0,1550.0,0.0,0.0
1565341105014963933,1550.0,1550.0,1550.0,1550.0,0.0,0.0
1565341105064860235,1550.0,1550.0,1550.0,1550.0,0.0,0.0
1565341105114982214,1550.0,1550.0,1550.0,1550.0,0.0,0.0
1565341105165200547,1550.0,1550.0,1550.0,1550.0,0.0,0.0
1565341105214860860,1550.0,1550.0,1550.0,1550.0,0.0,0.0
1565341105265617526,1550.0,1550.0,1550.0,1550.0,0.0,0.0
1565341105315376224,1550.0,1550.0,1550.0,1550.0,0.0,0.0
1565341105365229401,1550.0,1550.0,1550.0,1550.0,0.0,0.0
1565341105414869818,1550.0,1550.0,1550.0,1550.0,0.0,0.0
1565341105465026641,1550.0,1550.0,1550.0,1550.0,0.0,0.0
1565341105515758151,1550.0,1550.0,1550.0,1550.0,0.0,0.0
1565341105564882422,1550.0,1550.0,1550.0,1550.0,0.0,0.0
1565341105614862630,1550.0,1550.0,1550.0,1550.0,0.0,0.0
1565341105665077995,1550.0,1564.73345309,1564.73345309,1550.0,0.0,0.0
1565341105715296224,1550.0,1564.73345309,1564.73345309,1550.0,0.0,0.0
1565341105764735755,1550.0,1569.61641461,1569.61641461,1550.0,0.0,0.0
1565341105814790755,1550.0,1569.61641461,1569.61641461,1550.0,0.0,0.0
1565341105867014141,1550.0,1569.61641461,1569.61641461,1550.0,0.0,0.0
1565341105916017266,1550.0,1569.0735057,1569.0735057,1550.0,0.0,0.0
1565341105965291120,1550.0,1569.0735057,1569.0735057,1550.0,0.0,0.0
1565341106014830182,1550.0,1569.0735057,1569.0735057,1550.0,0.0,0.0
1565341106064872109,1550.0,1569.0735057,1569.0735057,1550.0,0.0,0.0
1565341106114934661,1550.0,1569.0735057,1569.0735057,1550.0,0.0,0.0
1565341106164878984,1550.0,1569.0735057,1569.0735057,1550.0,0.0,0.0
1565341106215019036,1550.0,1569.0735057,1569.0735057,1550.0,0.0,0.0
1565341106265007578,1550.0,1569.0735057,1569.0735057,1550.0,0.0,0.0
1565341106315448099,1550.0,1569.61641461,1569.61641461,1550.0,0.0,0.0
1565341106364876901,1550.0,1569.61641461,1569.61641461,1550.0,0.0,0.0
1565341106415275911,1550.0,1570.70223093,1570.70223093,1550.0,0.0,0.0
1565341106464941432,1550.0,1570.70223093,1570.70223093,1550.0,0.0,0.0
1565341106515012995,1550.0,1599.46030378,1599.46030378,1550.0,0.0,0.0
1565341106564957005,1550.0,1599.46030378,1599.46030378,1550.0,0.0,0.0
1565341106614884557,1550.0,1600.0,1600.0,1550.0,0.0,0.0
1565341106664962161,1550.0,1600.0,1600.0,1550.0,0.0,0.0
1565341106715309349,1550.0,1600.0,1600.0,1550.0,0.0,0.0
1565341106765714817,1550.0,1600.0,1600.0,1550.0,0.0,0.0
1565341106815590546,1550.0,1600.0,1600.0,1550.0,0.0,0.0
1565341106865058724,1550.0,1600.0,1600.0,1550.0,0.0,0.0
1565341106915177786,1550.0,1600.0,1600.0,1550.0,0.0,0.0
1565341106964659921,1550.0,1600.0,1600.0,1550.0,0.0,0.0
1565341107016415911,1550.0,1600.0,1600.0,1550.0,0.0,0.0
1565341107064961953,1550.0,1600.0,1600.0,1550.0,0.0,0.0
1565341107115010078,1550.0,1600.0,1600.0,1550.0,0.0,0.0
1565341107164995130,1550.0,1600.0,1600.0,1550.0,0.0,0.0
1565341107214900494,1550.0,1600.0,1600.0,1550.0,0.0,0.0
1565341107265080182,1550.0,1600.0,1600.0,1550.0,0.0,0.0
1565341107315343619,1550.0,1600.0,1600.0,1550.0,0.0,0.0
1565341107365089192,1550.0,1600.0,1600.0,1550.0,0.0,0.0
1565341107415100390,1550.0,1600.0,1600.0,1550.0,0.0,0.0
1565341107464890598,1550.0,1600.0,1600.0,1550.0,0.0,0.0
1565341107516173202,1550.0,1600.0,1600.0,1550.0,0.0,0.0
1565341107564991275,1550.0,1600.0,1600.0,1550.0,0.0,0.0
1565341107615013619,1550.0,1600.0,1600.0,1550.0,0.0,0.0
1565341107664895546,1550.0,1600.0,1600.0,1550.0,0.0,0.0
1565341107714933619,1550.0,1600.0,1600.0,1550.0,0.0,0.0
1565341107764933046,1550.0,1600.0,1600.0,1550.0,0.0,0.0
1565341107815032004,1550.0,1600.0,1600.0,1550.0,0.0,0.0
1565341107865772421,1550.0,1600.0,1600.0,1550.0,0.0,0.0
1565341107915403723,1550.0,1600.0,1600.0,1550.0,0.0,0.0
1565341107964928619,1550.0,1600.0,1600.0,1550.0,0.0,0.0
1565341108015574869,1550.0,1600.0,1600.0,1550.0,0.0,0.0
1565341108065134765,1550.0,1550.0,1550.0,1550.0,0.0,0.0
1565341108115175858,1550.0,1550.0,1550.0,1550.0,0.0,0.0
1565341108165397213,1550.0,1550.0,1550.0,1550.0,0.0,0.0
1565341108215106275,1550.0,1550.0,1550.0,1550.0,0.0,0.0
1565341108265005025,1550.0,1550.0,1550.0,1550.0,0.0,0.0
1565341108314875442,1550.0,1550.0,1550.0,1550.0,0.0,0.0
1565341108365003254,1550.0,1550.0,1550.0,1550.0,0.0,0.0
1565341108415025494,1550.0,1550.0,1550.0,1550.0,0.0,0.0
1565341108465552994,1550.0,1550.0,1550.0,1550.0,0.0,0.0
1565341108515210702,1550.0,1550.0,1550.0,1550.0,0.0,0.0
1565341108565225129,1550.0,1550.0,1550.0,1550.0,0.0,0.0
1565341108615185181,1550.0,1550.0,1550.0,1550.0,0.0,0.0
1565341108665197421,1550.0,1550.0,1550.0,1550.0,0.0,0.0
1565341108715354087,1550.0,1550.0,1550.0,1550.0,0.0,0.0
1565341108765211796,1550.0,1550.0,1550.0,1550.0,0.0,0.0
1565341108814707681,1550.0,1550.0,1550.0,1550.0,0.0,0.0
1565341108864946639,1550.0,1550.0,1550.0,1550.0,0.0,0.0
1565341108915270025,1550.0,1550.0,1550.0,1550.0,0.0,0.0
1565341108965052837,1550.0,1550.0,1550.0,1550.0,0.0,0.0
1565341109014963931,1550.0,1550.0,1550.0,1550.0,0.0,0.0
1565341109064999504,1550.0,1550.0,1550.0,1550.0,0.0,0.0
1565341109115139556,1550.0,1550.0,1550.0,1550.0,0.0,0.0
1565341109164959556,1550.0,1550.0,1550.0,1550.0,0.0,0.0
1565341109215123775,1550.0,1550.0,1550.0,1550.0,0.0,0.0
1565341109265232525,1550.0,1550.0,1550.0,1550.0,0.0,0.0
1565341109315035806,1550.0,1550.0,1550.0,1550.0,0.0,0.0
1565341109365086900,1550.0,1550.0,1550.0,1550.0,0.0,0.0
1565341109415023098,1550.0,1550.0,1550.0,1550.0,0.0,0.0
1565341109465165441,1550.0,1550.0,1550.0,1550.0,0.0,0.0
1565341109515167733,1550.0,1550.0,1550.0,1550.0,0.0,0.0
1565341109565033775,1550.0,1550.0,1550.0,1550.0,0.0,0.0
1565341109615164035,1550.0,1550.0,1550.0,1550.0,0.0,0.0
1565341109665182733,1550.0,1550.0,1550.0,1550.0,0.0,0.0
1565341109715366379,1550.0,1550.0,1550.0,1550.0,0.0,0.0
1565341109765422577,1550.0,1550.0,1550.0,1550.0,0.0,0.0
1565341109815163149,1550.0,1550.0,1550.0,1550.0,0.0,0.0
1565341109865414660,1550.0,1550.0,1550.0,1550.0,0.0,0.0
1565341109914934139,1550.0,1550.0,1550.0,1550.0,0.0,0.0
1565341109965571274,1550.0,1550.0,1550.0,1550.0,0.0,0.0
1565341110014993306,1550.0,1550.0,1550.0,1550.0,0.0,0.0
1565341110065881014,1550.0,1550.0,1550.0,1550.0,0.0,0.0
1565341110114751014,1550.0,1550.0,1550.0,1550.0,0.0,0.0
1565341110165871691,1550.0,1550.0,1550.0,1550.0,0.0,0.0
1565341110215019712,1550.0,1550.0,1550.0,1550.0,0.0,0.0
1565341110265398306,1550.0,1550.0,1550.0,1550.0,0.0,0.0
1565341110315072316,1550.0,1550.0,1550.0,1550.0,0.0,0.0
1565341110364922368,1550.0,1550.0,1550.0,1550.0,0.0,0.0
1565341110415036378,1550.0,1550.0,1550.0,1550.0,0.0,0.0
1565341110465340753,1550.0,1565.27475566,1565.27475566,1550.0,0.0,0.0
1565341110515013410,1550.0,1565.27475566,1565.27475566,1550.0,0.0,0.0
1565341110566228358,1550.0,1581.01106286,1581.01106286,1550.0,0.0,0.0
1565341110614967212,1550.0,1581.01106286,1581.01106286,1550.0,0.0,0.0
1565341110664928358,1550.0,1585.89402437,1585.89402437,1550.0,0.0,0.0
1565341110715249920,1550.0,1585.89402437,1585.89402437,1550.0,0.0,0.0
1565341110765480597,1550.0,1595.11864483,1595.11864483,1550.0,0.0,0.0
1565341110814946795,1550.0,1595.11864483,1595.11864483,1550.0,0.0,0.0
1565341110864893722,1550.0,1595.11864483,1595.11864483,1550.0,0.0,0.0
1565341110914975545,1550.0,1599.46030378,1599.46030378,1550.0,0.0,0.0
1565341110965196378,1550.0,1599.46030378,1599.46030378,1550.0,0.0,0.0
1565341111014906691,1550.0,1600.0,1600.0,1550.0,0.0,0.0
1565341111065014816,1550.0,1600.0,1600.0,1550.0,0.0,0.0
1565341111114957732,1550.0,1600.0,1600.0,1550.0,0.0,0.0
1565341111165134191,1550.0,1600.0,1600.0,1550.0,0.0,0.0
1565341111214890961,1550.0,1600.0,1600.0,1550.0,0.0,0.0
1565341111264913774,1550.0,1600.0,1600.0,1550.0,0.0,0.0
1565341111314948982,1550.0,1600.0,1600.0,1550.0,0.0,0.0
1565341111364959086,1550.0,1600.0,1600.0,1550.0,0.0,0.0
1565341111414899451,1550.0,1600.0,1600.0,1550.0,0.0,0.0
1565341111464968097,1550.0,1600.0,1600.0,1550.0,0.0,0.0
1565341111514930961,1550.0,1600.0,1600.0,1550.0,0.0,0.0
1565341111565000180,1550.0,1600.0,1600.0,1550.0,0.0,0.0
1565341111614929034,1550.0,1600.0,1600.0,1550.0,0.0,0.0
1565341111664919711,1550.0,1600.0,1600.0,1550.0,0.0,0.0
1565341111715141690,1550.0,1600.0,1600.0,1550.0,0.0,0.0
1565341111764983253,1550.0,1600.0,1600.0,1550.0,0.0,0.0
1565341111814943670,1550.0,1600.0,1600.0,1550.0,0.0,0.0
1565341111865100649,1550.0,1600.0,1600.0,1550.0,0.0,0.0
1565341111921089763,1550.0,1600.0,1600.0,1550.0,0.0,0.0
1565341111969542784,1550.0,1600.0,1600.0,1550.0,0.0,0.0
1565341112015764972,1550.0,1550.0,1550.0,1550.0,0.0,0.0
1565341112065032524,1550.0,1550.0,1550.0,1550.0,0.0,0.0
1565341112116338149,1550.0,1550.0,1550.0,1550.0,0.0,0.0
1565341112165568930,1550.0,1550.0,1550.0,1550.0,0.0,0.0
1565341112215487159,1550.0,1550.0,1550.0,1550.0,0.0,0.0
1565341112265726065,1550.0,1550.0,1550.0,1550.0,0.0,0.0
1565341112315595649,1550.0,1550.0,1550.0,1550.0,0.0,0.0
1565341112366164138,1550.0,1550.0,1550.0,1550.0,0.0,0.0
1565341112415744555,1550.0,1550.0,1550.0,1550.0,0.0,0.0
1565341112465916742,1550.0,1550.0,1550.0,1550.0,0.0,0.0
1565341112516232003,1550.0,1550.0,1550.0,1550.0,0.0,0.0
1565341112565263930,1550.0,1550.0,1550.0,1550.0,0.0,0.0
1565341112616695076,1550.0,1550.0,1550.0,1550.0,0.0,0.0
1565341112666204398,1550.0,1550.0,1550.0,1550.0,0.0,0.0
1565341112714999815,1550.0,1550.0,1550.0,1550.0,0.0,0.0
1565341112764949242,1550.0,1550.0,1550.0,1550.0,0.0,0.0
1565341112815260492,1550.0,1550.0,1550.0,1550.0,0.0,0.0
1565341112866220388,1550.0,1550.0,1550.0,1550.0,0.0,0.0
1565341112916279502,1550.0,1550.0,1550.0,1550.0,0.0,0.0
1565341112965267680,1550.0,1550.0,1550.0,1550.0,0.0,0.0
1565341113015516013,1550.0,1550.0,1550.0,1550.0,0.0,0.0
1565341113065718200,1550.0,1550.0,1550.0,1550.0,0.0,0.0
1565341113116791638,1550.0,1550.0,1550.0,1550.0,0.0,0.0
1565341113165527211,1550.0,1550.0,1550.0,1550.0,0.0,0.0
1565341113215364554,1550.0,1550.0,1550.0,1550.0,0.0,0.0
1565341113265374815,1550.0,1550.0,1550.0,1550.0,0.0,0.0
1565341113316082523,1550.0,1550.0,1550.0,1550.0,0.0,0.0
1565341113365417159,1550.0,1550.0,1550.0,1550.0,0.0,0.0
1565341113415614659,1550.0,1550.0,1550.0,1550.0,0.0,0.0
1565341113465656013,1550.0,1550.0,1550.0,1550.0,0.0,0.0
1565341113516076429,1550.0,1550.0,1550.0,1550.0,0.0,0.0
1565341113565431481,1550.0,1550.0,1550.0,1550.0,0.0,0.0
1565341113615447315,1550.0,1550.0,1550.0,1550.0,0.0,0.0
1565341113665213825,1550.0,1550.0,1550.0,1550.0,0.0,0.0
1565341113715937106,1550.0,1550.0,1550.0,1550.0,0.0,0.0
1565341113765411117,1550.0,1550.0,1550.0,1550.0,0.0,0.0
1565341113815867940,1550.0,1550.0,1550.0,1550.0,0.0,0.0
1565341113865537367,1550.0,1550.0,1550.0,1550.0,0.0,0.0
1565341113915972054,1550.0,1550.0,1550.0,1550.0,0.0,0.0
1565341113965367419,1550.0,1550.0,1550.0,1550.0,0.0,0.0
1565341114015486794,1550.0,1550.0,1550.0,1550.0,0.0,0.0
1565341114065381012,1550.0,1550.0,1550.0,1550.0,0.0,0.0
1565341114116169294,1550.0,1550.0,1550.0,1550.0,0.0,0.0
1565341114165382627,1550.0,1562.01891154,1562.01891154,1550.0,0.0,0.0
1565341114215450960,1550.0,1562.01891154,1562.01891154,1550.0,0.0,0.0
1565341114265583773,1550.0,1587.52274811,1587.52274811,1550.0,0.0,0.0
1565341114316376325,1550.0,1587.52274811,1587.52274811,1550.0,0.0,0.0
1565341114365487783,1550.0,1600.0,1600.0,1550.0,0.0,0.0
1565341114415519137,1550.0,1600.0,1600.0,1550.0,0.0,0.0
1565341114465280908,1550.0,1600.0,1600.0,1550.0,0.0,0.0
1565341114516182002,1550.0,1600.0,1600.0,1550.0,0.0,0.0
1565341114565474241,1550.0,1600.0,1600.0,1550.0,0.0,0.0
1565341114615395387,1550.0,1600.0,1600.0,1550.0,0.0,0.0
1565341114665415908,1550.0,1600.0,1600.0,1550.0,0.0,0.0
1565341114716217523,1550.0,1600.0,1600.0,1550.0,0.0,0.0
1565341114765455283,1550.0,1600.0,1600.0,1550.0,0.0,0.0
1565341114816351689,1550.0,1600.0,1600.0,1550.0,0.0,0.0
1565341114865186116,1550.0,1600.0,1600.0,1550.0,0.0,0.0
1565341114916741429,1550.0,1600.0,1600.0,1550.0,0.0,0.0
1565341114965344762,1550.0,1600.0,1600.0,1550.0,0.0,0.0
1565341115014949293,1550.0,1600.0,1600.0,1550.0,0.0,0.0
1565341115065727575,1550.0,1600.0,1600.0,1550.0,0.0,0.0
1565341115116079293,1550.0,1600.0,1600.0,1550.0,0.0,0.0
1565341115165565075,1550.0,1600.0,1600.0,1550.0,0.0,0.0
1565341115215343356,1550.0,1600.0,1600.0,1550.0,0.0,0.0
1565341115264793460,1550.0,1600.0,1600.0,1550.0,0.0,0.0
1565341115314877939,1550.0,1600.0,1600.0,1550.0,0.0,0.0
1565341115365180908,1550.0,1600.0,1600.0,1550.0,0.0,0.0
1565341115414907002,1550.0,1600.0,1600.0,1550.0,0.0,0.0
1565341115464867731,1550.0,1600.0,1600.0,1550.0,0.0,0.0
1565341115514927418,1550.0,1600.0,1600.0,1550.0,0.0,0.0
1565341115564876481,1550.0,1550.0,1550.0,1550.0,0.0,0.0
1565341115615642366,1550.0,1550.0,1550.0,1550.0,0.0,0.0
1565341115665362626,1550.0,1550.0,1550.0,1550.0,0.0,0.0
1565341115715468772,1550.0,1550.0,1550.0,1550.0,0.0,0.0
1565341115764823512,1550.0,1550.0,1550.0,1550.0,0.0,0.0
1565341115815357991,1550.0,1550.0,1550.0,1550.0,0.0,0.0
1565341115865326845,1550.0,1550.0,1550.0,1550.0,0.0,0.0
1565341115915361012,1550.0,1550.0,1550.0,1550.0,0.0,0.0
1565341115965328772,1550.0,1550.0,1550.0,1550.0,0.0,0.0
1565341116015212366,1550.0,1550.0,1550.0,1550.0,0.0,0.0
1565341116064911012,1550.0,1550.0,1550.0,1550.0,0.0,0.0
1565341116114973616,1550.0,1550.0,1550.0,1550.0,0.0,0.0
1565341116164926793,1550.0,1550.0,1550.0,1550.0,0.0,0.0
1565341116215088147,1550.0,1550.0,1550.0,1550.0,0.0,0.0
1565341116265084449,1550.0,1550.0,1550.0,1550.0,0.0,0.0
1565341116315233147,1550.0,1550.0,1550.0,1550.0,0.0,0.0
1565341116365127991,1550.0,1550.0,1550.0,1550.0,0.0,0.0
1565341116415093251,1550.0,1550.0,1550.0,1550.0,0.0,0.0
1565341116464859762,1550.0,1550.0,1550.0,1550.0,0.0,0.0
1565341116515147574,1550.0,1550.0,1550.0,1550.0,0.0,0.0
1565341116564878407,1550.0,1550.0,1550.0,1550.0,0.0,0.0
1565341116615087470,1550.0,1550.0,1550.0,1550.0,0.0,0.0
1565341116664879449,1550.0,1550.0,1550.0,1550.0,0.0,0.0
1565341116715117157,1550.0,1550.0,1550.0,1550.0,0.0,0.0
1565341116764881272,1550.0,1550.0,1550.0,1550.0,0.0,0.0
1565341116815384605,1550.0,1550.0,1550.0,1550.0,0.0,0.0
1565341116865317053,1550.0,1550.0,1550.0,1550.0,0.0,0.0
1565341116914873772,1550.0,1550.0,1550.0,1550.0,0.0,0.0
1565341116965100074,1550.0,1550.0,1550.0,1550.0,0.0,0.0
1565341117015158043,1550.0,1550.0,1550.0,1550.0,0.0,0.0
1565341117064809709,1550.0,1550.0,1550.0,1550.0,0.0,0.0
1565341117115180438,1550.0,1550.0,1550.0,1550.0,0.0,0.0
1565341117164902782,1550.0,1550.0,1550.0,1550.0,0.0,0.0
1565341117215023876,1550.0,1550.0,1550.0,1550.0,0.0,0.0
1565341117264910595,1550.0,1550.0,1550.0,1550.0,0.0,0.0
1565341117315130959,1550.0,1550.0,1550.0,1550.0,0.0,0.0
1565341117364869709,1550.0,1550.0,1550.0,1550.0,0.0,0.0
1565341117415254449,1550.0,1550.0,1550.0,1550.0,0.0,0.0
1565341117464876115,1550.0,1550.0,1550.0,1550.0,0.0,0.0
1565341117515113042,1550.0,1550.0,1550.0,1550.0,0.0,0.0
1565341117564933355,1550.0,1550.0,1550.0,1550.0,0.0,0.0
1565341117614877313,1550.0,1550.0,1550.0,1550.0,0.0,0.0
1565341117664836063,1550.0,1550.0,1550.0,1550.0,0.0,0.0
1565341117714906949,1550.0,1550.0,1550.0,1550.0,0.0,0.0
1565341117765173615,1550.0,1550.0,1550.0,1550.0,0.0,0.0
1565341117814988407,1559.84727889,1550.0,1550.0,1559.84727889,0.0,0.0
1565341117864954449,1559.84727889,1550.0,1550.0,1559.84727889,0.0,0.0
1565341117915185178,1559.84727889,1550.0,1550.0,1559.84727889,0.0,0.0
1565341117965122990,1570.70062459,1550.0,1550.0,1570.70062459,0.0,0.0
1565341118015373823,1584.26529765,1550.0,1550.0,1584.26529765,0.0,0.0
1565341118064857990,1584.26529765,1550.0,1550.0,1584.26529765,0.0,0.0
1565341118114949448,1584.26529765,1550.0,1550.0,1584.26529765,0.0,0.0
1565341118164911323,1585.35111547,1550.0,1550.0,1585.35111547,0.0,0.0
1565341118214877157,1585.35111547,1550.0,1550.0,1585.35111547,0.0,0.0
1565341118264841219,1584.80820656,1550.0,1550.0,1584.80820656,0.0,0.0
1565341118314917573,1584.80820656,1550.0,1550.0,1584.80820656,0.0,0.0
1565341118364885021,1584.80820656,1550.0,1550.0,1584.80820656,0.0,0.0
1565341118414857521,1584.80820656,1550.0,1550.0,1584.80820656,0.0,0.0
1565341118464819188,1584.80820656,1550.0,1550.0,1584.80820656,0.0,0.0
1565341118514983615,1584.80820656,1550.0,1550.0,1584.80820656,0.0,0.0
1565341118565520334,1584.80820656,1550.0,1550.0,1584.80820656,0.0,0.0
1565341118614979761,1584.26529765,1550.0,1550.0,1584.26529765,0.0,0.0
1565341118665026688,1584.26529765,1550.0,1550.0,1584.26529765,0.0,0.0
1565341118714953719,1584.26529765,1550.0,1550.0,1584.26529765,0.0,0.0
1565341118764937729,1583.72239172,1550.0,1550.0,1583.72239172,0.0,0.0
1565341118814880438,1583.72239172,1550.0,1550.0,1583.72239172,0.0,0.0
1565341118864989761,1583.72239172,1550.0,1550.0,1583.72239172,0.0,0.0
1565341118914864448,1583.72239172,1550.0,1550.0,1583.72239172,0.0,0.0
1565341118964937156,1595.6599474,1550.0,1550.0,1595.6599474,0.0,0.0
1565341119014868823,1595.6599474,1550.0,1550.0,1595.6599474,0.0,0.0
1565341119065343198,1600.0,1550.0,1550.0,1600.0,0.0,0.0
1565341119114874344,1600.0,1550.0,1550.0,1600.0,0.0,0.0
1565341119164948979,1600.0,1550.0,1550.0,1600.0,0.0,0.0
1565341119215109969,1600.0,1550.0,1550.0,1600.0,0.0,0.0
1565341119264916479,1600.0,1550.0,1550.0,1600.0,0.0,0.0
1565341119315266948,1600.0,1550.0,1550.0,1600.0,0.0,0.0
1565341119364862990,1600.0,1550.0,1550.0,1600.0,0.0,0.0
1565341119415044656,1600.0,1550.0,1550.0,1600.0,0.0,0.0
1565341119465231844,1600.0,1550.0,1550.0,1600.0,0.0,0.0
1565341119515334031,1600.0,1550.0,1550.0,1600.0,0.0,0.0
1565341119565253042,1600.0,1550.0,1550.0,1600.0,0.0,0.0
1565341119615253615,1600.0,1550.0,1550.0,1600.0,0.0,0.0
1565341119665248771,1600.0,1550.0,1550.0,1600.0,0.0,0.0
1565341119715288354,1600.0,1550.0,1550.0,1600.0,0.0,0.0
1565341119765275854,1600.0,1550.0,1550.0,1600.0,0.0,0.0
1565341119815224187,1600.0,1550.0,1550.0,1600.0,0.0,0.0
1565341119865821427,1600.0,1550.0,1550.0,1600.0,0.0,0.0
1565341119915276739,1600.0,1550.0,1550.0,1600.0,0.0,0.0
1565341119965297729,1600.0,1550.0,1550.0,1600.0,0.0,0.0
1565341120015238458,1600.0,1550.0,1550.0,1600.0,0.0,0.0
1565341120065211375,1600.0,1550.0,1550.0,1600.0,0.0,0.0
1565341120115218979,1600.0,1550.0,1550.0,1600.0,0.0,0.0
1565341120165261271,1600.0,1550.0,1550.0,1600.0,0.0,0.0
1565341120215298823,1600.0,1550.0,1550.0,1600.0,0.0,0.0
1565341120265298510,1600.0,1550.0,1550.0,1600.0,0.0,0.0
1565341120315432000,1600.0,1550.0,1550.0,1600.0,0.0,0.0
1565341120365597156,1600.0,1550.0,1550.0,1600.0,0.0,0.0
1565341120415343562,1600.0,1550.0,1550.0,1600.0,0.0,0.0
1565341120464804656,1600.0,1550.0,1550.0,1600.0,0.0,0.0
1565341120514885802,1600.0,1550.0,1550.0,1600.0,0.0,0.0
1565341120565531062,1600.0,1550.0,1550.0,1600.0,0.0,0.0
1565341120614902520,1600.0,1550.0,1550.0,1600.0,0.0,0.0
1565341120665283875,1600.0,1550.0,1550.0,1600.0,0.0,0.0
1565341120715906427,1600.0,1550.0,1550.0,1600.0,0.0,0.0
1565341120765707885,1600.0,1550.0,1550.0,1600.0,0.0,0.0
1565341120815251114,1600.0,1550.0,1550.0,1600.0,0.0,0.0
1565341120865227989,1550.0,1550.0,1550.0,1550.0,0.0,0.0
1565341120915779031,1550.0,1550.0,1550.0,1550.0,0.0,0.0
1565341120965933145,1550.0,1550.0,1550.0,1550.0,0.0,0.0
1565341121015822624,1550.0,1550.0,1550.0,1550.0,0.0,0.0
1565341121065296010,1550.0,1550.0,1550.0,1550.0,0.0,0.0
1565341121115782208,1550.0,1550.0,1550.0,1550.0,0.0,0.0
1565341121164943926,1550.0,1550.0,1550.0,1550.0,0.0,0.0
1565341121215096062,1550.0,1550.0,1550.0,1550.0,0.0,0.0
1565341121265237989,1550.0,1550.0,1550.0,1550.0,0.0,0.0
1565341121316059708,1550.0,1550.0,1550.0,1550.0,0.0,0.0
1565341121365372103,1550.0,1550.0,1550.0,1550.0,0.0,0.0
1565341121415114395,1550.0,1550.0,1550.0,1550.0,0.0,0.0
1565341121465125489,1550.0,1550.0,1550.0,1550.0,0.0,0.0
1565341121514920593,1550.0,1550.0,1550.0,1550.0,0.0,0.0
1565341121565025228,1550.0,1550.0,1550.0,1550.0,0.0,0.0
1565341121615213510,1550.0,1550.0,1550.0,1550.0,0.0,0.0
1565341121665377051,1550.0,1550.0,1550.0,1550.0,0.0,0.0
1565341121717355905,1550.0,1550.0,1550.0,1550.0,0.0,0.0
1565341121765030489,1550.0,1550.0,1550.0,1550.0,0.0,0.0
1565341121815563926,1550.0,1550.0,1550.0,1550.0,0.0,0.0
1565341121865760541,1550.0,1550.0,1550.0,1550.0,0.0,0.0
1565341121914808614,1550.0,1550.0,1550.0,1550.0,0.0,0.0
1565341121965541999,1550.0,1550.0,1550.0,1550.0,0.0,0.0
1565341122014949655,1550.0,1550.0,1550.0,1550.0,0.0,0.0
1565341122065492989,1550.0,1550.0,1550.0,1550.0,0.0,0.0
1565341122115750280,1550.0,1550.0,1550.0,1550.0,0.0,0.0
1565341122164707468,1550.0,1550.0,1550.0,1550.0,0.0,0.0
1565341122215207051,1550.0,1550.0,1550.0,1550.0,0.0,0.0
1565341122265152311,1550.0,1550.0,1550.0,1550.0,0.0,0.0
1565341122315912468,1550.0,1550.0,1550.0,1550.0,0.0,0.0
1565341122365326166,1550.0,1550.0,1550.0,1550.0,0.0,0.0
1565341122414935905,1550.0,1550.0,1550.0,1550.0,0.0,0.0
1565341122465104030,1550.0,1550.0,1550.0,1550.0,0.0,0.0
1565341122514997884,1550.0,1550.0,1550.0,1550.0,0.0,0.0
1565341122564804655,1550.0,1550.0,1550.0,1550.0,0.0,0.0
1565341122614800645,1550.0,1550.0,1550.0,1550.0,0.0,0.0
1565341122664907780,1550.0,1550.0,1550.0,1550.0,0.0,0.0
1565341122716313717,1550.0,1550.0,1550.0,1550.0,0.0,0.0
1565341122764978249,1550.0,1550.0,1550.0,1550.0,0.0,0.0
1565341122814972415,1550.0,1550.0,1550.0,1550.0,0.0,0.0
1565341122865173405,1550.0,1550.0,1550.0,1550.0,0.0,0.0
1565341122915490124,1550.0,1550.0,1550.0,1550.0,0.0,0.0
1565341122965815853,1550.0,1550.0,1550.0,1550.0,0.0,0.0
1565341123014968301,1550.0,1550.0,1550.0,1550.0,0.0,0.0
1565341123065782467,1550.0,1550.0,1550.0,1550.0,0.0,0.0
1565341123116869238,1550.0,1550.0,1550.0,1550.0,0.0,0.0
1565341123164830592,1550.0,1550.0,1550.0,1550.0,0.0,0.0
1565341123215146686,1550.0,1550.0,1550.0,1550.0,0.0,0.0
1565341123264887519,1550.0,1550.0,1550.0,1550.0,0.0,0.0
1565341123315390540,1550.0,1550.0,1550.0,1550.0,0.0,0.0
1565341123364942207,1579.38233614,1550.0,1550.0,1579.38233614,0.0,0.0
1565341123414815905,1579.38233614,1550.0,1550.0,1579.38233614,0.0,0.0
1565341123464717415,1594.57412958,1550.0,1550.0,1594.57412958,0.0,0.0
1565341123514785436,1594.57412958,1550.0,1550.0,1594.57412958,0.0,0.0
1565341123564733353,1594.57412958,1550.0,1550.0,1594.57412958,0.0,0.0
1565341123614672467,1594.03282702,1550.0,1550.0,1594.03282702,0.0,0.0
1565341123664759967,1594.03282702,1550.0,1550.0,1594.03282702,0.0,0.0
1565341123715216217,1594.03282702,1550.0,1550.0,1594.03282702,0.0,0.0
1565341123764915592,1594.03282702,1550.0,1550.0,1594.03282702,0.0,0.0
1565341123814882571,1594.03282702,1550.0,1550.0,1594.03282702,0.0,0.0
1565341123865219967,1593.48992109,1550.0,1550.0,1593.48992109,0.0,0.0
1565341123915616946,1593.48992109,1550.0,1550.0,1593.48992109,0.0,0.0
1565341123964630436,1550.0,1550.0,1550.0,1550.0,0.0,0.0
1565341124014781894,1550.0,1550.0,1550.0,1550.0,0.0,0.0
1565341124064782623,1550.0,1550.0,1550.0,1550.0,0.0,0.0
1565341124114759029,1550.0,1550.0,1550.0,1550.0,0.0,0.0
1565341124164772259,1550.0,1550.0,1550.0,1550.0,0.0,0.0
1565341124214769238,1550.0,1550.0,1550.0,1550.0,0.0,0.0
1565341124265066634,1550.0,1550.0,1550.0,1550.0,0.0,0.0
1565341124315757154,1550.0,1550.0,1550.0,1550.0,0.0,0.0
1565341124364718040,1550.0,1550.0,1550.0,1550.0,0.0,0.0
1565341124415036373,1550.0,1550.0,1550.0,1550.0,0.0,0.0
1565341124464937050,1550.0,1550.0,1550.0,1550.0,0.0,0.0
1565341124514849394,1550.0,1550.0,1550.0,1550.0,0.0,0.0
1565341124565055383,1550.0,1550.0,1550.0,1550.0,0.0,0.0
1565341124615888561,1550.0,1550.0,1550.0,1550.0,0.0,0.0
1565341124665462415,1550.0,1550.0,1550.0,1550.0,0.0,0.0
1565341124715346685,1550.0,1550.0,1550.0,1550.0,0.0,0.0
1565341124764820123,1550.0,1550.0,1550.0,1550.0,0.0,0.0
1565341124814925644,1550.0,1550.0,1550.0,1550.0,0.0,0.0
1565341124865197519,1573.41355979,1550.0,1550.0,1573.41355979,0.0,0.0
1565341124915054915,1573.41355979,1550.0,1550.0,1573.41355979,0.0,0.0
1565341124964899967,1579.9236387,1550.0,1550.0,1579.9236387,0.0,0.0
1565341125014938300,1579.9236387,1550.0,1550.0,1579.9236387,0.0,0.0
1565341125064998717,1586.97823286,1550.0,1550.0,1586.97823286,0.0,0.0
1565341125115590487,1586.97823286,1550.0,1550.0,1586.97823286,0.0,0.0
1565341125164880852,1579.9236387,1550.0,1550.0,1579.9236387,0.0,0.0
1565341125214905487,1579.9236387,1550.0,1550.0,1579.9236387,0.0,0.0
1565341125264902414,1550.0,1550.0,1550.0,1550.0,0.0,0.0
1565341125314932050,1550.0,1550.0,1550.0,1550.0,0.0,0.0
1565341125364928196,1550.0,1550.0,1550.0,1550.0,0.0,0.0
1565341125414636425,1550.0,1550.0,1550.0,1550.0,0.0,0.0
1565341125464911321,1550.0,1550.0,1550.0,1550.0,0.0,0.0
1565341125514944029,1550.0,1550.0,1550.0,1550.0,0.0,0.0
1565341125565006685,1550.0,1550.0,1550.0,1550.0,0.0,0.0
1565341125614703768,1550.0,1550.0,1550.0,1550.0,0.0,0.0
1565341125665302466,1550.0,1550.0,1550.0,1550.0,0.0,0.0
1565341125715442102,1550.0,1550.0,1550.0,1550.0,0.0,0.0
1565341125764758352,1550.0,1550.0,1550.0,1550.0,0.0,0.0
1565341125815823300,1550.0,1550.0,1550.0,1550.0,0.0,0.0
1565341125865705383,1550.0,1550.0,1550.0,1550.0,0.0,0.0
1565341125915104185,1550.0,1550.0,1550.0,1550.0,0.0,0.0
1565341125965087414,1550.0,1550.0,1550.0,1550.0,0.0,0.0
1565341126014697570,1550.0,1550.0,1550.0,1550.0,0.0,0.0
1565341126066105643,1550.0,1550.0,1550.0,1550.0,0.0,0.0
1565341126115094602,1550.0,1550.0,1550.0,1550.0,0.0,0.0
1565341126165072466,1550.0,1550.0,1550.0,1550.0,0.0,0.0
1565341126215174758,1550.0,1550.0,1550.0,1550.0,0.0,0.0
1565341126265175487,1569.07189935,1550.0,1550.0,1569.07189935,0.0,0.0
1565341126315101737,1569.07189935,1550.0,1550.0,1569.07189935,0.0,0.0
1565341126364862414,1566.35896564,1550.0,1550.0,1566.35896564,0.0,0.0
1565341126414835799,1566.35896564,1550.0,1550.0,1566.35896564,0.0,0.0
1565341126464922779,1566.35896564,1550.0,1550.0,1566.35896564,0.0,0.0
1565341126515120226,1566.35896564,1550.0,1550.0,1566.35896564,0.0,0.0
1565341126565706581,1566.35896564,1550.0,1550.0,1566.35896564,0.0,0.0
1565341126615628768,1566.35896564,1550.0,1550.0,1566.35896564,0.0,0.0
1565341126665169497,1566.35896564,1550.0,1550.0,1566.35896564,0.0,0.0
1565341126715151424,1571.78483456,1550.0,1550.0,1571.78483456,0.0,0.0
1565341126765060435,1571.78483456,1550.0,1550.0,1571.78483456,0.0,0.0
1565341126814902206,1591.31828845,1550.0,1550.0,1591.31828845,0.0,0.0
1565341126864995070,1591.31828845,1550.0,1550.0,1591.31828845,0.0,0.0
1565341126914976893,1600.0,1550.0,1550.0,1600.0,0.0,0.0
1565341126964972518,1600.0,1550.0,1550.0,1600.0,0.0,0.0
1565341127014877466,1600.0,1550.0,1550.0,1600.0,0.0,0.0
1565341127064989341,1600.0,1550.0,1550.0,1600.0,0.0,0.0
1565341127115602205,1600.0,1550.0,1550.0,1600.0,0.0,0.0
1565341127164892778,1550.0,1550.0,1550.0,1550.0,0.0,0.0
1565341127214947726,1550.0,1550.0,1550.0,1550.0,0.0,0.0
1565341127264642570,1550.0,1550.0,1550.0,1550.0,0.0,0.0
1565341127315027153,1550.0,1550.0,1550.0,1550.0,0.0,0.0
1565341127365092101,1550.0,1550.0,1550.0,1550.0,0.0,0.0
1565341127414938039,1550.0,1550.0,1550.0,1550.0,0.0,0.0
1565341127464919289,1550.0,1550.0,1550.0,1550.0,0.0,0.0
1565341127515096997,1550.0,1550.0,1550.0,1550.0,0.0,0.0
1565341127565025799,1550.0,1550.0,1550.0,1550.0,0.0,0.0
1565341127615092674,1550.0,1550.0,1550.0,1550.0,0.0,0.0
1565341127664977414,1550.0,1550.0,1550.0,1550.0,0.0,0.0
1565341127715137101,1550.0,1550.0,1550.0,1550.0,0.0,0.0
1565341127764941059,1550.0,1550.0,1550.0,1550.0,0.0,0.0
1565341127815015591,1550.0,1550.0,1550.0,1550.0,0.0,0.0
1565341127864981997,1550.0,1550.0,1550.0,1550.0,0.0,0.0
1565341127915178872,1550.0,1550.0,1550.0,1550.0,0.0,0.0
1565341127965659184,1550.0,1550.0,1550.0,1550.0,0.0,0.0
1565341128015211580,1550.0,1550.0,1550.0,1550.0,0.0,0.0
1565341128065964601,1550.0,1550.0,1550.0,1550.0,0.0,0.0
1565341128116463195,1550.0,1550.0,1550.0,1550.0,0.0,0.0
1565341128165320278,1550.0,1550.0,1550.0,1550.0,0.0,0.0
1565341128214972361,1550.0,1550.0,1550.0,1550.0,0.0,0.0
1565341128264721945,1550.0,1550.0,1550.0,1550.0,0.0,0.0
1565341128315600642,1550.0,1550.0,1550.0,1550.0,0.0,0.0
1565341128365066788,1550.0,1550.0,1550.0,1550.0,0.0,0.0
1565341128415182674,1550.0,1550.0,1550.0,1550.0,0.0,0.0
1565341128464818611,1550.0,1550.0,1550.0,1550.0,0.0,0.0
1565341128515080434,1550.0,1550.0,1550.0,1550.0,0.0,0.0
1565341128565696319,1550.0,1550.0,1550.0,1550.0,0.0,0.0
1565341128614777986,1550.0,1550.0,1550.0,1550.0,0.0,0.0
1565341128665076215,1550.0,1550.0,1550.0,1550.0,0.0,0.0
1565341128715598715,1550.0,1550.0,1550.0,1550.0,0.0,0.0
1565341128764871267,1550.0,1550.0,1550.0,1550.0,0.0,0.0
1565341128814832986,1550.0,1550.0,1550.0,1550.0,0.0,0.0
1565341128865198976,1550.0,1550.0,1550.0,1550.0,0.0,0.0
1565341128915710278,1550.0,1550.0,1550.0,1550.0,0.0,0.0
1565341128965367986,1550.0,1550.0,1550.0,1550.0,0.0,0.0
1565341129014981007,1550.0,1550.0,1550.0,1550.0,0.0,0.0
1565341129064898090,1550.0,1550.0,1550.0,1550.0,0.0,0.0
1565341129115771267,1550.0,1550.0,1550.0,1550.0,0.0,0.0
1565341129165266059,1590.77698588,1550.0,1550.0,1590.77698588,0.0,0.0
1565341129214841267,1590.77698588,1550.0,1550.0,1590.77698588,0.0,0.0
1565341129264842830,1590.77698588,1550.0,1550.0,1590.77698588,0.0,0.0
1565341129315750121,1591.31828845,1550.0,1550.0,1591.31828845,0.0,0.0
1565341129365048767,1590.77698588,1550.0,1550.0,1590.77698588,0.0,0.0
1565341129414817882,1590.77698588,1550.0,1550.0,1590.77698588,0.0,0.0
1565341129464802152,1590.77698588,1550.0,1550.0,1590.77698588,0.0,0.0
1565341129515791319,1598.91578853,1550.0,1550.0,1598.91578853,0.0,0.0
1565341129565437100,1597.8299737,1550.0,1550.0,1597.8299737,0.0,0.0
1565341129614856163,1597.8299737,1550.0,1550.0,1597.8299737,0.0,0.0
1565341129665561423,1597.8299737,1550.0,1550.0,1597.8299737,0.0,0.0
1565341129715727673,1550.0,1550.0,1550.0,1550.0,0.0,0.0
1565341129765164756,1550.0,1550.0,1550.0,1550.0,0.0,0.0
1565341129814890069,1550.0,1550.0,1550.0,1550.0,0.0,0.0
1565341129865097986,1550.0,1550.0,1550.0,1550.0,0.0,0.0
1565341129916460590,1550.0,1550.0,1550.0,1550.0,0.0,0.0
1565341129966242777,1550.0,1550.0,1550.0,1550.0,0.0,0.0
1565341130015981736,1550.0,1550.0,1550.0,1550.0,0.0,0.0
1565341130065296475,1550.0,1550.0,1550.0,1550.0,0.0,0.0
1565341130114963454,1550.0,1550.0,1550.0,1550.0,0.0,0.0
1565341130164911735,1550.0,1550.0,1550.0,1550.0,0.0,0.0
1565341130214924340,1550.0,1550.0,1550.0,1550.0,0.0,0.0
1565341130264758558,1550.0,1550.0,1550.0,1550.0,0.0,0.0
1565341130316061631,1550.0,1550.0,1550.0,1550.0,0.0,0.0
1565341130365169965,1550.0,1550.0,1550.0,1550.0,0.0,0.0
1565341130415048194,1550.0,1550.0,1550.0,1550.0,0.0,0.0
1565341130465459027,1550.0,1550.0,1550.0,1550.0,0.0,0.0
1565341130515673194,1550.0,1550.0,1550.0,1550.0,0.0,0.0
1565341130565227152,1550.0,1550.0,1550.0,1550.0,0.0,0.0
1565341130615056631,1550.0,1550.0,1550.0,1550.0,0.0,0.0
1565341130665292308,1550.0,1550.0,1550.0,1550.0,0.0,0.0
1565341130716084808,1550.0,1550.0,1550.0,1550.0,0.0,0.0
1565341130764683089,1550.0,1550.0,1550.0,1550.0,0.0,0.0
1565341130814676891,1550.0,1550.0,1550.0,1550.0,0.0,0.0
1565341130865171944,1550.0,1550.0,1550.0,1550.0,0.0,0.0
1565341130916283246,1550.0,1550.0,1550.0,1550.0,0.0,0.0
1565341130965525485,1550.0,1550.0,1550.0,1550.0,0.0,0.0
1565341131015104704,1553.3355929,1550.0,1550.0,1553.3355929,0.0,0.0
1565341131065147985,1569.07189935,1550.0,1550.0,1569.07189935,0.0,0.0
1565341131116044079,1569.07189935,1550.0,1550.0,1569.07189935,0.0,0.0
1565341131166573350,1569.07189935,1550.0,1550.0,1569.07189935,0.0,0.0
1565341131215118870,1589.14825916,1550.0,1550.0,1589.14825916,0.0,0.0
1565341131264975589,1589.14825916,1550.0,1550.0,1589.14825916,0.0,0.0
1565341131315677516,1589.14825916,1550.0,1550.0,1589.14825916,0.0,0.0
1565341131365796631,1595.6599474,1550.0,1550.0,1595.6599474,0.0,0.0
1565341131415056787,1600.0,1550.0,1550.0,1600.0,0.0,0.0
1565341131465063245,1600.0,1550.0,1550.0,1600.0,0.0,0.0
1565341131515743037,1600.0,1550.0,1550.0,1600.0,0.0,0.0
1565341131564797620,1550.0,1550.0,1550.0,1550.0,0.0,0.0
1565341131614808922,1550.0,1550.0,1550.0,1550.0,0.0,0.0
1565341131665103297,1550.0,1550.0,1550.0,1550.0,0.0,0.0
1565341131715793297,1550.0,1550.0,1550.0,1550.0,0.0,0.0
1565341131765533193,1550.0,1550.0,1550.0,1550.0,0.0,0.0
1565341131815177308,1550.0,1550.0,1550.0,1550.0,0.0,0.0
1565341131865263818,1550.0,1550.0,1550.0,1550.0,0.0,0.0
1565341131916274808,1550.0,1550.0,1550.0,1550.0,0.0,0.0
1565341131965214391,1550.0,1550.0,1550.0,1550.0,0.0,0.0
1565341132014970589,1550.0,1550.0,1550.0,1550.0,0.0,0.0
1565341132065256839,1550.0,1550.0,1550.0,1550.0,0.0,0.0
1565341132115738610,1550.0,1550.0,1550.0,1550.0,0.0,0.0
1565341132165669703,1550.0,1550.0,1550.0,1550.0,0.0,0.0
1565341132215408245,1550.0,1550.0,1550.0,1550.0,0.0,0.0
1565341132265261631,1550.0,1550.0,1550.0,1550.0,0.0,0.0
1565341132316904495,1550.0,1550.0,1550.0,1550.0,0.0,0.0
1565341132365905068,1550.0,1550.0,1550.0,1550.0,0.0,0.0
1565341132416039495,1550.0,1550.0,1550.0,1550.0,0.0,0.0
1565341132466185641,1550.0,1550.0,1550.0,1550.0,0.0,0.0
1565341132515306683,1550.0,1550.0,1550.0,1550.0,0.0,0.0
1565341132565552203,1550.0,1550.0,1550.0,1550.0,0.0,0.0
1565341132615611474,1550.0,1550.0,1550.0,1550.0,0.0,0.0
1565341132664865380,1550.0,1550.0,1550.0,1550.0,0.0,0.0
1565341132715310693,1550.0,1550.0,1550.0,1550.0,0.0,0.0
1565341132765323349,1550.0,1550.0,1550.0,1550.0,0.0,0.0
1565341132815318193,1550.0,1550.0,1550.0,1550.0,0.0,0.0
1565341132865460901,1550.0,1550.0,1550.0,1550.0,0.0,0.0
1565341132914898766,1550.0,1550.0,1550.0,1550.0,0.0,0.0
1565341132965505120,1550.0,1550.0,1550.0,1550.0,0.0,0.0
1565341133015803974,1550.0,1550.0,1550.0,1550.0,0.0,0.0
1565341133066398193,1550.0,1550.0,1550.0,1550.0,0.0,0.0
1565341133116277880,1550.0,1550.0,1550.0,1550.0,0.0,0.0
1565341133164985797,1550.0,1550.0,1550.0,1550.0,0.0,0.0
1565341133215050641,1550.0,1550.0,1550.0,1550.0,0.0,0.0
1565341133264953974,1550.0,1550.0,1550.0,1550.0,0.0,0.0
1565341133315902203,1550.0,1550.0,1550.0,1550.0,0.0,0.0
1565341133365393036,1550.0,1550.0,1550.0,1550.0,0.0,0.0
1565341133414935432,1550.0,1550.0,1550.0,1550.0,0.0,0.0
1565341133465885120,1550.0,1550.0,1550.0,1550.0,0.0,0.0
1565341133515331786,1550.0,1550.0,1550.0,1550.0,0.0,0.0
1565341133565471734,1550.0,1550.0,1550.0,1550.0,0.0,0.0
1565341133614698609,1550.0,1550.0,1550.0,1550.0,0.0,0.0
1565341133664861995,1550.0,1550.0,1550.0,1550.0,0.0,0.0
1565341133714887411,1550.0,1550.0,1550.0,1550.0,0.0,0.0
1565341133764892515,1550.0,1550.0,1550.0,1550.0,0.0,0.0
1565341133815661734,1550.0,1550.0,1550.0,1550.0,0.0,0.0
1565341133865372880,1550.0,1550.0,1550.0,1550.0,0.0,0.0
1565341133916531057,1550.0,1550.0,1550.0,1550.0,0.0,0.0
1565341133966237203,1550.0,1550.0,1550.0,1550.0,0.0,0.0
1565341134014764599,1550.0,1550.0,1550.0,1550.0,0.0,0.0
1565341134064853817,1550.0,1550.0,1550.0,1550.0,0.0,0.0
1565341134115609963,1550.0,1550.0,1550.0,1550.0,0.0,0.0
1565341134164834859,1550.0,1550.0,1550.0,1550.0,0.0,0.0
1565341134215242984,1550.0,1550.0,1550.0,1550.0,0.0,0.0
1565341134265209338,1550.0,1550.0,1550.0,1550.0,0.0,0.0
1565341134316057307,1550.0,1550.0,1550.0,1550.0,0.0,0.0
1565341134364978557,1550.0,1550.0,1550.0,1550.0,0.0,0.0
1565341134414956421,1550.0,1550.0,1550.0,1550.0,0.0,0.0
1565341134465151421,1550.0,1550.0,1550.0,1550.0,0.0,0.0
1565341134515348036,1550.0,1550.0,1550.0,1550.0,0.0,0.0
1565341134564634442,1550.0,1550.0,1552.33434476,1552.33434476,0.0,0.0
1565341134614975119,1550.0,1550.0,1552.33434476,1552.33434476,0.0,0.0
1565341134665041369,1550.0,1550.0,1552.33434476,1552.33434476,0.0,0.0
1565341134715076473,1550.0,1550.0,1552.33434476,1552.33434476,0.0,0.0
1565341134765074546,1550.0,1550.0,1552.33434476,1552.33434476,0.0,0.0
1565341134815108088,1550.0,1550.0,1550.0,1550.0,0.0,0.0
1565341134865027880,1550.0,1550.0,1550.0,1550.0,0.0,0.0
1565341134914951734,1550.0,1550.0,1550.0,1550.0,0.0,0.0
1565341134965162827,1550.0,1550.0,1550.0,1550.0,0.0,0.0
1565341135014903244,1550.0,1550.0,1550.0,1550.0,0.0,0.0
1565341135064959911,1550.0,1550.0,1550.0,1550.0,0.0,0.0
1565341135116519650,1550.0,1550.0,1550.0,1550.0,0.0,0.0
1565341135164605796,1550.0,1550.0,1550.0,1550.0,0.0,0.0
1565341135214622202,1550.0,1550.0,1550.0,1550.0,0.0,0.0
1565341135264686265,1550.0,1550.0,1550.0,1550.0,0.0,0.0
1565341135314637931,1550.0,1550.0,1550.0,1550.0,0.0,0.0
1565341135364976056,1584.26529765,1550.0,1550.0,1584.26529765,0.0,0.0
1565341135414936681,1584.26529765,1550.0,1550.0,1584.26529765,0.0,0.0
1565341135464940744,1589.14825916,1550.0,1550.0,1589.14825916,0.0,0.0
1565341135514930327,1589.14825916,1550.0,1550.0,1589.14825916,0.0,0.0
1565341135564902202,1589.14825916,1550.0,1550.0,1589.14825916,0.0,0.0
1565341135614850588,1588.60535324,1550.0,1550.0,1588.60535324,0.0,0.0
1565341135664854494,1588.60535324,1550.0,1550.0,1588.60535324,0.0,0.0
1565341135714874077,1588.06405067,1550.0,1550.0,1588.06405067,0.0,0.0
1565341135764898713,1588.06405067,1550.0,1550.0,1588.06405067,0.0,0.0
1565341135814839077,1589.14825916,1550.0,1550.0,1589.14825916,0.0,0.0
1565341135865018400,1589.14825916,1550.0,1550.0,1589.14825916,0.0,0.0
1565341135915254337,1589.14825916,1550.0,1550.0,1589.14825916,0.0,0.0
1565341135964947098,1589.69116807,1550.0,1550.0,1589.69116807,0.0,0.0
1565341136014889962,1589.69116807,1550.0,1550.0,1589.69116807,0.0,0.0
1565341136064936056,1550.0,1550.0,1550.0,1550.0,0.0,0.0
1565341136114920796,1550.0,1550.0,1550.0,1550.0,0.0,0.0
1565341136164943244,1550.0,1550.0,1550.0,1550.0,0.0,0.0
1565341136215061421,1550.0,1550.0,1550.0,1550.0,0.0,0.0
1565341136265179181,1550.0,1550.0,1550.0,1550.0,0.0,0.0
1565341136314869233,1550.0,1550.0,1550.0,1550.0,0.0,0.0
1565341136365385691,1550.0,1550.0,1550.0,1550.0,0.0,0.0
1565341136414828608,1550.0,1550.0,1550.0,1550.0,0.0,0.0
1565341136464888348,1550.0,1550.0,1550.0,1550.0,0.0,0.0
1565341136514904858,1550.0,1550.0,1550.0,1550.0,0.0,0.0
1565341136564946473,1550.0,1550.0,1550.0,1550.0,0.0,0.0
1565341136614867462,1550.0,1550.0,1550.0,1550.0,0.0,0.0
1565341136665335900,1550.0,1550.0,1550.0,1550.0,0.0,0.0
1565341136714923712,1550.0,1550.0,1550.0,1550.0,0.0,0.0
1565341136764874754,1550.0,1550.0,1550.0,1550.0,0.0,0.0
1565341136815385223,1550.0,1550.0,1550.0,1550.0,0.0,0.0
1565341136864948243,1550.0,1550.0,1550.0,1550.0,0.0,0.0
1565341136915227358,1550.0,1550.0,1550.0,1550.0,0.0,0.0
1565341136964938452,1550.0,1550.0,1550.0,1550.0,0.0,0.0
1565341137014938400,1550.0,1550.0,1550.0,1550.0,0.0,0.0
1565341137064877358,1550.0,1550.0,1550.0,1550.0,0.0,0.0
1565341137114961368,1550.0,1550.0,1550.0,1550.0,0.0,0.0
1565341137164907149,1550.0,1550.0,1550.0,1550.0,0.0,0.0
1565341137214867097,1550.0,1550.0,1550.0,1550.0,0.0,0.0
1565341137264887410,1550.0,1550.0,1550.0,1550.0,0.0,0.0
1565341137314863035,1550.0,1550.0,1550.0,1550.0,0.0,0.0
1565341137365151160,1550.0,1550.0,1550.0,1550.0,0.0,0.0
1565341137415778243,1550.0,1550.0,1550.0,1550.0,0.0,0.0
1565341137464896108,1550.0,1550.0,1550.0,1550.0,0.0,0.0
1565341137515686576,1550.0,1550.0,1550.0,1550.0,0.0,0.0
1565341137564901264,1550.0,1550.0,1550.0,1550.0,0.0,0.0
1565341137615299285,1550.0,1550.0,1550.0,1550.0,0.0,0.0
1565341137665213503,1550.0,1550.0,1550.0,1550.0,0.0,0.0
1565341137715251472,1550.0,1550.0,1550.0,1550.0,0.0,0.0
1565341137765286576,1550.0,1550.0,1550.0,1550.0,0.0,0.0
1565341137815766160,1550.0,1550.0,1550.0,1550.0,0.0,0.0
1565341137865813660,1550.0,1550.0,1550.0,1550.0,0.0,0.0
1565341137915380430,1550.0,1550.0,1550.0,1550.0,0.0,0.0
1565341137965306524,1550.0,1550.0,1550.0,1550.0,0.0,0.0
1565341138014891472,1562.01730594,1550.0,1550.0,1562.01730594,0.0,0.0
1565341138064875899,1562.01730594,1550.0,1550.0,1562.01730594,0.0,0.0
1565341138115795482,1574.49776977,1550.0,1550.0,1574.49776977,0.0,0.0
1565341138164780066,1574.49776977,1550.0,1550.0,1574.49776977,0.0,0.0
1565341138214916837,1585.35111547,1550.0,1550.0,1585.35111547,0.0,0.0
1565341138265342305,1585.35111547,1550.0,1550.0,1585.35111547,0.0,0.0
1565341138315497826,1591.31828845,1550.0,1550.0,1591.31828845,0.0,0.0
1565341138365145587,1591.31828845,1550.0,1550.0,1591.31828845,0.0,0.0
1565341138415061628,1591.31828845,1550.0,1550.0,1591.31828845,0.0,0.0
1565341138466174649,1592.94701219,1550.0,1550.0,1592.94701219,0.0,0.0
1565341138515336628,1592.94701219,1550.0,1550.0,1592.94701219,0.0,0.0
1565341138565349493,1590.77698588,1550.0,1550.0,1590.77698588,0.0,0.0
1565341138615381316,1590.77698588,1550.0,1550.0,1590.77698588,0.0,0.0
1565341138665417305,1590.77698588,1550.0,1550.0,1590.77698588,0.0,0.0
1565341138715074232,1550.0,1550.0,1550.0,1550.0,0.0,0.0
1565341138765169232,1550.0,1550.0,1550.0,1550.0,0.0,0.0
1565341138815094961,1550.0,1550.0,1550.0,1550.0,0.0,0.0
1565341138865381368,1550.0,1550.0,1550.0,1550.0,0.0,0.0
1565341138915094649,1550.0,1550.0,1550.0,1550.0,0.0,0.0
1565341138965673920,1550.0,1550.0,1550.0,1550.0,0.0,0.0
1565341139015312774,1550.0,1550.0,1550.0,1550.0,0.0,0.0
1565341139065290013,1550.0,1550.0,1550.0,1550.0,0.0,0.0
1565341139115158763,1550.0,1550.0,1550.0,1550.0,0.0,0.0
1565341139165160117,1550.0,1550.0,1550.0,1550.0,0.0,0.0
1565341139214869597,1550.0,1550.0,1550.0,1550.0,0.0,0.0
1565341139264874805,1550.0,1550.0,1550.0,1550.0,0.0,0.0
1565341139314848347,1550.0,1550.0,1550.0,1550.0,0.0,0.0
1565341139364902461,1550.0,1550.0,1550.0,1550.0,0.0,0.0
1565341139415367461,1550.0,1550.0,1550.0,1550.0,0.0,0.0
1565341139465321732,1550.0,1550.0,1550.0,1550.0,0.0,0.0
1565341139514792930,1550.0,1550.0,1550.0,1550.0,0.0,0.0
1565341139564881836,1550.0,1550.0,1550.0,1550.0,0.0,0.0
1565341139614851159,1550.0,1550.0,1550.0,1550.0,0.0,0.0
1565341139664903503,1550.0,1550.0,1550.0,1550.0,0.0,0.0
1565341139714885430,1550.0,1550.0,1550.0,1550.0,0.0,0.0
1565341139764832878,1550.0,1550.0,1550.0,1550.0,0.0,0.0
1565341139814837982,1550.0,1550.0,1550.0,1550.0,0.0,0.0
1565341139865248607,1550.0,1550.0,1550.0,1550.0,0.0,0.0
1565341139914850794,1550.0,1550.0,1550.0,1550.0,0.0,0.0
1565341139964846055,1550.0,1550.0,1550.0,1550.0,0.0,0.0
1565341140014843971,1550.0,1550.0,1550.0,1550.0,0.0,0.0
1565341140064815065,1550.0,1550.0,1550.0,1550.0,0.0,0.0
1565341140114885898,1550.0,1550.0,1550.0,1550.0,0.0,0.0
1565341140164843711,1550.0,1550.0,1550.0,1550.0,0.0,0.0
1565341140214834180,1550.0,1550.0,1550.0,1550.0,0.0,0.0
1565341140264845273,1550.0,1550.0,1550.0,1550.0,0.0,0.0
1565341140315413138,1550.0,1550.0,1550.0,1550.0,0.0,0.0
1565341140364757982,1604.42461967,1550.0,1604.42461967,1550.0,0.0,0.0
1565341140414863815,1604.42461967,1550.0,1604.42461967,1550.0,0.0,0.0
1565341140464802513,1604.42461967,1550.0,1604.42461967,1550.0,0.0,0.0
1565341140514867669,1614.19375539,1550.0,1614.19375539,1550.0,0.0,0.0
1565341140564824023,1614.19375539,1550.0,1614.19375539,1550.0,0.0,0.0
1565341140614852356,1614.19375539,1550.0,1614.19375539,1550.0,0.0,0.0
1565341140664829804,1614.19375539,1550.0,1614.19375539,1550.0,0.0,0.0
1565341140714973398,1615.27636051,1550.0,1615.27636051,1550.0,0.0,0.0
1565341140764830690,1615.27636051,1550.0,1615.27636051,1550.0,0.0,0.0
1565341140814828138,1615.27636051,1550.0,1615.27636051,1550.0,0.0,0.0
1565341140864776106,1615.27636051,1550.0,1615.27636051,1550.0,0.0,0.0
1565341140914846679,1615.27636051,1550.0,1615.27636051,1550.0,0.0,0.0
1565341140964813971,1615.27636051,1550.0,1615.27636051,1550.0,0.0,0.0
1565341141014829179,1614.19375539,1550.0,1614.19375539,1550.0,0.0,0.0
1565341141064834648,1614.19375539,1550.0,1614.19375539,1550.0,0.0,0.0
1565341141114860742,1614.19375539,1550.0,1614.19375539,1550.0,0.0,0.0
1565341141164793710,1614.19375539,1550.0,1614.19375539,1550.0,0.0,0.0
1565341141214834231,1615.27636051,1550.0,1615.27636051,1550.0,0.0,0.0
1565341141264778242,1615.27636051,1550.0,1615.27636051,1550.0,0.0,0.0
