%time,field.linear.x,field.linear.y,field.linear.z,field.angular.x,field.angular.y,field.angular.z
1565344458342160414,-0.0,-0.0,0.0,0.0,0.0,0.0
1565344458392040674,-0.0,-0.0,0.0,0.0,0.0,0.0
1565344458442218851,-0.0,-0.0,0.0,0.0,0.0,0.0
1565344458492725778,-0.0,-0.0,0.0,0.0,0.0,0.0
1565344458542626716,-0.0,-0.0,0.0,0.0,0.0,0.0
1565344458593884164,-0.0,-0.0,0.0,0.0,0.0,0.0
1565344458643070257,-0.0,-0.0,0.0,0.0,0.0,0.0
1565344458694108539,-0.0,-0.0,0.0,0.0,0.0,0.0
1565344458745295726,-0.0,-0.0,0.0,0.0,0.0,0.0
1565344458794046039,-0.0,-0.0,0.0,0.0,0.0,0.0
1565344458844526351,-0.0,-0.0,0.0,0.0,0.0,0.0
1565344458894218122,-0.0,-0.0,0.0,0.0,0.0,0.0
1565344458944555466,-0.0,-0.0,0.0,0.0,0.0,0.0
1565344458994574893,-0.0,-0.0,0.0,0.0,0.0,0.0
1565344459044685778,-0.0,-0.0,0.0,0.0,0.0,0.0
1565344459094765101,-0.0,-0.0,0.0,0.0,0.0,0.0
1565344459144830518,-0.0,-0.0,0.0,0.0,0.0,0.0
1565344459195234111,-0.0,-0.0,0.0,0.0,0.0,0.0
1565344459245170622,-0.0,-0.0,0.0,0.0,0.0,0.0
1565344459295382549,-0.0,-0.0,0.0,0.0,0.0,0.0
1565344459346247861,-0.0,-0.0,0.0,0.0,0.0,0.0
1565344459396266924,-0.0,-0.0,0.0,0.0,0.0,0.0
1565344459446214320,-0.0,-0.0,0.0,0.0,0.0,0.0
1565344459496177965,-0.0,-0.0,0.0,0.0,0.0,0.0
1565344459547229580,-0.0,-0.0,0.0,0.0,0.0,0.0
1565344459596829736,-0.0,-0.0,0.0,0.0,0.0,0.0
1565344459647721142,-0.0,-0.0,0.0,0.0,0.0,0.0
1565344459698310361,-0.0,-0.0,0.0,0.0,0.0,0.0
1565344459750739945,-0.0,-0.0,0.0,0.0,0.0,0.0
1565344459820262757,-0.0,-0.0,0.0,0.0,0.0,0.0
1565344459907977653,-0.0,-0.262062430382,0.0,0.0,0.0,0.0
1565344460032231038,-0.0,-0.316321134567,0.0,0.0,0.0,0.0
1565344460136503746,-0.0,-0.978315770626,0.0,0.0,0.0,0.0
1565344460239935830,0.0667439773679,-1.0,0.0,0.0,0.0,0.0
1565344460387837444,0.0667439773679,-1.0,0.0,0.0,0.0,0.0
1565344460437890257,0.0667439773679,-1.0,0.0,0.0,0.0,0.0
1565344460487791298,0.0667439773679,-1.0,0.0,0.0,0.0,0.0
1565344460538477288,0.0667439773679,-1.0,0.0,0.0,0.0,0.0
1565344460588248017,0.0667439773679,-1.0,0.0,0.0,0.0,0.0
1565344460638330882,0.0667439773679,-1.0,0.0,0.0,0.0,0.0
1565344460759466455,0.0667439773679,-1.0,0.0,0.0,0.0,0.0
1565344460863898382,0.0667439773679,-1.0,0.0,0.0,0.0,0.0
1565344460913514579,0.0667439773679,-1.0,0.0,0.0,0.0,0.0
1565344460963839632,0.0667439773679,-1.0,0.0,0.0,0.0,0.0
1565344461080869215,0.0667439773679,-1.0,0.0,0.0,0.0,0.0
1565344461125973121,0.0667439773679,-1.0,0.0,0.0,0.0,0.0
1565344461235731506,0.077602148056,-1.0,0.0,0.0,0.0,0.0
1565344461286713069,0.077602148056,-1.0,0.0,0.0,0.0,0.0
1565344461336302808,0.077602148056,-1.0,0.0,0.0,0.0,0.0
1565344461451491975,0.0667439773679,-1.0,0.0,0.0,0.0,0.0
1565344461501751611,0.0667439773679,-1.0,0.0,0.0,0.0,0.0
1565344461554661350,0.0667439773679,-1.0,0.0,0.0,0.0,0.0
1565344461602760621,0.0667439773679,-1.0,0.0,0.0,0.0,0.0
1565344461652631194,0.0667439773679,-1.0,0.0,0.0,0.0,0.0
1565344461768618954,0.077602148056,-1.0,0.0,0.0,0.0,0.0
1565344461883805048,0.077602148056,-1.0,0.0,0.0,0.0,0.0
1565344461988532548,0.0667439773679,-1.0,0.0,0.0,0.0,0.0
1565344462120738173,0.0667439773679,-1.0,0.0,0.0,0.0,0.0
1565344462224756037,0.0559179410338,-1.0,0.0,0.0,0.0,0.0
1565344462276211246,0.0559179410338,-1.0,0.0,0.0,0.0,0.0
1565344462324299527,0.0559179410338,-1.0,0.0,0.0,0.0,0.0
1565344462374286089,0.0559179410338,-1.0,0.0,0.0,0.0,0.0
1565344462424333850,0.0559179410338,-1.0,0.0,0.0,0.0,0.0
1565344462475320048,0.0559179410338,-1.0,0.0,0.0,0.0,0.0
1565344462525148121,0.0559179410338,-1.0,0.0,0.0,0.0,0.0
1565344462574729006,0.0559179410338,-1.0,0.0,0.0,0.0,0.0
1565344462624833798,0.0559179410338,-1.0,0.0,0.0,0.0,0.0
1565344462676212027,0.0559179410338,-1.0,0.0,0.0,0.0,0.0
1565344462725322183,0.0559179410338,-1.0,0.0,0.0,0.0,0.0
1565344462776645673,0.0559179410338,-1.0,0.0,0.0,0.0,0.0
1565344462826812391,0.0559179410338,-1.0,0.0,0.0,0.0,0.0
1565344462879014943,0.0559179410338,-1.0,0.0,0.0,0.0,0.0
1565344462926004891,0.0559179410338,-1.0,0.0,0.0,0.0,0.0
1565344462976326037,0.0559179410338,-1.0,0.0,0.0,0.0,0.0
1565344463103915881,0.0450597777963,-1.0,0.0,0.0,0.0,0.0
1565344463207900256,0.0342016108334,-1.0,0.0,0.0,0.0,0.0
1565344463257990464,0.0342016108334,-1.0,0.0,0.0,0.0,0.0
1565344463359844943,-0.0,-0.0,0.0,0.0,0.0,0.0
1565344463410854787,-0.0,-0.0,0.0,0.0,0.0,0.0
1565344463460721974,-0.0,-0.0,0.0,0.0,0.0,0.0
1565344463510745672,-0.0,-0.0,0.0,0.0,0.0,0.0
1565344463561662026,-0.0,-0.0,0.0,0.0,0.0,0.0
1565344463611337703,-0.0,-0.0,0.0,0.0,0.0,0.0
1565344463662292235,-0.0,-0.0,0.0,0.0,0.0,0.0
1565344463711524058,-0.0,-0.0,0.0,0.0,0.0,0.0
1565344463761968537,-0.0,-0.0,0.0,0.0,0.0,0.0
1565344463813152078,-0.0,-0.0,0.0,0.0,0.0,0.0
1565344463889064787,-0.0,-0.0,0.0,0.0,0.0,0.0
1565344463913059474,-0.0,-0.0,0.0,0.0,0.0,0.0
1565344463962618953,-0.0,-0.0,0.0,0.0,0.0,0.0
1565344464012068224,-0.0,-0.0,0.0,0.0,0.0,0.0
1565344464062612130,-0.0,-0.0,0.0,0.0,0.0,0.0
1565344464112830151,-0.0,-0.0,0.0,0.0,0.0,0.0
1565344464162975412,-0.0,-0.0,0.0,0.0,0.0,0.0
1565344464213330203,-0.0,-0.0,0.0,0.0,0.0,0.0
1565344464263251766,-0.0,-0.0,0.0,0.0,0.0,0.0
1565344464313078745,-0.0,-0.0,0.0,0.0,0.0,0.0
1565344464363334370,-0.0,-0.0,0.0,0.0,0.0,0.0
1565344464413204630,-0.0,-0.0,0.0,0.0,0.0,0.0
1565344464463995776,-0.0,-0.0,0.0,0.0,0.0,0.0
1565344464514583484,-0.0,-0.0,0.0,0.0,0.0,0.0
1565344464564357234,-0.0,-0.0,0.0,0.0,0.0,0.0
1565344464614621453,-0.0,-0.0,0.0,0.0,0.0,0.0
1565344464665231245,-0.0,-0.0,0.0,0.0,0.0,0.0
1565344464714563328,-0.0,-0.0,0.0,0.0,0.0,0.0
1565344464766358953,-0.0,-0.0,0.0,0.0,0.0,0.0
1565344464816794265,-0.0,-0.0,0.0,0.0,0.0,0.0
1565344464870451609,-0.0,-0.0,0.0,0.0,0.0,0.0
1565344464916877234,-0.0,-0.0,0.0,0.0,0.0,0.0
1565344464970881401,-0.0,-0.0,0.0,0.0,0.0,0.0
1565344465016084370,-0.0,-0.0,0.0,0.0,0.0,0.0
1565344465066743484,-0.0,-0.0,0.0,0.0,0.0,0.0
1565344465116564838,-0.0,-0.0,0.0,0.0,0.0,0.0
1565344465166878849,-0.0,-0.0,0.0,0.0,0.0,0.0
1565344465216795880,-0.0,-0.0,0.0,0.0,0.0,0.0
1565344465269711869,-0.0,-0.0,0.0,0.0,0.0,0.0
1565344465319090515,-0.0,-0.0,0.0,0.0,0.0,0.0
1565344465367408119,-0.0,-0.0,0.0,0.0,0.0,0.0
1565344465417689057,-0.0,-0.0,0.0,0.0,0.0,0.0
1565344465473439682,-0.0,-0.0,0.0,0.0,0.0,0.0
1565344465518049369,-0.0,-0.0,0.0,0.0,0.0,0.0
1565344465567916296,-0.0,-0.0,0.0,0.0,0.0,0.0
1565344465617897807,-0.0,-0.0,0.0,0.0,0.0,0.0
1565344465668348692,-0.0,-0.0,0.0,0.0,0.0,0.0
1565344465718534421,-0.0,-0.0,0.0,0.0,0.0,0.0
1565344465768862182,-0.0,-0.0,0.0,0.0,0.0,0.0
1565344465825498171,-0.0,-0.0,0.0,0.0,0.0,0.0
1565344465868906192,-0.0,-0.0,0.0,0.0,0.0,0.0
1565344465919481140,-0.0,-0.0,0.0,0.0,0.0,0.0
1565344465969944890,-0.0,-0.0,0.0,0.0,0.0,0.0
1565344466021287442,-0.0,-0.0,0.0,0.0,0.0,0.0
1565344466078424630,-0.0,-0.0,0.0,0.0,0.0,0.0
1565344466123773171,-0.0,-0.0,0.0,0.0,0.0,0.0
1565344466171372234,-0.0,-0.0,0.0,0.0,0.0,0.0
1565344466227403900,-0.0,-0.0,0.0,0.0,0.0,0.0
1565344466270418119,-0.0,-0.0,0.0,0.0,0.0,0.0
1565344466322511557,-0.0,-0.0,0.0,0.0,0.0,0.0
1565344466377514057,-0.0,-0.0,0.0,0.0,0.0,0.0
1565344466421331504,-0.0,-0.0,0.0,0.0,0.0,0.0
1565344466472030359,-0.0,-0.0,0.0,0.0,0.0,0.0
1565344466521529838,-0.0,-0.0,0.0,0.0,0.0,0.0
1565344466571682859,-0.0,-0.0,0.0,0.0,0.0,0.0
1565344466621927390,-0.0,-0.0,0.0,0.0,0.0,0.0
1565344466671934994,-0.0,-0.0,0.0,0.0,0.0,0.0
1565344466722711452,-0.0,-0.0,0.0,0.0,0.0,0.0
1565344466772377702,-0.0,-0.0,0.0,0.0,0.0,0.0
1565344466822862546,-0.0,-0.0,0.0,0.0,0.0,0.0
1565344466873821400,-0.0,-0.0,0.0,0.0,0.0,0.0
1565344466923230931,-0.0,-0.0,0.0,0.0,0.0,0.0
1565344466973396504,-0.0,-0.0,0.0,0.0,0.0,0.0
1565344467100584577,-0.164403215051,1.0,0.0,0.0,0.0,0.0
1565344467216899994,-0.207803741097,1.0,0.0,0.0,0.0,0.0
1565344467340454473,-0.207803741097,1.0,0.0,0.0,0.0,0.0
1565344467467743483,-0.207803741097,1.0,0.0,0.0,0.0,0.0
1565344467517845671,-0.207803741097,1.0,0.0,0.0,0.0,0.0
1565344467648290306,-0.186087414622,1.0,0.0,0.0,0.0,0.0
1565344467751775046,-0.186087414622,1.0,0.0,0.0,0.0,0.0
1565344467802252858,-0.186087414622,1.0,0.0,0.0,0.0,0.0
1565344467865457129,-0.186087414622,1.0,0.0,0.0,0.0,0.0
1565344467901896764,-0.186087414622,1.0,0.0,0.0,0.0,0.0
1565344468024508223,-0.0,-0.0,0.0,0.0,0.0,0.0
1565344468074147962,-0.0,-0.0,0.0,0.0,0.0,0.0
1565344468124718327,-0.0,-0.0,0.0,0.0,0.0,0.0
1565344468174607545,-0.0,-0.0,0.0,0.0,0.0,0.0
1565344468225044733,-0.0,-0.0,0.0,0.0,0.0,0.0
1565344468279231035,-0.0,-0.0,0.0,0.0,0.0,0.0
1565344468326459993,-0.0,-0.0,0.0,0.0,0.0,0.0
1565344468375097077,-0.0,-0.0,0.0,0.0,0.0,0.0
1565344468425415410,-0.0,-0.0,0.0,0.0,0.0,0.0
1565344468475897337,-0.0,-0.0,0.0,0.0,0.0,0.0
1565344468526307337,-0.0,-0.0,0.0,0.0,0.0,0.0
1565344468576085358,-0.0,-0.0,0.0,0.0,0.0,0.0
1565344468626492702,-0.0,-0.0,0.0,0.0,0.0,0.0
1565344468676779420,-0.0,-0.0,0.0,0.0,0.0,0.0
1565344468726886035,-0.0,-0.0,0.0,0.0,0.0,0.0
1565344468776830670,-0.0,-0.0,0.0,0.0,0.0,0.0
1565344468827383795,-0.0,-0.0,0.0,0.0,0.0,0.0
1565344468877962441,-0.0,-0.0,0.0,0.0,0.0,0.0
1565344468927659733,-0.0,-0.0,0.0,0.0,0.0,0.0
1565344468977446295,-0.0,-0.0,0.0,0.0,0.0,0.0
1565344469028123951,-0.0,-0.0,0.0,0.0,0.0,0.0
1565344469078193743,-0.0,-0.0,0.0,0.0,0.0,0.0
1565344469127613431,-0.0,-0.0,0.0,0.0,0.0,0.0
1565344469177672493,-0.0,-0.0,0.0,0.0,0.0,0.0
1565344469227637910,-0.0,-0.0,0.0,0.0,0.0,0.0
1565344469278181243,-0.0,-0.0,0.0,0.0,0.0,0.0
1565344469328654003,-0.0,-0.0,0.0,0.0,0.0,0.0
1565344469378670045,-0.0,-0.0,0.0,0.0,0.0,0.0
1565344469428825410,-0.0,-0.0,0.0,0.0,0.0,0.0
1565344469578482337,-0.0667118579149,0.446586996317,0.0,0.0,0.0,0.0
1565344469681505045,-0.19694557786,0.7938554883,0.0,0.0,0.0,0.0
1565344469784493274,-0.19694557786,0.815571844578,0.0,0.0,0.0,0.0
1565344469909444836,-0.207803741097,0.956631600857,0.0,0.0,0.0,0.0
1565344470004109732,-0.229520067573,1.0,0.0,0.0,0.0,0.0
1565344470108066451,-0.218661904335,1.0,0.0,0.0,0.0,0.0
1565344470158032493,-0.218661904335,1.0,0.0,0.0,0.0,0.0
1565344470209356555,-0.218661904335,1.0,0.0,0.0,0.0,0.0
1565344470258349732,-0.218661904335,1.0,0.0,0.0,0.0,0.0
1565344470308806451,-0.218661904335,1.0,0.0,0.0,0.0,0.0
1565344470358786763,-0.218661904335,1.0,0.0,0.0,0.0,0.0
1565344470410609576,-0.218661904335,1.0,0.0,0.0,0.0,0.0
1565344470553062545,-0.0,-0.0,0.0,0.0,0.0,0.0
1565344470656032597,-0.0,-0.0,0.0,0.0,0.0,0.0
1565344470705827597,-0.0,-0.0,0.0,0.0,0.0,0.0
1565344470756145774,-0.0,-0.0,0.0,0.0,0.0,0.0
1565344470807083013,-0.0,-0.0,0.0,0.0,0.0,0.0
1565344470856725357,-0.0,-0.0,0.0,0.0,0.0,0.0
1565344470913547701,-0.0,-0.0,0.0,0.0,0.0,0.0
1565344470956518794,-0.0,-0.0,0.0,0.0,0.0,0.0
1565344471007434732,-0.0,-0.0,0.0,0.0,0.0,0.0
1565344471057201294,-0.0,-0.0,0.0,0.0,0.0,0.0
1565344471108064888,-0.0,-0.0,0.0,0.0,0.0,0.0
1565344471159173378,-0.0,-0.0,0.0,0.0,0.0,0.0
1565344471209820357,-0.0,-0.0,0.0,0.0,0.0,0.0
1565344471258174836,-0.0,-0.0,0.0,0.0,0.0,0.0
1565344471308314419,-0.0,-0.0,0.0,0.0,0.0,0.0
1565344471358001346,-0.0,-0.0,0.0,0.0,0.0,0.0
1565344471410321086,-0.0,-0.0,0.0,0.0,0.0,0.0
1565344471458741294,-0.0,-0.0,0.0,0.0,0.0,0.0
1565344471569109732,-0.164403215051,1.0,0.0,0.0,0.0,0.0
1565344471671771815,-0.175261378288,1.0,0.0,0.0,0.0,0.0
1565344471840887857,-0.175261378288,1.0,0.0,0.0,0.0,0.0
1565344471881512804,-0.175261378288,1.0,0.0,0.0,0.0,0.0
1565344471920636138,-0.175261378288,1.0,0.0,0.0,0.0,0.0
1565344471970663742,-0.175261378288,1.0,0.0,0.0,0.0,0.0
1565344472080959419,-0.175261378288,1.0,0.0,0.0,0.0,0.0
1565344472184489679,-0.175261378288,1.0,0.0,0.0,0.0,0.0
1565344472237848221,-0.175261378288,1.0,0.0,0.0,0.0,0.0
1565344472285104575,-0.175261378288,1.0,0.0,0.0,0.0,0.0
1565344472336239471,-0.175261378288,1.0,0.0,0.0,0.0,0.0
1565344472395742075,-0.175261378288,1.0,0.0,0.0,0.0,0.0
1565344472435036190,-0.175261378288,1.0,0.0,0.0,0.0,0.0
1565344472568830929,-0.186087414622,1.0,0.0,0.0,0.0,0.0
1565344472672800460,-0.175261378288,1.0,0.0,0.0,0.0,0.0
1565344472784194783,-0.175261378288,1.0,0.0,0.0,0.0,0.0
1565344472924167596,-0.175261378288,1.0,0.0,0.0,0.0,0.0
1565344473052227648,-0.186087414622,1.0,0.0,0.0,0.0,0.0
1565344473162144262,-0.175261378288,1.0,0.0,0.0,0.0,0.0
1565344473210420356,-0.175261378288,1.0,0.0,0.0,0.0,0.0
1565344473260352908,-0.175261378288,1.0,0.0,0.0,0.0,0.0
1565344473310523794,-0.175261378288,1.0,0.0,0.0,0.0,0.0
1565344473439971293,-0.0,-0.0,0.0,0.0,0.0,0.0
1565344473490193168,-0.0,-0.0,0.0,0.0,0.0,0.0
1565344473540679002,-0.0,-0.0,0.0,0.0,0.0,0.0
1565344473590366137,-0.0,-0.0,0.0,0.0,0.0,0.0
1565344473640685512,-0.0,-0.0,0.0,0.0,0.0,0.0
1565344473691373429,-0.0,-0.0,0.0,0.0,0.0,0.0
1565344473741801345,-0.0,-0.0,0.0,0.0,0.0,0.0
1565344473791762647,-0.0,-0.0,0.0,0.0,0.0,0.0
1565344473861267752,-0.0,-0.0,0.0,0.0,0.0,0.0
1565344473893626606,-0.0,-0.0,0.0,0.0,0.0,0.0
1565344473944809991,-0.0,-0.0,0.0,0.0,0.0,0.0
1565344473992460147,-0.0,-0.0,0.0,0.0,0.0,0.0
1565344474071785252,-0.0,-0.0,0.0,0.0,0.0,0.0
1565344474113065929,-0.0,-0.0,0.0,0.0,0.0,0.0
1565344474235254939,-0.0,-0.0,0.0,0.0,0.0,0.5
1565344474336474522,-0.0,-0.0,0.0,0.0,0.0,0.5
1565344474386527960,-0.0,-0.0,0.0,0.0,0.0,0.5
1565344474437290303,-0.0,-0.0,0.0,0.0,0.0,0.5
1565344474486984678,-0.0,-0.0,0.0,0.0,0.0,0.5
1565344474628490772,-0.0,-0.0,0.0,0.0,0.0,0.5
1565344474732545512,-0.0,-0.0,0.0,0.0,0.0,0.5
1565344474836717126,-0.0,-0.0,0.0,0.0,0.0,0.5
1565344474960672126,-0.0,-0.0,0.0,0.0,0.0,0.5
1565344475010690772,-0.0,-0.0,0.0,0.0,0.0,0.5
1565344475061061918,-0.0,-0.0,0.0,0.0,0.0,0.5
1565344475110888845,-0.0,-0.0,0.0,0.0,0.0,0.5
1565344475240442959,-0.0,-0.0,0.0,0.0,0.0,0.5
1565344475344727855,-0.0,-0.0,0.0,0.0,0.0,0.5
1565344475448106397,-0.0,-0.0,0.0,0.0,0.0,0.5
1565344475525672699,-0.0,-0.0,0.0,0.0,0.0,0.5
1565344475548212126,-0.0,-0.0,0.0,0.0,0.0,0.5
1565344475598550563,-0.0,-0.0,0.0,0.0,0.0,0.5
1565344475648712751,-0.0,-0.0,0.0,0.0,0.0,0.5
1565344475698942022,-0.0,-0.0,0.0,0.0,0.0,0.5
1565344475800010147,-0.0,-0.0,0.0,0.0,0.0,0.5
1565344475912821188,-0.0,-0.0,0.0,0.0,0.0,0.5
1565344476015934522,-0.0,-0.0,0.0,0.0,0.0,0.5
1565344476058422282,-0.0,-0.0,0.0,0.0,0.0,0.5
1565344476208805667,-0.0,-0.0,0.0,0.0,0.0,0.5
1565344476312610667,-0.0,-0.0,0.0,0.0,0.0,0.5
1565344476362039782,-0.0,-0.0,0.0,0.0,0.0,0.5
1565344476472190980,-0.0,-0.0,0.0,0.0,0.0,0.5
1565344476521967907,-0.0,-0.0,0.0,0.0,0.0,0.5
1565344476628189626,-0.0,-0.0,0.0,0.0,0.0,0.5
1565344476736196032,-0.0,-0.0,0.0,0.0,0.0,0.5
1565344476844264417,-0.0,-0.0,0.0,0.0,0.0,0.5
1565344476984243584,-0.0,-0.0,0.0,0.0,0.0,0.5
1565344477096554782,-0.0,-0.0,0.0,0.0,0.0,0.5
1565344477214761448,-0.0,-0.0,0.0,0.0,0.0,0.0
1565344477254048271,-0.0,-0.0,0.0,0.0,0.0,0.0
1565344477304582334,-0.0,-0.0,0.0,0.0,0.0,0.0
1565344477354437229,-0.0,-0.0,0.0,0.0,0.0,0.0
1565344477405832125,-0.0,-0.0,0.0,0.0,0.0,0.0
1565344477470721344,-0.0,-0.0,0.0,0.0,0.0,0.0
1565344477504992906,-0.0,-0.0,0.0,0.0,0.0,0.0
1565344477555295094,-0.0,-0.0,0.0,0.0,0.0,0.0
1565344477606390719,-0.0,-0.0,0.0,0.0,0.0,0.0
1565344477657274313,-0.0,-0.0,0.0,0.0,0.0,0.0
1565344477705817698,-0.0,-0.0,0.0,0.0,0.0,0.0
1565344477755978219,-0.0,-0.0,0.0,0.0,0.0,0.0
1565344477813635198,-0.0,-0.0,0.0,0.0,0.0,0.0
1565344477877124990,-0.0,-0.0,0.0,0.0,0.0,0.0
1565344477906293479,-0.0,-0.0,0.0,0.0,0.0,0.0
1565344477956525198,-0.0,-0.0,0.0,0.0,0.0,0.0
1565344478007084417,-0.0,-0.0,0.0,0.0,0.0,0.0
1565344478271041187,-0.0,-0.0,0.0,0.0,0.0,0.0
1565344478271117333,-0.0,-0.0,0.0,0.0,0.0,0.0
1565344478271251240,-0.0,-0.0,0.0,0.0,0.0,0.0
1565344478271298948,-0.0,-0.0,0.0,0.0,0.0,0.0
1565344478271345667,-0.0,-0.0,0.0,0.0,0.0,0.0
1565344478308332229,-0.0,-0.0,0.0,0.0,0.0,0.0
1565344478358202542,-0.0,-0.0,0.0,0.0,0.0,0.0
1565344478408600146,-0.0,-0.0,0.0,0.0,0.0,0.0
1565344478458743479,-0.0,-0.0,0.0,0.0,0.0,0.0
1565344478508819677,-0.0,-0.0,0.0,0.0,0.0,0.0
1565344478558936448,-0.0,-0.0,0.0,0.0,0.0,0.0
1565344478609948791,-0.0,-0.0,0.0,0.0,0.0,0.0
1565344478659311187,-0.0,-0.0,0.0,0.0,0.0,0.0
1565344478709482854,-0.0,-0.0,0.0,0.0,0.0,0.0
1565344478760031969,-0.0,-0.0,0.0,0.0,0.0,0.0
1565344478810052333,-0.0,-0.0,0.0,0.0,0.0,0.0
1565344478859949156,-0.0,-0.0,0.0,0.0,0.0,0.0
1565344478910243166,-0.0,-0.0,0.0,0.0,0.0,0.0
1565344478960882593,-0.0,-0.0,0.0,0.0,0.0,0.0
1565344479010974573,-0.0,-0.0,0.0,0.0,0.0,0.0
1565344479061262593,-0.0,-0.0,0.0,0.0,0.0,0.0
1565344479111344156,-0.0,-0.0,0.0,0.0,0.0,0.0
1565344479161873948,-0.0,-0.0,0.0,0.0,0.0,0.0
1565344479211400302,-0.0,-0.0,0.0,0.0,0.0,0.0
1565344479261974625,-0.0,-0.0,0.0,0.0,0.0,0.0
1565344479311685354,-0.0,-0.0,0.0,0.0,0.0,0.0
1565344479362137281,-0.0,-0.0,0.0,0.0,0.0,0.0
1565344479412161968,-0.0,-0.0,0.0,0.0,0.0,0.0
1565344479462162697,-0.0,-0.0,0.0,0.0,0.0,0.0
1565344479512473166,-0.0,-0.0,0.0,0.0,0.0,0.0
1565344479562894833,-0.0,-0.0,0.0,0.0,0.0,0.0
1565344479614381604,-0.0,-0.0,0.0,0.0,0.0,0.0
1565344479664944208,-0.0,-0.0,0.0,0.0,0.0,0.0
1565344479716131656,-0.0,-0.0,0.0,0.0,0.0,0.0
1565344479763549781,-0.0,-0.0,0.0,0.0,0.0,0.0
1565344479824066291,-0.0,-0.0,0.0,0.0,0.0,0.0
1565344479892940041,-0.0,-0.0,0.0,0.0,0.0,0.0
1565344479913955041,-0.0,-0.0,0.0,0.0,0.0,0.0
1565344479964760926,-0.0,-0.0,0.0,0.0,0.0,0.0
1565344480014049937,-0.0,-0.0,0.0,0.0,0.0,0.0
1565344480064561031,-0.0,-0.0,0.0,0.0,0.0,0.0
1565344480114540718,-0.0,-0.0,0.0,0.0,0.0,0.0
1565344480165322489,-0.0,-0.0,0.0,0.0,0.0,0.0
1565344480216789676,-0.0,-0.0,0.0,0.0,0.0,0.0
1565344480267777228,-0.0,-0.0,0.0,0.0,0.0,0.0
1565344480317716760,-0.0,-0.0,0.0,0.0,0.0,0.0
1565344480365592332,-0.0,-0.0,0.0,0.0,0.0,0.0
1565344480507345666,-0.0,0.316353261471,0.0,0.0,0.0,0.0
1565344480610038530,-0.0,1.0,0.0,0.0,0.0,0.0
1565344480659137541,-0.0,1.0,0.0,0.0,0.0,0.0
1565344480796239520,-0.0,1.0,0.0,0.0,0.0,0.0
1565344480846423374,-0.0,1.0,0.0,0.0,0.0,0.0
1565344480896454832,-0.0,1.0,0.0,0.0,0.0,0.0
1565344480947218061,-0.0,1.0,0.0,0.0,0.0,0.0
1565344481064431863,0.0342016108334,1.0,0.0,0.0,0.0,0.0
1565344481180199884,0.0559179410338,1.0,0.0,0.0,0.0,0.0
1565344481229908530,0.0559179410338,1.0,0.0,0.0,0.0,0.0
1565344481280363738,0.0559179410338,1.0,0.0,0.0,0.0,0.0
1565344481330283270,0.0559179410338,1.0,0.0,0.0,0.0,0.0
1565344481382108478,0.0559179410338,1.0,0.0,0.0,0.0,0.0
1565344481431271551,0.0559179410338,1.0,0.0,0.0,0.0,0.0
1565344481481285665,0.0559179410338,1.0,0.0,0.0,0.0,0.0
1565344481531351030,0.0559179410338,1.0,0.0,0.0,0.0,0.0
1565344481581443999,0.0559179410338,1.0,0.0,0.0,0.0,0.0
1565344481631329676,0.0559179410338,1.0,0.0,0.0,0.0,0.0
1565344481681617644,0.0559179410338,1.0,0.0,0.0,0.0,0.0
1565344481732105405,0.0559179410338,1.0,0.0,0.0,0.0,0.0
1565344481782438947,0.0559179410338,1.0,0.0,0.0,0.0,0.0
1565344481916614624,0.0667439773679,1.0,0.0,0.0,0.0,0.0
1565344482048727488,0.077602148056,1.0,0.0,0.0,0.0,0.0
1565344482160815457,0.0667439773679,1.0,0.0,0.0,0.0,0.0
1565344482280549207,0.0667439773679,1.0,0.0,0.0,0.0,0.0
1565344482384472436,0.0667439773679,1.0,0.0,0.0,0.0,0.0
1565344482488559728,0.0667439773679,1.0,0.0,0.0,0.0,0.0
1565344482538899884,0.0667439773679,1.0,0.0,0.0,0.0,0.0
1565344482589637592,0.0667439773679,1.0,0.0,0.0,0.0,0.0
1565344482639132748,0.0667439773679,1.0,0.0,0.0,0.0,0.0
1565344482689317800,0.0667439773679,1.0,0.0,0.0,0.0,0.0
1565344482828043686,0.077602148056,1.0,0.0,0.0,0.0,0.0
1565344482956307956,0.0667439773679,1.0,0.0,0.0,0.0,0.0
1565344483006068425,0.0667439773679,1.0,0.0,0.0,0.0,0.0
1565344483056678946,0.0667439773679,1.0,0.0,0.0,0.0,0.0
1565344483106852956,0.0667439773679,1.0,0.0,0.0,0.0,0.0
1565344483240214415,0.0667439773679,1.0,0.0,0.0,0.0,0.0
1565344483343676081,0.077602148056,1.0,0.0,0.0,0.0,0.0
1565344483465167696,0.0667439773679,1.0,0.0,0.0,0.0,0.0
1565344483514652592,0.0667439773679,1.0,0.0,0.0,0.0,0.0
1565344483640687279,-0.0,-0.0,0.0,0.0,0.0,0.0
1565344483691442800,-0.0,-0.0,0.0,0.0,0.0,0.0
1565344483741824206,-0.0,-0.0,0.0,0.0,0.0,0.0
1565344483807387071,-0.0,-0.0,0.0,0.0,0.0,0.0
1565344483911349206,-0.0,-0.0,0.0,0.0,0.0,0.0
1565344483942432487,-0.0,-0.0,0.0,0.0,0.0,0.0
1565344483952780456,-0.0,-0.0,0.0,0.0,0.0,0.0
1565344483993605977,-0.0,-0.0,0.0,0.0,0.0,0.0
1565344484041804362,-0.0,-0.0,0.0,0.0,0.0,0.0
1565344484092665769,-0.0,-0.0,0.0,0.0,0.0,0.0
1565344484142929623,-0.0,-0.0,0.0,0.0,0.0,0.0
1565344484192266862,-0.0,-0.0,0.0,0.0,0.0,0.0
1565344484242256966,-0.0,-0.0,0.0,0.0,0.0,0.0
1565344484293411446,-0.0,-0.0,0.0,0.0,0.0,0.0
1565344484343169154,-0.0,-0.0,0.0,0.0,0.0,0.0
1565344484393124310,-0.0,-0.0,0.0,0.0,0.0,0.0
1565344484443266133,-0.0,-0.0,0.0,0.0,0.0,0.0
1565344484493440768,-0.0,-0.0,0.0,0.0,0.0,0.0
1565344484543985195,-0.0,-0.0,0.0,0.0,0.0,0.0
1565344484594025039,-0.0,-0.0,0.0,0.0,0.0,0.0
1565344484644568737,-0.0,-0.0,0.0,0.0,0.0,0.0
1565344484694386081,-0.0,-0.0,0.0,0.0,0.0,0.0
1565344484744699414,-0.0,-0.0,0.0,0.0,0.0,0.0
1565344484795178320,-0.0,-0.0,0.0,0.0,0.0,0.0
1565344484844965768,-0.0,-0.0,0.0,0.0,0.0,0.0
1565344484895464050,-0.0,-0.0,0.0,0.0,0.0,0.0
1565344484945458789,-0.0,-0.0,0.0,0.0,0.0,0.0
1565344484995793581,-0.0,-0.0,0.0,0.0,0.0,0.0
1565344485045821549,-0.0,-0.0,0.0,0.0,0.0,0.0
1565344485095748685,-0.0,-0.0,0.0,0.0,0.0,0.0
1565344485146026185,-0.0,-0.0,0.0,0.0,0.0,0.0
1565344485196470560,-0.0,-0.0,0.0,0.0,0.0,0.0
1565344485246399101,-0.0,-0.0,0.0,0.0,0.0,0.0
1565344485296858476,-0.0,-0.0,0.0,0.0,0.0,0.0
1565344485348448528,-0.0,-0.0,0.0,0.0,0.0,0.0
1565344485396926185,-0.0,-0.0,0.0,0.0,0.0,0.0
1565344485447161966,-0.0,-0.0,0.0,0.0,0.0,0.0
1565344485497286758,-0.0,-0.0,0.0,0.0,0.0,0.0
1565344485547311966,-0.0,-0.0,0.0,0.0,0.0,0.0
1565344485597763060,-0.0,-0.0,0.0,0.0,0.0,0.0
1565344485647381549,-0.0,-0.0,0.0,0.0,0.0,0.0
1565344485698240612,-0.0,-0.0,0.0,0.0,0.0,0.0
1565344485750242487,-0.0,-0.0,0.0,0.0,0.0,0.0
1565344485798474101,-0.0,-0.0,0.0,0.0,0.0,0.0
1565344485849542643,-0.0,-0.0,0.0,0.0,0.0,0.0
1565344485898191028,-0.0,-0.0,0.0,0.0,0.0,0.0
1565344485948642799,-0.0,-0.0,0.0,0.0,0.0,0.0
1565344485999202434,-0.0,-0.0,0.0,0.0,0.0,0.0
1565344486049193476,-0.0,-0.0,0.0,0.0,0.0,0.0
1565344486100918059,-0.0,-0.0,0.0,0.0,0.0,0.0
1565344486241510195,-0.0,1.0,0.0,0.0,0.0,0.0
1565344486286347591,-0.0,1.0,0.0,0.0,0.0,0.0
1565344486336791497,-0.0,1.0,0.0,0.0,0.0,0.0
1565344486386790299,-0.0,1.0,0.0,0.0,0.0,0.0
1565344486437203684,-0.0,1.0,0.0,0.0,0.0,0.0
1565344486487271445,-0.0,1.0,0.0,0.0,0.0,0.0
1565344486537256080,-0.0,1.0,0.0,0.0,0.0,0.0
1565344486587848684,-0.0,1.0,0.0,0.0,0.0,0.0
1565344486637480299,-0.0,1.0,0.0,0.0,0.0,0.0
1565344486687602434,-0.0,1.0,0.0,0.0,0.0,0.0
1565344486738694830,-0.0,1.0,0.0,0.0,0.0,0.0
1565344486789951028,-0.0,1.0,0.0,0.0,0.0,0.0
1565344486838652122,-0.0,1.0,0.0,0.0,0.0,0.0
1565344486889305247,-0.0,1.0,0.0,0.0,0.0,0.0
1565344486939336132,-0.0,1.0,0.0,0.0,0.0,0.0
1565344486989312538,-0.0,1.0,0.0,0.0,0.0,0.0
1565344487039207122,-0.0,1.0,0.0,0.0,0.0,0.0
1565344487105566549,-0.0,1.0,0.0,0.0,0.0,0.0
1565344487154526965,-0.0,1.0,0.0,0.0,0.0,0.0
1565344487191397694,-0.0,1.0,0.0,0.0,0.0,0.0
1565344487239941705,-0.0,1.0,0.0,0.0,0.0,0.0
1565344487290265611,-0.0,1.0,0.0,0.0,0.0,0.0
1565344487340308736,-0.0,1.0,0.0,0.0,0.0,0.0
1565344487390533580,-0.0,1.0,0.0,0.0,0.0,0.0
1565344487536288736,-0.0,-0.0,0.0,0.0,0.0,0.0
1565344487586668215,-0.0,-0.0,0.0,0.0,0.0,0.0
1565344487637355455,-0.0,-0.0,0.0,0.0,0.0,0.0
1565344487686960246,-0.0,-0.0,0.0,0.0,0.0,0.0
1565344487739893007,-0.0,-0.0,0.0,0.0,0.0,0.0
1565344487788450715,-0.0,-0.0,0.0,0.0,0.0,0.0
1565344487840952955,-0.0,-0.0,0.0,0.0,0.0,0.0
1565344487887159778,-0.0,-0.0,0.0,0.0,0.0,0.0
1565344487937702642,-0.0,-0.0,0.0,0.0,0.0,0.0
1565344487988173111,-0.0,-0.0,0.0,0.0,0.0,0.0
1565344488039499361,-0.0,-0.0,0.0,0.0,0.0,0.0
1565344488088083527,-0.0,-0.0,0.0,0.0,0.0,0.0
1565344488295369829,-0.0,-0.0,0.0,0.0,0.0,0.0
1565344488328469882,-0.0,-0.0,0.0,0.0,0.0,0.0
1565344488328560246,-0.0,-0.0,0.0,0.0,0.0,0.0
1565344488328602694,-0.0,-0.0,0.0,0.0,0.0,0.0
1565344488339249257,-0.0,-0.0,0.0,0.0,0.0,0.0
1565344488389567434,-0.0,-0.0,0.0,0.0,0.0,0.0
1565344488509025194,-0.0,-0.0,0.0,0.0,0.0,0.0
1565344488517677538,-0.0,-0.0,0.0,0.0,0.0,0.0
1565344488601415194,-0.0,0.815571844578,0.0,0.0,0.0,0.0
1565344488704488058,-0.0,1.0,0.0,0.0,0.0,0.0
1565344488836264517,-0.0,0.739596784115,0.0,0.0,0.0,0.0
1565344488928792954,-0.0,-0.0,0.0,0.0,0.0,0.0
1565344489134375246,-0.0,-0.0,0.0,0.0,0.0,0.0
1565344489142056600,-0.0,-0.0,0.0,0.0,0.0,0.0
1565344489142320037,-0.0,-0.0,0.0,0.0,0.0,0.0
1565344489144576340,-0.0,-0.0,0.0,0.0,0.0,0.0
1565344489179899465,-0.0,-0.0,0.0,0.0,0.0,0.0
1565344489229237173,-0.0,-0.0,0.0,0.0,0.0,0.0
1565344489279481392,-0.0,-0.0,0.0,0.0,0.0,0.0
1565344489330301808,-0.0,-0.0,0.0,0.0,0.0,0.0
1565344489519926079,-0.0,-0.0,0.0,0.0,0.0,0.0
1565344489532912589,-0.0,-0.0,0.0,0.0,0.0,0.0
1565344489532980714,-0.0,-0.0,0.0,0.0,0.0,0.0
1565344489535515089,-0.0,-0.0,0.0,0.0,0.0,0.0
1565344489593315871,-0.0,-0.0,0.0,0.0,0.0,0.0
1565344489714920714,-0.0,-0.0,0.0,0.0,0.0,0.0
1565344489718115766,-0.0,-0.0,0.0,0.0,0.0,0.0
1565344489734125506,-0.0,-0.0,0.0,0.0,0.0,0.0
1565344489781348579,-0.0,-0.0,0.0,0.0,0.0,0.0
1565344489913167277,-0.0,-0.0,0.0,0.0,0.0,0.0
1565344489932134985,-0.0,-0.0,0.0,0.0,0.0,0.0
1565344490105375714,-0.0,-0.0,0.0,0.0,0.0,-0.353527218103
1565344490128530766,-0.0,-0.0,0.0,0.0,0.0,0.0
1565344490178840714,-0.0,-0.0,0.0,0.0,0.0,0.0
1565344490300715610,-0.0,-0.0,0.0,0.0,0.0,0.0
1565344490306228839,-0.0,-0.0,0.0,0.0,0.0,0.0
1565344490329953370,-0.0,-0.0,0.0,0.0,0.0,0.0
1565344490495821131,-0.0,-0.0,0.0,0.0,0.0,-0.5
1565344490541658683,-0.0,-0.0,0.0,0.0,0.0,0.0
1565344490591359829,-0.0,-0.0,0.0,0.0,0.0,0.0
1565344490690707068,-0.0,-0.0,0.0,0.0,0.0,0.0
1565344490693907849,-0.0,-0.0,0.0,0.0,0.0,0.0
1565344490741412901,-0.0,-0.0,0.0,0.0,0.0,0.0
1565344490976731183,-0.0,-0.0,0.0,0.0,0.0,0.0
1565344490985372849,-0.0,-0.0,0.0,0.0,0.0,0.0
1565344490985550349,-0.0,-0.175261378288,0.0,0.0,0.0,0.0
1565344491073162953,-0.0,-0.240346118808,0.0,0.0,0.0,0.0
1565344491220543370,-0.0,-0.446554869413,0.0,0.0,0.0,0.0
1565344491366965818,-0.0,-0.598472774029,0.0,0.0,0.0,0.0
1565344491432645193,-0.0,-0.609330952168,0.0,0.0,0.0,0.0
1565344491580829412,-0.0,-0.598472774029,0.0,0.0,0.0,0.0
1565344491756623839,-0.0,-0.609330952168,0.0,0.0,0.0,0.0
1565344491798196755,-0.0,-0.761281013489,0.0,0.0,0.0,0.0
1565344491952731338,-0.0,-0.815539717674,0.0,0.0,0.0,0.0
1565344491971064151,-0.0,-0.815539717674,0.0,0.0,0.0,0.0
1565344491996707953,-0.0,-0.815539717674,0.0,0.0,0.0,0.0
1565344492047348526,-0.0,-0.815539717674,0.0,0.0,0.0,0.0
1565344492147979568,-0.0,-0.815539717674,0.0,0.0,0.0,0.0
1565344492169409724,-0.0,-0.815539717674,0.0,0.0,0.0,0.0
1565344492306795870,-0.0,-0.956599473953,0.0,0.0,0.0,0.0
1565344492339279515,-0.0,-0.956599473953,0.0,0.0,0.0,0.0
1565344492602269463,-0.0,-0.967457652092,0.0,0.0,0.0,0.0
1565344492605579307,-0.0,-0.967457652092,0.0,0.0,0.0,0.0
1565344492605772588,-0.0,-0.967457652092,0.0,0.0,0.0,0.0
1565344492605860922,-0.0,-0.967457652092,0.0,0.0,0.0,0.0
1565344492641274047,-0.0,-0.967457652092,0.0,0.0,0.0,0.0
1565344492796738734,-0.0,-0.967457652092,0.0,0.0,0.0,0.0
1565344492818273005,-0.0,-0.967457652092,0.0,0.0,0.0,0.0
1565344492869398838,-0.0,-0.967457652092,0.0,0.0,0.0,0.0
1565344492991502328,-0.0,-0.967457652092,0.0,0.0,0.0,0.0
1565344493030205088,-0.0,-0.967457652092,0.0,0.0,0.0,0.0
1565344493080986651,-0.0,-0.967457652092,0.0,0.0,0.0,0.0
1565344493130731494,-0.0,-0.967457652092,0.0,0.0,0.0,0.0
1565344493181086598,-0.0,-0.967457652092,0.0,0.0,0.0,0.0
1565344493234330973,-0.0,-0.967457652092,0.0,0.0,0.0,0.0
1565344493340438421,-0.0,-1.0,0.0,0.0,0.0,0.0
1565344493390679046,-0.0,-1.0,0.0,0.0,0.0,0.0
1565344493441046025,-0.0,-1.0,0.0,0.0,0.0,0.0
1565344493491136807,-0.0,-1.0,0.0,0.0,0.0,0.0
1565344493541538577,-0.0,-1.0,0.0,0.0,0.0,0.0
1565344493591199671,-0.0,-1.0,0.0,0.0,0.0,0.0
1565344493642585192,-0.0,-1.0,0.0,0.0,0.0,0.0
1565344493691483057,-0.0,-1.0,0.0,0.0,0.0,0.0
1565344493741723057,-0.0,-1.0,0.0,0.0,0.0,0.0
1565344493792487223,-0.0,-1.0,0.0,0.0,0.0,0.0
1565344493851549411,-0.0,-1.0,0.0,0.0,0.0,0.0
1565344493905029411,-0.0,-1.0,0.0,0.0,0.0,0.0
1565344493944712119,-0.0,-1.0,0.0,0.0,0.0,0.0
1565344493992544150,-0.0,-1.0,0.0,0.0,0.0,0.0
1565344494042354515,-0.0,-1.0,0.0,0.0,0.0,0.0
1565344494093282536,-0.0,-1.0,0.0,0.0,0.0,0.0
1565344494143409411,-0.0,-1.0,0.0,0.0,0.0,0.0
1565344494248403317,-0.0,-0.0,0.0,0.0,0.0,0.0
1565344494298909723,-0.0,-0.0,0.0,0.0,0.0,0.0
1565344494348693942,-0.0,-0.0,0.0,0.0,0.0,0.0
1565344494399050817,-0.0,-0.0,0.0,0.0,0.0,0.0
1565344494448897692,-0.0,-0.0,0.0,0.0,0.0,0.0
1565344494499514098,-0.0,-0.0,0.0,0.0,0.0,0.0
1565344494549364254,-0.0,-0.0,0.0,0.0,0.0,0.0
1565344494599652223,-0.0,-0.0,0.0,0.0,0.0,0.0
1565344494649740348,-0.0,-0.0,0.0,0.0,0.0,0.0
1565344494708576025,-0.0,-0.0,0.0,0.0,0.0,0.0
1565344494750965192,-0.0,-0.0,0.0,0.0,0.0,0.0
1565344494801294254,-0.0,-0.0,0.0,0.0,0.0,0.0
1565344494851513681,-0.0,-0.0,0.0,0.0,0.0,0.0
1565344494901412848,-0.0,-0.0,0.0,0.0,0.0,0.0
1565344494951816702,-0.0,-0.0,0.0,0.0,0.0,0.0
1565344495003387744,-0.0,-0.0,0.0,0.0,0.0,0.0
1565344495051155452,-0.0,-0.0,0.0,0.0,0.0,0.0
1565344495101282066,-0.0,-0.0,0.0,0.0,0.0,0.0
1565344495151765452,-0.0,-0.0,0.0,0.0,0.0,0.0
1565344495202206858,-0.0,-0.0,0.0,0.0,0.0,0.0
1565344495252201702,-0.0,-0.0,0.0,0.0,0.0,0.0
1565344495302419150,-0.0,-0.0,0.0,0.0,0.0,0.0
1565344495352351129,-0.0,-0.0,0.0,0.0,0.0,0.0
1565344495402615660,-0.0,-0.0,0.0,0.0,0.0,0.0
1565344495452089098,-0.0,-0.0,0.0,0.0,0.0,0.0
1565344495502163160,-0.0,-0.0,0.0,0.0,0.0,0.0
1565344495552407952,-0.0,-0.0,0.0,0.0,0.0,0.0
1565344495603041441,-0.0,-0.0,0.0,0.0,0.0,0.0
1565344495652949879,-0.0,-0.0,0.0,0.0,0.0,0.0
1565344495702858889,-0.0,-0.0,0.0,0.0,0.0,0.0
1565344495753184306,-0.0,-0.0,0.0,0.0,0.0,0.0
1565344495901739618,-0.0,-0.283778756857,0.0,0.0,0.0,0.0
1565344496011991806,-0.0,-0.435696691275,0.0,0.0,0.0,0.0
1565344496059365139,-0.0,-0.435696691275,0.0,0.0,0.0,0.0
1565344496219343785,-0.0,-0.446554869413,0.0,0.0,0.0,0.0
1565344496296681597,-0.0,-0.446554869413,0.0,0.0,0.0,0.0
1565344496358602431,-0.0,-0.587646722794,0.0,0.0,0.0,0.0
1565344496494231493,-0.0,-0.598472774029,0.0,0.0,0.0,0.0
1565344496558980608,-0.0,-0.598472774029,0.0,0.0,0.0,0.0
1565344496621774253,-0.0,-0.598472774029,0.0,0.0,0.0,0.0
1565344496713603837,-0.0,-0.696164131165,0.0,0.0,0.0,0.0
1565344496812211962,-0.0,-0.804681539536,0.0,0.0,0.0,0.0
1565344496920438993,-0.0,-0.978315770626,0.0,0.0,0.0,0.0
1565344497060073941,-0.0,-1.0,0.0,0.0,0.0,0.0
1565344497110177222,-0.0,-1.0,0.0,0.0,0.0,0.0
1565344497160825555,-0.0,-1.0,0.0,0.0,0.0,0.0
1565344497215548836,-0.0,-1.0,0.0,0.0,0.0,0.0
1565344497276572691,-0.0,-1.0,0.0,0.0,0.0,0.0
1565344497312554253,-0.0,-1.0,0.0,0.0,0.0,0.0
1565344497361465034,-0.0,-1.0,0.0,0.0,0.0,0.0
1565344497448019149,-0.0,-1.0,0.0,0.0,0.0,0.0
1565344497461809513,-0.0,-1.0,0.0,0.0,0.0,0.0
1565344497512223003,-0.0,-1.0,0.0,0.0,0.0,0.0
1565344497562030972,-0.0,-1.0,0.0,0.0,0.0,0.0
1565344497612596701,-0.0,-1.0,0.0,0.0,0.0,0.0
1565344497663907222,-0.0,-1.0,0.0,0.0,0.0,0.0
1565344497712059513,-0.0,-1.0,0.0,0.0,0.0,0.0
1565344497762444357,-0.0,-1.0,0.0,0.0,0.0,0.0
1565344497822625399,-0.0,-1.0,0.0,0.0,0.0,0.0
1565344497870885295,-0.0,-1.0,0.0,0.0,0.0,0.0
1565344497913290138,-0.0,-1.0,0.0,0.0,0.0,0.0
1565344497963247690,-0.0,-1.0,0.0,0.0,0.0,0.0
1565344498014023836,-0.0,-1.0,0.0,0.0,0.0,0.0
1565344498063813940,-0.0,-1.0,0.0,0.0,0.0,0.0
1565344498114029409,-0.0,-1.0,0.0,0.0,0.0,0.0
1565344498164439201,-0.0,-1.0,0.0,0.0,0.0,0.0
1565344498214164044,-0.0,-1.0,0.0,0.0,0.0,0.0
1565344498264523576,-0.0,-1.0,0.0,0.0,0.0,0.0
1565344498314276128,-0.0,-1.0,0.0,0.0,0.0,0.0
1565344498364451857,-0.0,-1.0,0.0,0.0,0.0,0.0
1565344498414720867,-0.0,-1.0,0.0,0.0,0.0,0.0
1565344498465743055,-0.0,-1.0,0.0,0.0,0.0,0.0
1565344498515060607,-0.0,-1.0,0.0,0.0,0.0,0.0
1565344498566549096,-0.0,-1.0,0.0,0.0,0.0,0.0
1565344498616364148,-0.0,-1.0,0.0,0.0,0.0,0.0
1565344498667490503,-0.0,-1.0,0.0,0.0,0.0,0.0
1565344498715989878,-0.0,-1.0,0.0,0.0,0.0,0.0
1565344498766266023,-0.0,-1.0,0.0,0.0,0.0,0.0
1565344498817803784,-0.0,-1.0,0.0,0.0,0.0,0.0
1565344498873643992,-0.0,-1.0,0.0,0.0,0.0,0.0
1565344498916942482,-0.0,-1.0,0.0,0.0,0.0,0.0
1565344499065473575,-0.0,-0.0,0.0,0.0,0.0,0.0
1565344499115225294,-0.0,-0.0,0.0,0.0,0.0,0.0
1565344499165292794,-0.0,-0.0,0.0,0.0,0.0,0.0
1565344499215462221,-0.0,-0.0,0.0,0.0,0.0,0.0
1565344499266832429,-0.0,-0.0,0.0,0.0,0.0,0.0
1565344499315504304,-0.0,-0.0,0.0,0.0,0.0,0.0
1565344499365865554,-0.0,-0.0,0.0,0.0,0.0,0.0
1565344499415856648,-0.0,-0.0,0.0,0.0,0.0,0.0
1565344499467083419,-0.0,-0.0,0.0,0.0,0.0,0.0
1565344499516283731,-0.0,-0.0,0.0,0.0,0.0,0.0
1565344499566243523,-0.0,-0.0,0.0,0.0,0.0,0.0
1565344499616241440,-0.0,-0.0,0.0,0.0,0.0,0.0
1565344499667432742,-0.0,-0.0,0.0,0.0,0.0,0.0
1565344499717448731,-0.0,-0.0,0.0,0.0,0.0,0.0
1565344499767579096,-0.0,-0.0,0.0,0.0,0.0,0.0
1565344499836654304,-0.0,-0.0,0.0,0.0,0.0,0.0
1565344499869674200,-0.0,-0.0,0.0,0.0,0.0,0.0
1565344499917207533,-0.0,-0.0,0.0,0.0,0.0,0.0
1565344499967407585,-0.0,-0.0,0.0,0.0,0.0,0.0
1565344500017703940,-0.0,-0.0,0.0,0.0,0.0,0.0
1565344500073589773,-0.0,-0.0,0.0,0.0,0.0,0.0
1565344500120184981,-0.0,-0.0,0.0,0.0,0.0,0.0
1565344500167945815,-0.0,-0.0,0.0,0.0,0.0,0.0
1565344500218278210,-0.0,-0.0,0.0,0.0,0.0,0.0
1565344500268675398,-0.0,-0.0,0.0,0.0,0.0,0.0
1565344500318501075,-0.0,-0.0,0.0,0.0,0.0,0.0
1565344500445061335,-0.0,-0.316321134567,0.0,0.0,0.0,0.0
1565344500548773627,-0.0,-0.631047308445,0.0,0.0,0.0,0.0
1565344500652693418,-0.0,-0.652731478214,0.0,0.0,0.0,0.0
1565344500764672533,-0.0,-0.641905426979,0.0,0.0,0.0,0.0
1565344500869095450,-0.0,-0.652731478214,0.0,0.0,0.0,0.0
1565344500919165710,-0.0,-0.652731478214,0.0,0.0,0.0,0.0
1565344500969374304,-0.0,-0.652731478214,0.0,0.0,0.0,0.0
1565344501019574252,-0.0,-0.652731478214,0.0,0.0,0.0,0.0
1565344501070037950,-0.0,-0.652731478214,0.0,0.0,0.0,0.0
1565344501190028262,-0.0,-0.652731478214,0.0,0.0,0.0,0.0
1565344501301387585,-0.0,-0.652731478214,0.0,0.0,0.0,0.0
1565344501405156074,-0.0,-0.652731478214,0.0,0.0,0.0,0.0
1565344501525246439,-0.0,-0.674447834492,0.0,0.0,0.0,0.0
1565344501644686647,-0.0,-0.685305953026,0.0,0.0,0.0,0.0
1565344501772545866,-0.0,-0.652731478214,0.0,0.0,0.0,0.0
1565344501883625033,-0.0,-0.0,0.0,0.0,0.0,0.0
1565344501927113991,-0.0,-0.0,0.0,0.0,0.0,0.0
1565344501977159408,-0.0,-0.0,0.0,0.0,0.0,0.0
1565344502028977793,-0.0,-0.0,0.0,0.0,0.0,0.0
1565344502078913991,-0.0,-0.0,0.0,0.0,0.0,0.0
1565344502127990501,-0.0,-0.0,0.0,0.0,0.0,0.0
1565344502178573626,-0.0,-0.0,0.0,0.0,0.0,0.0
1565344502240394147,-0.0,-0.0,0.0,0.0,0.0,0.0
1565344502279063157,-0.0,-0.0,0.0,0.0,0.0,0.0
1565344502328725970,-0.0,-0.0,0.0,0.0,0.0,0.0
1565344502390592220,-0.0,-0.0,0.0,0.0,0.0,0.0
1565344502429052845,-0.0,-0.0,0.0,0.0,0.0,0.0
1565344502479516647,-0.0,-0.0,0.0,0.0,0.0,0.0
1565344502530211074,-0.0,-0.0,0.0,0.0,0.0,0.0
1565344502579574407,-0.0,-0.0,0.0,0.0,0.0,0.0
1565344502630085241,-0.0,-0.0,0.0,0.0,0.0,0.0
1565344502680838001,-0.0,-0.0,0.0,0.0,0.0,0.0
1565344502730567376,-0.0,-0.0,0.0,0.0,0.0,0.0
1565344502781362428,-0.0,-0.0,0.0,0.0,0.0,0.0
1565344502831792220,-0.0,-0.0,0.0,0.0,0.0,0.0
1565344502884032636,-0.0,-0.0,0.0,0.0,0.0,0.0
1565344502931202636,-0.0,-0.0,0.0,0.0,0.0,0.0
1565344502981614199,-0.0,-0.0,0.0,0.0,0.0,0.0
1565344503031750032,-0.0,-0.0,0.0,0.0,0.0,0.0
1565344503081690501,-0.0,-0.0,0.0,0.0,0.0,0.0
1565344503132027376,-0.0,-0.0,0.0,0.0,0.0,0.0
1565344503181594980,-0.0,-0.0,0.0,0.0,0.0,0.0
1565344503232397428,-0.0,-0.0,0.0,0.0,0.0,0.0
1565344503282336959,-0.0,-0.0,0.0,0.0,0.0,0.0
1565344503333198990,-0.0,-0.0,0.0,0.0,0.0,0.0
1565344503382511542,-0.0,-0.0,0.0,0.0,0.0,0.0
1565344503493413574,-0.0124531583861,0.956631600857,0.0,0.0,0.0,0.0
1565344503599391178,-0.0341694876552,0.989206075668,0.0,0.0,0.0,0.0
1565344503646507584,-0.0341694876552,0.989206075668,0.0,0.0,0.0,0.0
1565344503752253990,-0.0775700211525,1.0,0.0,0.0,0.0,0.0
1565344503811408886,-0.0775700211525,1.0,0.0,0.0,0.0,0.0
1565344503871720396,-0.0775700211525,1.0,0.0,0.0,0.0,0.0
1565344503924704719,-0.0775700211525,1.0,0.0,0.0,0.0,0.0
1565344503953088521,-0.0775700211525,1.0,0.0,0.0,0.0,0.0
1565344504004666646,-0.0775700211525,1.0,0.0,0.0,0.0,0.0
1565344504144202948,-0.0884281843901,1.0,0.0,0.0,0.0,0.0
1565344504191184459,-0.0884281843901,1.0,0.0,0.0,0.0,0.0
1565344504241382375,-0.0884281843901,1.0,0.0,0.0,0.0,0.0
1565344504292574823,-0.0884281843901,1.0,0.0,0.0,0.0,0.0
1565344504395160448,-0.0884281843901,1.0,0.0,0.0,0.0,0.0
1565344504443153573,-0.0884281843901,1.0,0.0,0.0,0.0,0.0
1565344504493366230,-0.0884281843901,1.0,0.0,0.0,0.0,0.0
1565344504543190605,-0.0884281843901,1.0,0.0,0.0,0.0,0.0
1565344504593457427,-0.0884281843901,1.0,0.0,0.0,0.0,0.0
1565344504644296229,-0.0884281843901,1.0,0.0,0.0,0.0,0.0
1565344504694474875,-0.0884281843901,1.0,0.0,0.0,0.0,0.0
1565344504745056386,-0.0884281843901,1.0,0.0,0.0,0.0,0.0
1565344504794642531,-0.0884281843901,1.0,0.0,0.0,0.0,0.0
1565344504844326750,-0.0884281843901,1.0,0.0,0.0,0.0,0.0
1565344504894432011,-0.0884281843901,1.0,0.0,0.0,0.0,0.0
1565344504953069979,-0.0884281843901,1.0,0.0,0.0,0.0,0.0
1565344504996379250,-0.0884281843901,1.0,0.0,0.0,0.0,0.0
1565344505045193677,-0.0884281843901,1.0,0.0,0.0,0.0,0.0
1565344505095624667,-0.0884281843901,1.0,0.0,0.0,0.0,0.0
1565344505201507844,-0.0884281843901,1.0,0.0,0.0,0.0,0.103901870549
1565344505309486177,-0.0884281843901,1.0,0.0,0.0,0.0,0.234135597944
1565344505415056438,-0.0884281843901,1.0,0.0,0.0,0.0,0.375211417675
1565344505463333990,-0.0884281843901,1.0,0.0,0.0,0.0,0.375211417675
1565344505569239615,-0.0884281843901,1.0,0.0,0.0,0.0,0.0
1565344505619087583,-0.0884281843901,1.0,0.0,0.0,0.0,0.0
1565344505733094719,-0.0884281843901,0.989206075668,0.0,0.0,0.0,0.0
1565344505782674094,-0.0884281843901,0.989206075668,0.0,0.0,0.0,0.0
1565344505839778781,-0.0884281843901,0.989206075668,0.0,0.0,0.0,0.0
1565344505883125916,-0.0884281843901,0.989206075668,0.0,0.0,0.0,0.0
1565344506013529771,-0.0884281843901,0.989206075668,0.0,0.0,0.0,0.0
1565344506124721906,-0.0992863476276,0.989206075668,0.0,0.0,0.0,0.0
1565344506246279927,-0.0884281843901,0.989206075668,0.0,0.0,0.0,0.0
1565344506282718000,-0.0884281843901,0.989206075668,0.0,0.0,0.0,0.0
1565344506333943677,-0.0884281843901,0.989206075668,0.0,0.0,0.0,0.0
1565344506383341593,-0.0884281843901,0.989206075668,0.0,0.0,0.0,0.0
1565344506433675760,-0.0884281843901,0.989206075668,0.0,0.0,0.0,0.0
1565344506483677948,-0.0884281843901,0.989206075668,0.0,0.0,0.0,0.0
1565344506629421020,-0.110144510865,0.989206075668,0.0,0.0,0.0,0.0
1565344506737367895,-0.121002674103,0.989206075668,0.0,0.0,0.0,0.0
1565344506840847583,-0.110144510865,0.989206075668,0.0,0.0,0.0,0.0
1565344506891275916,-0.110144510865,0.989206075668,0.0,0.0,0.0,0.0
1565344506942029145,-0.110144510865,0.989206075668,0.0,0.0,0.0,0.0
1565344507085586229,-0.121002674103,0.989206075668,0.0,0.0,0.0,0.0
1565344507195067270,-0.121002674103,0.989206075668,0.0,0.0,0.0,0.0
1565344507297265551,-0.110144510865,0.989206075668,0.0,0.0,0.0,0.0
1565344507346390499,-0.110144510865,0.989206075668,0.0,0.0,0.0,0.0
1565344507393393051,-0.110144510865,0.989206075668,0.0,0.0,0.0,0.0
1565344507521283833,-0.110144510865,1.0,0.0,0.0,0.0,0.0
1565344507624775812,-0.110144510865,1.0,0.0,0.0,0.0,0.0
1565344507752727322,-0.110144510865,1.0,0.0,0.0,0.0,0.0
1565344507803623832,-0.110144510865,1.0,0.0,0.0,0.0,0.0
1565344507855282999,-0.110144510865,1.0,0.0,0.0,0.0,0.0
1565344507903621332,-0.110144510865,1.0,0.0,0.0,0.0,0.0
1565344507953180030,-0.110144510865,1.0,0.0,0.0,0.0,0.0
1565344508074055291,-0.110144510865,1.0,0.0,0.0,0.0,0.0
1565344508232499041,-0.121002674103,1.0,0.0,0.0,0.0,0.0
1565344508337192843,-0.110144510865,1.0,0.0,0.0,0.0,0.0
1565344508388706749,-0.110144510865,1.0,0.0,0.0,0.0,0.0
1565344508437302374,-0.110144510865,1.0,0.0,0.0,0.0,0.0
1565344508557256853,-0.110144510865,1.0,0.0,0.0,0.0,0.0
1565344508680989249,-0.0,-0.0,0.0,0.0,0.0,0.0
1565344508731424249,-0.0,-0.0,0.0,0.0,0.0,0.0
1565344508808065030,-0.0,-0.0,0.0,0.0,0.0,0.0
1565344508844694509,-0.0,-0.0,0.0,0.0,0.0,0.0
1565344508881563624,-0.0,-0.0,0.0,0.0,0.0,0.0
1565344508931825915,-0.0,-0.0,0.0,0.0,0.0,0.0
1565344508981809769,-0.0,-0.0,0.0,0.0,0.0,0.0
1565344509035987947,-0.0,-0.0,0.0,0.0,0.0,0.0
1565344509081783051,-0.0,-0.0,0.0,0.0,0.0,0.0
1565344509132054665,-0.0,-0.0,0.0,0.0,0.0,0.0
1565344509181991071,-0.0,-0.0,0.0,0.0,0.0,0.0
1565344509232451332,-0.0,-0.0,0.0,0.0,0.0,0.0
1565344509282818207,-0.0,-0.0,0.0,0.0,0.0,0.0
1565344509334267790,-0.0,-0.0,0.0,0.0,0.0,0.0
1565344509382874821,-0.0,-0.0,0.0,0.0,0.0,0.0
1565344509433255446,-0.0,-0.0,0.0,0.0,0.0,0.0
1565344509483018519,-0.0,-0.0,0.0,0.0,0.0,0.0
1565344509552378780,-0.0,-0.0,0.0,0.0,0.0,0.0
1565344509585657686,-0.0,-0.0,0.0,0.0,0.0,0.0
1565344509636670342,-0.0,-0.0,0.0,0.0,0.0,0.0
1565344509683704561,-0.0,-0.0,0.0,0.0,0.0,0.0
1565344509734260082,-0.0,-0.0,0.0,0.0,0.0,0.0
1565344509784998415,-0.0,-0.0,0.0,0.0,0.0,0.0
1565344509842517634,-0.0,-0.0,0.0,0.0,0.0,0.0
1565344509884507113,-0.0,-0.0,0.0,0.0,0.0,0.0
1565344509935000394,-0.0,-0.0,0.0,0.0,0.0,0.0
1565344509984772113,-0.0,-0.0,0.0,0.0,0.0,0.0
1565344510035061748,-0.0,-0.0,0.0,0.0,0.0,0.0
1565344510085311071,-0.0,-0.0,0.0,0.0,0.0,0.0
1565344510135678207,-0.0,-0.0,0.0,0.0,0.0,0.0
1565344510186032998,-0.0,-0.0,0.0,0.0,0.0,0.0
1565344510236514040,-0.0,-0.0,0.0,0.0,0.0,0.0
1565344510286602946,-0.0,-0.0,0.0,0.0,0.0,0.0
1565344510336800498,-0.0,-0.0,0.0,0.0,0.0,0.0
1565344510457911592,-0.164403215051,1.0,0.0,0.0,0.0,0.0
1565344510569129300,-0.0,-0.0,0.0,0.0,0.0,0.0
1565344510619438727,-0.0,-0.0,0.0,0.0,0.0,0.0
1565344510669853519,-0.0,-0.0,0.0,0.0,0.0,0.0
1565344510719533206,-0.0,-0.0,0.0,0.0,0.0,0.0
1565344510770154092,-0.0,-0.0,0.0,0.0,0.0,0.0
1565344510819757113,-0.0,-0.0,0.0,0.0,0.0,0.0
1565344510870014925,-0.0,-0.0,0.0,0.0,0.0,0.0
1565344510920362894,-0.0,-0.0,0.0,0.0,0.0,0.0
1565344510971249040,-0.0,-0.0,0.0,0.0,0.0,0.0
1565344511021257842,-0.0,-0.0,0.0,0.0,0.0,0.0
1565344511071160654,-0.0,-0.0,0.0,0.0,0.0,0.0
1565344511121045498,-0.0,-0.0,0.0,0.0,0.0,0.0
1565344511172649144,-0.0,-0.0,0.0,0.0,0.0,0.0
1565344511223339508,-0.0,-0.0,0.0,0.0,0.0,0.0
1565344511271592581,-0.0,-0.0,0.0,0.0,0.0,0.0
1565344511321790394,-0.0,-0.0,0.0,0.0,0.0,0.0
1565344511371844456,-0.0,-0.0,0.0,0.0,0.0,0.0
1565344511421987269,-0.0,-0.0,0.0,0.0,0.0,0.0
1565344511472255758,-0.0,-0.0,0.0,0.0,0.0,0.0
1565344511522597269,-0.0,-0.0,0.0,0.0,0.0,0.0
1565344511633339821,-0.0,0.565962553024,0.0,0.0,0.0,0.0
1565344511736800966,-0.0450276508927,0.674479961395,0.0,0.0,0.0,0.0
1565344511848363466,-0.0667118579149,0.750454962254,0.0,0.0,0.0,0.0
1565344511945651800,-0.131828710437,1.0,0.0,0.0,0.0,0.0
1565344512049186435,-0.142686888576,1.0,0.0,0.0,0.0,0.0
1565344512162105706,-0.0,-0.0,0.0,0.0,0.0,0.0
1565344512211903987,-0.0,-0.0,0.0,0.0,0.0,0.0
1565344512262150445,-0.0,-0.0,0.0,0.0,0.0,0.0
1565344512312105341,-0.0,-0.0,0.0,0.0,0.0,0.0
1565344512362249508,-0.0,-0.0,0.0,0.0,0.0,0.0
1565344512412671956,-0.0,-0.0,0.0,0.0,0.0,0.0
1565344512462321904,-0.0,-0.0,0.0,0.0,0.0,0.0
1565344512512647008,-0.0,-0.0,0.0,0.0,0.0,0.0
1565344512562643310,-0.0,-0.0,0.0,0.0,0.0,0.0
1565344512612908101,-0.0,-0.0,0.0,0.0,0.0,0.0
1565344512662951070,-0.0,-0.0,0.0,0.0,0.0,0.0
1565344512713217060,-0.0,-0.0,0.0,0.0,0.0,0.0
1565344512763172945,-0.0,-0.0,0.0,0.0,0.0,0.0
1565344512813999403,-0.0,-0.0,0.0,0.0,0.0,0.0
1565344512863750914,-0.0,-0.0,0.0,0.0,0.0,0.0
1565344512913555445,-0.0,-0.0,0.0,0.0,0.0,0.0
1565344512964634403,-0.0,-0.0,0.0,0.0,0.0,0.0
1565344513015070497,-0.0,-0.0,0.0,0.0,0.0,0.0
1565344513161088257,-0.0,-0.479097217321,0.0,0.0,0.0,0.0
1565344513264994351,-0.0,-0.555072247982,0.0,0.0,0.0,0.0
1565344513315128518,-0.0,-0.555072247982,0.0,0.0,0.0,0.0
1565344513364830809,-0.0,-0.555072247982,0.0,0.0,0.0,0.0
1565344513469031018,-0.0,-0.782965183258,0.0,0.0,0.0,0.0
1565344513580804403,-0.0,-0.978315770626,0.0,0.0,0.0,0.0
1565344513688679403,-0.0,-1.0,0.0,0.0,0.0,0.0
1565344513738956486,-0.0,-1.0,0.0,0.0,0.0,0.0
1565344513874593309,-0.0,-0.978315770626,0.0,0.0,0.0,0.0
1565344513922917580,-0.0,-0.978315770626,0.0,0.0,0.0,0.0
1565344513972914351,-0.0,-0.978315770626,0.0,0.0,0.0,0.0
1565344514023373778,-0.0,-0.978315770626,0.0,0.0,0.0,0.0
1565344514073533622,-0.0,-0.978315770626,0.0,0.0,0.0,0.0
1565344514124176226,-0.0,-0.978315770626,0.0,0.0,0.0,0.0
1565344514174032684,-0.0,-0.978315770626,0.0,0.0,0.0,0.0
1565344514313023726,-0.0,-0.0,0.0,0.0,0.0,0.0
1565344514363264195,-0.0,-0.0,0.0,0.0,0.0,0.0
1565344514413360392,-0.0,-0.0,0.0,0.0,0.0,0.0
1565344514463446538,-0.0,-0.0,0.0,0.0,0.0,0.0
1565344514513597840,-0.0,-0.0,0.0,0.0,0.0,0.0
1565344514563946434,-0.0,-0.0,0.0,0.0,0.0,0.0
1565344514614237684,-0.0,-0.0,0.0,0.0,0.0,0.0
1565344514664285601,-0.0,-0.0,0.0,0.0,0.0,0.0
1565344514714168934,-0.0,-0.0,0.0,0.0,0.0,0.0
1565344514764405444,-0.0,-0.0,0.0,0.0,0.0,0.0
1565344514814493517,-0.0,-0.0,0.0,0.0,0.0,0.0
1565344514864331382,-0.0,-0.0,0.0,0.0,0.0,0.0
1565344514915082996,-0.0,-0.0,0.0,0.0,0.0,0.0
1565344514965069923,-0.0,-0.0,0.0,0.0,0.0,0.0
1565344515015795444,-0.0,-0.0,0.0,0.0,0.0,0.0
1565344515065272319,-0.0,-0.0,0.0,0.0,0.0,0.0
1565344515115433986,-0.0,-0.0,0.0,0.0,0.0,0.0
1565344515165812684,-0.0,-0.0,0.0,0.0,0.0,0.0
1565344515216305757,-0.0,-0.0,0.0,0.0,0.0,0.0
1565344515270661798,-0.0,-0.0,0.0,0.0,0.0,0.0
1565344515316574663,-0.0,-0.0,0.0,0.0,0.0,0.0
1565344515368270548,-0.0,-0.0,0.0,0.0,0.0,0.0
1565344515418887319,-0.0,-0.0,0.0,0.0,0.0,0.0
1565344515467553621,-0.0,-0.0,0.0,0.0,0.0,0.0
1565344515517435184,-0.0,-0.0,0.0,0.0,0.0,0.0
1565344515567550132,-0.0,-0.0,0.0,0.0,0.0,0.0
1565344515617757007,-0.0,-0.0,0.0,0.0,0.0,0.0
1565344515746388152,-0.0,-0.555072247982,0.0,0.0,0.0,0.0
1565344515868328829,-0.0,-0.826365768909,0.0,0.0,0.0,0.0
1565344515899849559,-0.0,-0.826365768909,0.0,0.0,0.0,0.0
1565344515949479819,-0.0,-0.826365768909,0.0,0.0,0.0,0.0
1565344516000257840,-0.0,-0.826365768909,0.0,0.0,0.0,0.0
1565344516135416121,-0.0,-0.826365768909,0.0,0.0,0.0,0.0
1565344516192398621,-0.0,-0.826365768909,0.0,0.0,0.0,0.0
1565344516260643621,-0.0,-0.826365768909,0.0,0.0,0.0,0.0
1565344516361016902,-0.0,-0.945741295815,0.0,0.0,0.0,0.0
1565344516481399142,-0.0,-0.956599473953,0.0,0.0,0.0,0.0
1565344516621262214,-0.0,-1.0,0.0,0.0,0.0,0.0
1565344516728939454,-0.0,-1.0,0.0,0.0,0.0,0.0
1565344516779180704,-0.0,-1.0,0.0,0.0,0.0,0.0
1565344516897031746,0.00165924313478,-1.0,0.0,0.0,0.0,0.0
1565344516946822423,0.00165924313478,-1.0,0.0,0.0,0.0,0.0
1565344516997418777,0.00165924313478,-1.0,0.0,0.0,0.0,0.0
1565344517048091121,0.00165924313478,-1.0,0.0,0.0,0.0,0.0
1565344517097847683,0.00165924313478,-1.0,0.0,0.0,0.0,0.0
1565344517224954350,0.0124852824956,-1.0,0.0,0.0,0.0,0.0
1565344517330035548,0.0124852824956,-1.0,0.0,0.0,0.0,0.0
1565344517379809818,0.0124852824956,-1.0,0.0,0.0,0.0,0.0
1565344517429268829,0.0124852824956,-1.0,0.0,0.0,0.0,0.0
1565344517480157787,0.0124852824956,-1.0,0.0,0.0,0.0,0.0
1565344517529707370,0.0124852824956,-1.0,0.0,0.0,0.0,0.0
1565344517637523204,-0.0,-0.0,0.0,0.0,0.0,0.0
1565344517687434714,-0.0,-0.0,0.0,0.0,0.0,0.0
1565344517737793620,-0.0,-0.0,0.0,0.0,0.0,0.0
1565344517787763829,-0.0,-0.0,0.0,0.0,0.0,0.0
1565344517854020235,-0.0,-0.0,0.0,0.0,0.0,0.0
1565344517890177683,-0.0,-0.0,0.0,0.0,0.0,0.0
1565344517938078151,-0.0,-0.0,0.0,0.0,0.0,0.0
1565344517989215547,-0.0,-0.0,0.0,0.0,0.0,0.0
1565344518038775599,-0.0,-0.0,0.0,0.0,0.0,0.0
1565344518088248672,-0.0,-0.0,0.0,0.0,0.0,0.0
1565344518154684714,-0.0,-0.0,0.0,0.0,0.0,0.0
1565344518195678568,-0.0,-0.0,0.0,0.0,0.0,0.0
1565344518238696849,-0.0,-0.0,0.0,0.0,0.0,0.0
1565344518311627578,-0.0,-0.0,0.0,0.0,0.0,0.0
1565344518339005703,-0.0,-0.0,0.0,0.0,0.0,0.0
1565344518389292943,-0.0,-0.0,0.0,0.0,0.0,0.0
1565344518439611641,-0.0,-0.0,0.0,0.0,0.0,0.0
1565344518489969297,-0.0,-0.0,0.0,0.0,0.0,0.0
1565344518543035860,-0.0,-0.0,0.0,0.0,0.0,0.0
1565344518595623464,-0.0,-0.0,0.0,0.0,0.0,0.0
1565344518642303828,-0.0,-0.0,0.0,0.0,0.0,0.0
1565344518690456432,-0.0,-0.0,0.0,0.0,0.0,0.0
1565344518741082474,-0.0,-0.0,0.0,0.0,0.0,0.0
1565344518790951120,-0.0,-0.0,0.0,0.0,0.0,0.0
1565344518840991849,-0.0,-0.0,0.0,0.0,0.0,0.0
1565344518891297839,-0.0,-0.0,0.0,0.0,0.0,0.0
1565344518941720287,-0.0,-0.0,0.0,0.0,0.0,0.0
1565344518991610443,-0.0,-0.0,0.0,0.0,0.0,0.0
1565344519041599609,-0.0,-0.0,0.0,0.0,0.0,0.0
1565344519092059401,-0.0,-0.0,0.0,0.0,0.0,0.0
1565344519142361641,-0.0,-0.0,0.0,0.0,0.0,0.0
1565344519192569870,-0.0,-0.0,0.0,0.0,0.0,0.0
1565344519242937109,-0.0,-0.0,0.0,0.0,0.0,0.0
1565344519296256849,-0.0,-0.0,0.0,0.0,0.0,0.0
1565344519442094557,-0.0,-0.316321134567,0.0,0.0,0.0,0.0
1565344519551118463,-0.0,-0.685305953026,0.0,0.0,0.0,0.0
1565344519666112682,-0.0,-0.772107064724,0.0,0.0,0.0,0.0
1565344519785232422,-0.0,-0.804681539536,0.0,0.0,0.0,0.0
1565344519929184088,-0.0,-0.815539717674,0.0,0.0,0.0,0.0
1565344519978702890,-0.0,-0.815539717674,0.0,0.0,0.0,0.0
1565344520089498619,-0.0,-0.848082065582,0.0,0.0,0.0,0.0
1565344520197816796,0.00165924313478,-1.0,0.0,0.0,0.0,0.0
1565344520308564088,0.0124852824956,-1.0,0.0,0.0,0.0,0.0
1565344520355789036,0.0124852824956,-1.0,0.0,0.0,0.0,0.0
1565344520473207942,0.0342016108334,-1.0,0.0,0.0,0.0,0.0
1565344520577332109,0.0342016108334,-1.0,0.0,0.0,0.0,0.0
1565344520681568046,0.0342016108334,-1.0,0.0,0.0,0.0,0.0
1565344520797508567,0.0233434475958,-1.0,0.0,0.0,0.0,0.0
1565344520901418255,0.0233434475958,-1.0,0.0,0.0,0.0,0.0
1565344521005282213,0.0342016108334,-1.0,0.0,0.0,0.0,0.0
1565344521109351119,-0.0,-0.0,0.0,0.0,0.0,0.0
1565344521159229817,-0.0,-0.0,0.0,0.0,0.0,0.0
1565344521210081692,-0.0,-0.0,0.0,0.0,0.0,0.0
1565344521259564765,-0.0,-0.0,0.0,0.0,0.0,0.0
1565344521310889765,-0.0,-0.0,0.0,0.0,0.0,0.0
1565344521360346484,-0.0,-0.0,0.0,0.0,0.0,0.0
1565344521410595025,-0.0,-0.0,0.0,0.0,0.0,0.0
1565344521460653619,-0.0,-0.0,0.0,0.0,0.0,0.0
1565344521511548983,-0.0,-0.0,0.0,0.0,0.0,0.0
1565344521560962577,-0.0,-0.0,0.0,0.0,0.0,0.0
1565344521612335129,-0.0,-0.0,0.0,0.0,0.0,0.0
1565344521661501171,-0.0,-0.0,0.0,0.0,0.0,0.0
1565344521712360129,-0.0,-0.0,0.0,0.0,0.0,0.0
1565344521763407733,-0.0,-0.0,0.0,0.0,0.0,0.0
1565344521823715233,-0.0,-0.0,0.0,0.0,0.0,0.0
1565344521870082265,-0.0,-0.0,0.0,0.0,0.0,0.0
1565344521913138827,-0.0,-0.0,0.0,0.0,0.0,0.0
1565344521962228046,-0.0,-0.0,0.0,0.0,0.0,0.0
1565344522014174452,-0.0,-0.0,0.0,0.0,0.0,0.0
1565344522062873931,-0.0,-0.0,0.0,0.0,0.0,0.0
1565344522112955129,-0.0,-0.0,0.0,0.0,0.0,0.0
1565344522163104921,-0.0,-0.0,0.0,0.0,0.0,0.0
1565344522213846431,-0.0,-0.0,0.0,0.0,0.0,0.0
1565344522268109504,-0.0,-0.0,0.0,0.0,0.0,0.0
1565344522315847264,-0.0,-0.0,0.0,0.0,0.0,0.0
1565344522364227733,-0.0,-0.0,0.0,0.0,0.0,0.0
1565344522414475962,-0.0,-0.0,0.0,0.0,0.0,0.0
1565344522464232004,-0.0,-0.0,0.0,0.0,0.0,0.0
1565344522514307264,-0.0,-0.0,0.0,0.0,0.0,0.0
1565344522564570806,-0.0,-0.0,0.0,0.0,0.0,0.0
1565344522614666223,-0.0,-0.0,0.0,0.0,0.0,0.0
1565344522664935181,-0.0,-0.0,0.0,0.0,0.0,0.0
1565344522714721639,-0.0,-0.0,0.0,0.0,0.0,0.0
1565344522765036848,-0.0,-0.0,0.0,0.0,0.0,0.0
1565344522815191118,-0.0,-0.0,0.0,0.0,0.0,0.0
1565344522868455962,-0.0,-0.0,0.0,0.0,0.0,0.0
1565344522916341014,-0.0,-0.0,0.0,0.0,0.0,0.0
1565344522966152160,-0.0,-0.0,0.0,0.0,0.0,0.0
1565344523016175858,-0.0,-0.0,0.0,0.0,0.0,0.0
1565344523066401952,-0.0,-0.0,0.0,0.0,0.0,0.0
1565344523116412160,-0.0,-0.0,0.0,0.0,0.0,0.0
1565344523166529399,-0.0,-0.0,0.0,0.0,0.0,0.0
1565344523216504399,-0.0,-0.0,0.0,0.0,0.0,0.0
1565344523267575285,-0.0,-0.0,0.0,0.0,0.0,0.0
1565344523316748462,-0.0,-0.0,0.0,0.0,0.0,0.0
1565344523367376483,-0.0,-0.0,0.0,0.0,0.0,0.0
1565344523417694347,-0.0,-0.0,0.0,0.0,0.0,0.0
1565344523468169399,-0.0,-0.0,0.0,0.0,0.0,0.0
1565344523517942108,-0.0,-0.0,0.0,0.0,0.0,0.0
1565344523568316379,-0.0,-0.0,0.0,0.0,0.0,0.0
1565344523618553462,-0.0,-0.0,0.0,0.0,0.0,0.0
1565344523668971118,-0.0,-0.0,0.0,0.0,0.0,0.0
1565344523718743045,-0.0,-0.0,0.0,0.0,0.0,0.0
1565344523768929660,-0.0,-0.0,0.0,0.0,0.0,0.0
1565344523827861483,-0.0,-0.0,0.0,0.0,0.0,0.0
1565344523875237055,-0.0,-0.0,0.0,0.0,0.0,0.0
1565344523919054347,-0.0,-0.0,0.0,0.0,0.0,0.0
1565344523969324503,-0.0,-0.0,0.0,0.0,0.0,0.0
1565344524019089139,-0.0,-0.0,0.0,0.0,0.0,0.0
1565344524069719347,-0.0,-0.0,0.0,0.0,0.0,0.0
1565344524119887472,-0.0,-0.0,0.0,0.0,0.0,0.0
1565344524169818774,-0.0,-0.0,0.0,0.0,0.0,0.0
1565344524282042993,-0.0,0.28381088376,0.0,0.0,0.0,0.0
1565344524386338982,-0.0,0.587678849697,0.0,0.0,0.0,0.0
1565344524501913253,-0.0,0.728738665581,0.0,0.0,0.0,0.0
1565344524610663878,-0.0,1.0,0.0,0.0,0.0,0.0
1565344524660844243,-0.0,1.0,0.0,0.0,0.0,0.0
1565344524711316222,-0.0,1.0,0.0,0.0,0.0,0.0
1565344524760931013,-0.0,1.0,0.0,0.0,0.0,0.0
1565344524811218513,-0.0,1.0,0.0,0.0,0.0,0.0
1565344524867142107,-0.0,1.0,0.0,0.0,0.0,0.0
1565344524910808930,-0.0,1.0,0.0,0.0,0.0,0.0
1565344524967491586,-0.0,1.0,0.0,0.0,0.0,0.0
1565344525011154763,-0.0,1.0,0.0,0.0,0.0,0.0
1565344525061748930,-0.0,1.0,0.0,0.0,0.0,0.0
1565344525111813930,-0.0,1.0,0.0,0.0,0.0,0.0
1565344525161442003,-0.0,1.0,0.0,0.0,0.0,0.0
1565344525212901795,-0.0,1.0,0.0,0.0,0.0,0.0
1565344525262144659,-0.0,1.0,0.0,0.0,0.0,0.0
1565344525312230649,-0.0,1.0,0.0,0.0,0.0,0.0
1565344525362688149,-0.0,1.0,0.0,0.0,0.0,0.0
1565344525414066482,-0.0,1.0,0.0,0.0,0.0,0.0
1565344525463388253,-0.0,1.0,0.0,0.0,0.0,0.0
1565344525513632888,-0.0,1.0,0.0,0.0,0.0,0.0
1565344525564180701,-0.0,1.0,0.0,0.0,0.0,0.0
1565344525614316274,-0.0,1.0,0.0,0.0,0.0,0.0
1565344525663957992,-0.0,1.0,0.0,0.0,0.0,0.0
1565344525714445388,-0.0,1.0,0.0,0.0,0.0,0.0
1565344525764361638,-0.0,1.0,0.0,0.0,0.0,0.0
1565344525825404763,-0.0,1.0,0.0,0.0,0.0,0.0
1565344525870168617,-0.0,1.0,0.0,0.0,0.0,0.0
1565344525914254763,-0.0,1.0,0.0,0.0,0.0,0.0
1565344525964906221,-0.0,1.0,0.0,0.0,0.0,0.0
1565344526015209659,-0.0,1.0,0.0,0.0,0.0,0.0
1565344526065336846,-0.0,1.0,0.0,0.0,0.0,0.0
1565344526115344815,-0.0,1.0,0.0,0.0,0.0,0.0
1565344526165691482,-0.0,1.0,0.0,0.0,0.0,0.0
1565344526223469711,-0.0,1.0,0.0,0.0,0.0,0.0
1565344526268665492,-0.0,1.0,0.0,0.0,0.0,0.0
1565344526317779711,-0.0,1.0,0.0,0.0,0.0,0.0
1565344526368383409,-0.0,1.0,0.0,0.0,0.0,0.0
1565344526416200909,-0.0,1.0,0.0,0.0,0.0,0.0
1565344526467954659,-0.0,1.0,0.0,0.0,0.0,0.0
1565344526516823513,-0.0,1.0,0.0,0.0,0.0,0.0
1565344526566989607,-0.0,1.0,0.0,0.0,0.0,0.0
1565344526617174294,-0.0,1.0,0.0,0.0,0.0,0.0
1565344526668223461,-0.0,1.0,0.0,0.0,0.0,0.0
1565344526721314919,-0.0,1.0,0.0,0.0,0.0,0.0
1565344526774352002,-0.0,1.0,0.0,0.0,0.0,0.0
1565344526821044763,-0.0,1.0,0.0,0.0,0.0,0.0
1565344526959509190,-0.0,-0.0,0.0,0.0,0.0,0.0
1565344527016729398,-0.0,-0.0,0.0,0.0,0.0,0.0
1565344527058461742,-0.0,-0.0,0.0,0.0,0.0,0.0
1565344527107937367,-0.0,-0.0,0.0,0.0,0.0,0.0
1565344527158889450,-0.0,-0.0,0.0,0.0,0.0,0.0
1565344527222038252,-0.0,-0.0,0.0,0.0,0.0,0.0
1565344527258383304,-0.0,-0.0,0.0,0.0,0.0,0.0
1565344527308366794,-0.0,-0.0,0.0,0.0,0.0,0.0
1565344527358588929,-0.0,-0.0,0.0,0.0,0.0,0.0
1565344527409346481,-0.0,-0.0,0.0,0.0,0.0,0.0
1565344527459625856,-0.0,-0.0,0.0,0.0,0.0,0.0
1565344527509456481,-0.0,-0.0,0.0,0.0,0.0,0.0
1565344527559413981,-0.0,-0.0,0.0,0.0,0.0,0.0
1565344527609804971,-0.0,-0.0,0.0,0.0,0.0,0.0
1565344527659962210,-0.0,-0.0,0.0,0.0,0.0,0.0
1565344527710266325,-0.0,-0.0,0.0,0.0,0.0,0.0
1565344527760318408,-0.0,-0.0,0.0,0.0,0.0,0.0
1565344527814743773,-0.0,-0.0,0.0,0.0,0.0,0.0
1565344527869381325,-0.0,-0.0,0.0,0.0,0.0,0.0
1565344527910847054,-0.0,-0.0,0.0,0.0,0.0,0.0
1565344527961303773,-0.0,-0.0,0.0,0.0,0.0,0.0
1565344528011013356,-0.0,-0.0,0.0,0.0,0.0,0.0
1565344528061880700,-0.0,-0.0,0.0,0.0,0.0,0.0
1565344528112183981,-0.0,-0.0,0.0,0.0,0.0,0.0
1565344528162526898,-0.0,-0.0,0.0,0.0,0.0,0.0
1565344528221250335,-0.0,-0.0,0.0,0.0,0.0,0.0
1565344528272674241,-0.0,-0.0,0.0,0.0,0.0,0.0
1565344528312945439,-0.0,-0.0,0.0,0.0,0.0,0.0
1565344528367195752,-0.0,-0.0,0.0,0.0,0.0,0.0
1565344528415285387,-0.0,-0.0,0.0,0.0,0.0,0.0
1565344528463467679,-0.0,-0.0,0.0,0.0,0.0,0.0
1565344528569996950,-0.0,0.435728818178,0.0,0.0,0.0,0.0
1565344528674529033,-0.0,0.468303322792,0.0,0.0,0.0,0.0
1565344528777487939,-0.0,0.555104374886,0.0,0.0,0.0,0.0
1565344528885185491,-0.0,0.544246196747,0.0,0.0,0.0,0.0
1565344528993580908,-0.0,0.544246196747,0.0,0.0,0.0,0.0
1565344529046379658,-0.0,0.544246196747,0.0,0.0,0.0,0.0
1565344529188084658,-0.0,-0.0,0.0,0.0,0.0,0.0
1565344529226665803,-0.0,-0.0,0.0,0.0,0.0,0.0
1565344529295742678,-0.0,-0.0,0.0,0.0,0.0,0.0
1565344529316295126,-0.0,-0.0,0.0,0.0,0.0,0.0
1565344529366077939,-0.0,-0.0,0.0,0.0,0.0,0.0
1565344529416075908,-0.0,-0.0,0.0,0.0,0.0,0.0
1565344529468816324,-0.0,-0.0,0.0,0.0,0.0,0.0
1565344529516484449,-0.0,-0.0,0.0,0.0,0.0,0.0
1565344529567201585,-0.0,-0.0,0.0,0.0,0.0,0.0
1565344529617090699,-0.0,-0.0,0.0,0.0,0.0,0.0
1565344529667816064,-0.0,-0.0,0.0,0.0,0.0,0.0
1565344529717158459,-0.0,-0.0,0.0,0.0,0.0,0.0
1565344529767493668,-0.0,-0.0,0.0,0.0,0.0,0.0
1565344529825065439,-0.0,-0.0,0.0,0.0,0.0,0.0
1565344529874586116,-0.0,-0.0,0.0,0.0,0.0,0.0
1565344529918065855,-0.0,-0.0,0.0,0.0,0.0,0.0
1565344529968209709,-0.0,-0.0,0.0,0.0,0.0,0.0
1565344530018699657,-0.0,-0.0,0.0,0.0,0.0,0.0
1565344530068403407,-0.0,-0.0,0.0,0.0,0.0,0.0
1565344530119334293,-0.0,-0.0,0.0,0.0,0.0,0.0
1565344530242076480,-0.0,0.381470113993,0.0,0.0,0.0,0.0
1565344530345299605,-0.0,0.468303322792,0.0,0.0,0.0,0.0
1565344530453163251,-0.0,0.468303322792,0.0,0.0,0.0,0.0
1565344530504463251,-0.0,0.468303322792,0.0,0.0,0.0,0.0
1565344530605862105,-0.0,0.544246196747,0.0,0.0,0.0,0.0
1565344530712427001,-0.0,0.24037823081,0.0,0.0,0.0,0.0
1565344530815662730,-0.0,-0.0,0.0,0.0,0.0,0.0
1565344530863849605,-0.0,-0.0,0.0,0.0,0.0,0.0
1565344530913824292,-0.0,-0.0,0.0,0.0,0.0,0.0
1565344530963867001,-0.0,-0.0,0.0,0.0,0.0,0.0
1565344531015212365,-0.0,-0.0,0.0,0.0,0.0,0.0
1565344531064275074,-0.0,-0.0,0.0,0.0,0.0,0.0
1565344531113987417,-0.0,-0.0,0.0,0.0,0.0,0.0
1565344531164810126,-0.0,-0.0,0.0,0.0,0.0,0.0
1565344531214184605,-0.0,-0.0,0.0,0.0,0.0,0.0
1565344531265289813,-0.0,-0.0,0.0,0.0,0.0,0.0
1565344531315612782,-0.0,-0.0,0.0,0.0,0.0,0.0
1565344531366797834,-0.0,-0.0,0.0,0.0,0.0,0.0
1565344531416237313,-0.0,-0.0,0.0,0.0,0.0,0.0
1565344531465662053,-0.0,-0.0,0.0,0.0,0.0,0.0
1565344531516068146,-0.0,-0.0,0.0,0.0,0.0,0.0
1565344531566717053,-0.0,-0.0,0.0,0.0,0.0,0.0
1565344531616882157,-0.0,-0.0,0.0,0.0,0.0,0.0
1565344531668179709,-0.0,-0.0,0.0,0.0,0.0,0.0
1565344531717956896,-0.0,-0.0,0.0,0.0,0.0,0.0
1565344531850786844,-0.0,-0.338037461042,0.0,0.0,0.0,0.0
1565344531946730802,-0.0,-0.435696691275,0.0,0.0,0.0,0.0
1565344532049461115,0.0233434475958,-0.934915244579,0.0,0.0,0.0,0.0
1565344532163480386,0.0342016108334,-0.86979842186,0.0,0.0,0.0,0.0
1565344532289538667,0.0342016108334,-0.837223887444,0.0,0.0,0.0,0.0
1565344532397760906,-0.0,-0.240346118808,0.0,0.0,0.0,0.0
1565344532501025438,-0.0,-0.0,0.0,0.0,0.0,0.0
1565344532551445385,-0.0,-0.0,0.0,0.0,0.0,0.0
1565344532602451896,-0.0,-0.0,0.0,0.0,0.0,0.0
1565344532652194604,-0.0,-0.0,0.0,0.0,0.0,0.0
1565344532702545802,-0.0,-0.0,0.0,0.0,0.0,0.0
1565344532752450542,-0.0,-0.0,0.0,0.0,0.0,0.0
1565344532802992417,-0.0,-0.0,0.0,0.0,0.0,0.0
1565344532852597885,-0.0,-0.0,0.0,0.0,0.0,0.0
1565344532902988615,-0.0,-0.0,0.0,0.0,0.0,0.0
1565344532953097781,-0.0,-0.0,0.0,0.0,0.0,0.0
1565344533003760177,-0.0,-0.0,0.0,0.0,0.0,0.0
1565344533053643042,-0.0,-0.0,0.0,0.0,0.0,0.0
1565344533115714969,-0.0,-0.0,0.0,0.0,0.0,0.0
1565344533153906948,-0.0,-0.0,0.0,0.0,0.0,0.0
1565344533278229916,-0.0,-0.565930426121,0.0,0.0,0.0,0.0
1565344533382323719,-0.0,-1.0,0.0,0.0,0.0,0.0
1565344533493612260,-0.0,-0.153545051813,0.0,0.0,0.0,0.0
1565344533597649500,-0.0,-0.0,0.0,0.0,0.0,0.0
1565344533647766843,-0.0,-0.0,0.0,0.0,0.0,0.0
1565344533697708875,-0.0,-0.0,0.0,0.0,0.0,0.0
1565344533747930385,-0.0,-0.0,0.0,0.0,0.0,0.0
1565344533808600073,-0.0,-0.0,0.0,0.0,0.0,0.0
1565344533851771947,-0.0,-0.0,0.0,0.0,0.0,0.0
1565344533898127625,-0.0,-0.0,0.0,0.0,0.0,0.0
1565344533948851010,-0.0,-0.0,0.0,0.0,0.0,0.0
1565344533999085750,-0.0,-0.0,0.0,0.0,0.0,0.0
1565344534049586062,-0.0,-0.0,0.0,0.0,0.0,0.0
1565344534098803197,-0.0,-0.0,0.0,0.0,0.0,0.0
1565344534149194447,-0.0,-0.0,0.0,0.0,0.0,0.0
1565344534199595333,-0.0,-0.0,0.0,0.0,0.0,0.0
1565344534249676635,-0.0,-0.0,0.0,0.0,0.0,0.0
1565344534300283041,-0.0,-0.0,0.0,0.0,0.0,0.0
