%time,field.header.seq,field.header.stamp,field.header.frame_id,field.pose.position.x,field.pose.position.y,field.pose.position.z,field.pose.orientation.x,field.pose.orientation.y,field.pose.orientation.z,field.pose.orientation.w
1565344458338690674,92676,1565344458283611967,map,1.0341091156,0.223663330078,0.0,0.0,0.0,0.625045990066,0.780587926055
1565344458405329320,92677,1565344458350263998,map,1.03063392639,0.22324180603,0.0,0.0,0.0,0.625180256775,0.780480394717
1565344458471772133,92678,1565344458416363009,map,1.02766132355,0.224767684937,0.0,0.0,0.0,0.624952699637,0.780662618047
1565344458538030049,92679,1565344458483017123,map,1.02495098114,0.224006652832,0.0,0.0,0.0,0.625515284555,0.780211912744
1565344458604832393,92680,1565344458549873842,map,1.02124786377,0.226470947266,0.0,0.0,0.0,0.625191142455,0.780471674948
1565344458671650570,92681,1565344458616362436,map,1.01830005646,0.226252555847,0.0,0.0,0.0,0.625463291411,0.780253594095
1565344458745401559,92682,1565344458684951811,map,1.01564979553,0.22804069519,0.0,0.0,0.0,0.625251616236,0.78042322902
1565344458811785414,92683,1565344458752035300,map,1.01295661926,0.228510856628,0.0,0.0,0.0,0.625267478352,0.780410520505
1565344458878439580,92684,1565344458818434154,map,1.00952339172,0.230352401733,0.0,0.0,0.0,0.6249397639,0.780672973463
1565344458945476611,92685,1565344458884867592,map,1.00612163544,0.230557441711,0.0,0.0,0.0,0.625025238952,0.780604541797
1565344459012225518,92686,1565344458951591029,map,1.00322246552,0.231369018555,0.0,0.0,0.0,0.625013979194,0.780613557282
1565344459078419580,92687,1565344459018245717,map,0.999647140503,0.231925964355,0.0,0.0,0.0,0.625061762478,0.780575296232
1565344459145636872,92688,1565344459085175352,map,0.996073722839,0.232526779175,0.0,0.0,0.0,0.625033753476,0.780597724194
1565344459211160257,92689,1565344459151605456,map,0.99311542511,0.232785224915,0.0,0.0,0.0,0.625048176816,0.780586175037
1565344459277764528,92690,1565344459218237488,map,0.990092277527,0.233581542969,0.0,0.0,0.0,0.625022447288,0.780606777056
1565344459345028851,92691,1565344459284850248,map,0.986671447754,0.233320236206,0.0,0.0,0.0,0.62517313915,0.780486096023
1565344459411098695,92692,1565344459351555040,map,0.983612060547,0.234303474426,0.0,0.0,0.0,0.625035707618,0.780596159485
1565344459477825361,92693,1565344459418333685,map,0.980938911438,0.236053466797,0.0,0.0,0.0,0.624784288982,0.780797407937
1565344459545640361,92694,1565344459484993946,map,0.977831840515,0.237281799316,0.0,0.0,0.0,0.6246167802,0.780931416895
1565344459611935361,92695,1565344459552372071,map,0.974080085754,0.237640380859,0.0,0.0,0.0,0.62499941576,0.780625217565
1565344459678419163,92696,1565344459618901862,map,0.971464157104,0.238484382629,0.0,0.0,0.0,0.624753339955,0.780822171954
1565344459744950361,92697,1565344459685522696,map,0.968104362488,0.238947868347,0.0,0.0,0.0,0.624863216192,0.78073424483
1565344459812157861,92698,1565344459752480560,map,0.966049194336,0.239247322083,0.0,0.0,0.0,0.624914031511,0.780693571909
1565344459878506403,92699,1565344459818481654,map,0.962213516235,0.240817070007,0.0,0.0,0.0,0.624553986089,0.780981637723
1565344459945013747,92700,1565344459884964310,map,0.958598136902,0.241183280945,0.0,0.0,0.0,0.624860563671,0.780736367776
1565344460013874840,92701,1565344459951781810,map,0.955258369446,0.242207527161,0.0,0.0,0.0,0.624762508416,0.780814835974
1565344460078532184,92702,1565344460018453008,map,0.952519416809,0.242268562317,0.0,0.0,0.0,0.624801042933,0.780784001341
1565344460144790205,92703,1565344460085053373,map,0.950096130371,0.243601799011,0.0,0.0,0.0,0.62475371228,0.780821874048
1565344460211561038,92704,1565344460151855977,map,0.946764945984,0.245053291321,0.0,0.0,0.0,0.624623250231,0.780926241889
1565344460277731871,92705,1565344460218343216,map,0.945106506348,0.245080947876,0.0,0.0,0.0,0.624770280597,0.780808617065
1565344460345795934,92706,1565344460285102435,map,0.943234443665,0.245808601379,0.0,0.0,0.0,0.62487033608,0.780728546351
1565344460415353798,92707,1565344460352490977,map,0.94167137146,0.246627807617,0.0,0.0,0.0,0.624961726632,0.780655391479
1565344460478478903,92708,1565344460418262852,map,0.941882133484,0.247141838074,0.0,0.0,0.0,0.625182443225,0.780478643323
1565344460545580517,92709,1565344460484981393,map,0.943855285645,0.246960639954,0.0,0.0,0.0,0.625406551536,0.780299074263
1565344460612220778,92710,1565344460551771602,map,0.94606590271,0.247411727905,0.0,0.0,0.0,0.625476731765,0.780242819909
1565344460678367132,92711,1565344460618244206,map,0.950040817261,0.246600151062,0.0,0.0,0.0,0.62539194746,0.780310779147
1565344460745532965,92712,1565344460684857331,map,0.95611000061,0.245613098145,0.0,0.0,0.0,0.625357622366,0.780338288275
1565344460811857496,92713,1565344460752115716,map,0.96245098114,0.243347167969,0.0,0.0,0.0,0.625621401476,0.780126824314
1565344460877932548,92714,1565344460818363789,map,0.969856262207,0.241291999817,0.0,0.0,0.0,0.62567171229,0.780086474975
1565344460945372965,92715,1565344460884981289,map,0.978465080261,0.238934516907,0.0,0.0,0.0,0.625988908053,0.779831960742
1565344461012623486,92716,1565344460952225404,map,0.987797737122,0.237251281738,0.0,0.0,0.0,0.625938148812,0.779872703627
1565344461079143538,92717,1565344461019048476,map,0.99835395813,0.234870910645,0.0,0.0,0.0,0.625984027472,0.779835878471
1565344461145192027,92718,1565344461085559674,map,1.00966453552,0.232937812805,0.0,0.0,0.0,0.626000574866,0.779822595382
1565344461211375152,92719,1565344461151818320,map,1.0204334259,0.230743408203,0.0,0.0,0.0,0.626280908086,0.779597475732
1565344461278613642,92720,1565344461218296237,map,1.03317546844,0.228178024292,0.0,0.0,0.0,0.626335180761,0.779553873277
1565344461345491819,92721,1565344461285175976,map,1.04549694061,0.225433349609,0.0,0.0,0.0,0.626762007526,0.779210745512
1565344461411446142,92722,1565344461351658060,map,1.05718517303,0.222206115723,0.0,0.0,0.0,0.626848344152,0.779141292343
1565344461478157027,92723,1565344461418223685,map,1.07030010223,0.219331741333,0.0,0.0,0.0,0.626861068749,0.779131054757
1565344461544389527,92724,1565344461484846080,map,1.08303546906,0.216359138489,0.0,0.0,0.0,0.626750674982,0.779219860764
1565344461611716610,92725,1565344461551848997,map,1.09652137756,0.214010238647,0.0,0.0,0.0,0.626562739791,0.779370985542
1565344461677814267,92726,1565344461618250820,map,1.11089515686,0.210626602173,0.0,0.0,0.0,0.626414028715,0.779490516061
1565344461745129267,92727,1565344461684910976,map,1.12606620789,0.207109451294,0.0,0.0,0.0,0.626302468827,0.779580154661
1565344461814775777,92728,1565344461752039934,map,1.14148521423,0.202822685242,0.0,0.0,0.0,0.626419696972,0.779485960903
1565344461878668902,92729,1565344461818204674,map,1.15759849548,0.200116157532,0.0,0.0,0.0,0.62605151676,0.779781699172
1565344461946426819,92730,1565344461885389674,map,1.17387580872,0.196548461914,0.0,0.0,0.0,0.625824860614,0.779963616996
1565344462012097183,92731,1565344461951581132,map,1.19029712677,0.193078994751,0.0,0.0,0.0,0.625618844018,0.780128875257
1565344462077864892,92732,1565344462018393007,map,1.20847034454,0.190780639648,0.0,0.0,0.0,0.62502407576,0.780605473156
1565344462144348537,92733,1565344462084831341,map,1.22603607178,0.18788433075,0.0,0.0,0.0,0.624420890191,0.781088056427
1565344462211081610,92734,1565344462151577122,map,1.24291419983,0.18478679657,0.0,0.0,0.0,0.623928804086,0.78148118815
1565344462278026766,92735,1565344462218303997,map,1.26072883606,0.181665420532,0.0,0.0,0.0,0.623245751129,0.782026044131
1565344462344600412,92736,1565344462285023216,map,1.27835655212,0.17830657959,0.0,0.0,0.0,0.622606673883,0.782534938285
1565344462411643433,92737,1565344462352068320,map,1.29528045654,0.174357414246,0.0,0.0,0.0,0.621710679521,0.783246979547
1565344462479167339,92738,1565344462418871236,map,1.3145236969,0.171178817749,0.0,0.0,0.0,0.620500466384,0.784206077009
1565344462545533693,92739,1565344462485457070,map,1.33255958557,0.167556762695,0.0,0.0,0.0,0.619404501812,0.785072011433
1565344462612100725,92740,1565344462551629309,map,1.35058021545,0.162971496582,0.0,0.0,0.0,0.61861725711,0.785692490232
1565344462679265725,92741,1565344462618274778,map,1.36967754364,0.158505439758,0.0,0.0,0.0,0.618051754127,0.786137411157
1565344462745319839,92742,1565344462685066184,map,1.38913536072,0.154035568237,0.0,0.0,0.0,0.617317463007,0.786714147494
1565344462812575412,92743,1565344462752254882,map,1.40857505798,0.149859428406,0.0,0.0,0.0,0.616740903155,0.787166220297
1565344462877806714,92744,1565344462818286549,map,1.42828941345,0.145889282227,0.0,0.0,0.0,0.616106032653,0.787663225324
1565344462944412704,92745,1565344462884957017,map,1.44912719727,0.14142036438,0.0,0.0,0.0,0.615602479297,0.7880568428
1565344463011137027,92746,1565344462951653111,map,1.46906852722,0.136385917664,0.0,0.0,0.0,0.615414198564,0.788203884922
1565344463078698120,92747,1565344463019018944,map,1.48988819122,0.133214950562,0.0,0.0,0.0,0.61512550842,0.788429203474
1565344463144951506,92748,1565344463085341549,map,1.51032733917,0.128572463989,0.0,0.0,0.0,0.615179550124,0.788387037634
1565344463212327495,92749,1565344463152237226,map,1.53075885773,0.124441146851,0.0,0.0,0.0,0.615343302331,0.788259234184
1565344463278484839,92750,1565344463218862746,map,1.55125617981,0.119038581848,0.0,0.0,0.0,0.615614832817,0.788047192505
1565344463344854579,92751,1565344463285399882,map,1.57197284698,0.115081787109,0.0,0.0,0.0,0.615700551748,0.787980222199
1565344463411725047,92752,1565344463351681757,map,1.59207725525,0.109965324402,0.0,0.0,0.0,0.615663446913,0.78800921323
1565344463478269318,92753,1565344463418417642,map,1.61342906952,0.105812072754,0.0,0.0,0.0,0.615712340466,0.787971010759
1565344463544642756,92754,1565344463485153267,map,1.63377189636,0.101667404175,0.0,0.0,0.0,0.615745310573,0.78794524715
1565344463611206974,92755,1565344463551607590,map,1.65436077118,0.0975522994995,0.0,0.0,0.0,0.616058660617,0.787700277186
1565344463679860308,92756,1565344463618264621,map,1.6739358902,0.0935697555542,0.0,0.0,0.0,0.616539929998,0.787323640391
1565344463744787287,92757,1565344463684977486,map,1.69341087341,0.0911254882812,0.0,0.0,0.0,0.616804851393,0.787116112971
1565344463818938849,92758,1565344463753432486,map,1.71130847931,0.0877056121826,0.0,0.0,0.0,0.617054177788,0.786920670509
1565344463880307183,92759,1565344463819306080,map,1.72842407227,0.0849208831787,0.0,0.0,0.0,0.617464317421,0.786598891883
1565344463945359735,92760,1565344463885465871,map,1.74436950684,0.0816745758057,0.0,0.0,0.0,0.617595586674,0.786495830454
1565344464013237703,92761,1565344463951710871,map,1.76001739502,0.0788402557373,0.0,0.0,0.0,0.618162050459,0.786050684989
1565344464077820932,92762,1565344464018320402,map,1.77511692047,0.0756454467773,0.0,0.0,0.0,0.618704733437,0.785623607603
1565344464144643380,92763,1565344464084986809,map,1.78870677948,0.0731372833252,0.0,0.0,0.0,0.619129268612,0.7852890861
1565344464212064422,92764,1565344464151646861,map,1.80197906494,0.0703020095825,0.0,0.0,0.0,0.619517502756,0.784982842984
1565344464278913328,92765,1565344464218448163,map,1.81591796875,0.0679140090942,0.0,0.0,0.0,0.619728730955,0.784816093126
1565344464344873484,92766,1565344464284988371,map,1.83000183105,0.0654468536377,0.0,0.0,0.0,0.619805538586,0.784755436004
1565344464410968068,92767,1565344464351579777,map,1.8431930542,0.0622987747192,0.0,0.0,0.0,0.620262753166,0.784394108236
1565344464479930516,92768,1565344464419526548,map,1.85603809357,0.0602855682373,0.0,0.0,0.0,0.620604509337,0.784123742142
1565344464544663068,92769,1565344464485081027,map,1.86898803711,0.0579051971436,0.0,0.0,0.0,0.621126054998,0.783710676081
1565344464611276401,92770,1565344464551678006,map,1.88220691681,0.0550947189331,0.0,0.0,0.0,0.621457053161,0.783448231268
1565344464678389474,92771,1565344464618822277,map,1.8952331543,0.0534915924072,0.0,0.0,0.0,0.621701622559,0.783254168523
1565344464744454318,92772,1565344464684939933,map,1.90678691864,0.0511093139648,0.0,0.0,0.0,0.622084510097,0.782950102048
1565344464811493849,92773,1565344464752072277,map,1.91792297363,0.0487957000732,0.0,0.0,0.0,0.622566513683,0.78256688918
1565344464878071974,92774,1565344464818223892,map,1.92917442322,0.0468826293945,0.0,0.0,0.0,0.622876045313,0.782320543112
1565344464944957026,92775,1565344464884830298,map,1.93894481659,0.0445556640625,0.0,0.0,0.0,0.623288307314,0.781992126537
1565344465011812182,92776,1565344464951729256,map,1.9493560791,0.0427732467651,0.0,0.0,0.0,0.62383377646,0.781557048044
1565344465077896192,92777,1565344465018277850,map,1.95988750458,0.0400218963623,0.0,0.0,0.0,0.62469199748,0.780871249493
1565344465145408484,92778,1565344465084843839,map,1.96970367432,0.0377397537231,0.0,0.0,0.0,0.624944277468,0.780669360267
1565344465212392338,92779,1565344465152130662,map,1.97959136963,0.0361404418945,0.0,0.0,0.0,0.62562284295,0.780125668325
1565344465278854942,92780,1565344465218944152,map,1.9898815155,0.034200668335,0.0,0.0,0.0,0.625906074298,0.779898446054
1565344465345939161,92781,1565344465285382537,map,1.99954509735,0.0326490402222,0.0,0.0,0.0,0.626333879739,0.779554918586
1565344465411733953,92782,1565344465351520766,map,2.00948810577,0.031042098999,0.0,0.0,0.0,0.626947582287,0.779061441136
1565344465478413588,92783,1565344465418336912,map,2.01919651031,0.0296421051025,0.0,0.0,0.0,0.627368337363,0.778722652345
1565344465545211192,92784,1565344465484858110,map,2.0287322998,0.0275058746338,0.0,0.0,0.0,0.627876546069,0.778312946633
1565344465613750255,92785,1565344465552076808,map,2.03757190704,0.0256652832031,0.0,0.0,0.0,0.628756924632,0.777601909545
1565344465677959213,92786,1565344465618334933,map,2.04644012451,0.0248765945435,0.0,0.0,0.0,0.629494280957,0.777005115969
1565344465745638119,92787,1565344465685327173,map,2.0554857254,0.0232009887695,0.0,0.0,0.0,0.630015254502,0.776582757402
1565344465815347182,92788,1565344465752181235,map,2.06398487091,0.0218839645386,0.0,0.0,0.0,0.630763484,0.775975146027
1565344465881502182,92789,1565344465819308318,map,2.07204914093,0.0209884643555,0.0,0.0,0.0,0.631654384649,0.775250113417
1565344465945477807,92790,1565344465884896339,map,2.08037853241,0.0195970535278,0.0,0.0,0.0,0.632433833565,0.774614385461
1565344466011652807,92791,1565344465951786131,map,2.08919525146,0.0191879272461,0.0,0.0,0.0,0.632916193782,0.774220312087
1565344466079382338,92792,1565344466018881495,map,2.09737205505,0.0172910690308,0.0,0.0,0.0,0.633643792596,0.773624937618
1565344466145582286,92793,1565344466084892381,map,2.1049118042,0.0156354904175,0.0,0.0,0.0,0.634639877405,0.772808013679
1565344466211425932,92794,1565344466151623214,map,2.11331748962,0.0147686004639,0.0,0.0,0.0,0.635495659756,0.772104440106
1565344466279639786,92795,1565344466219782797,map,2.12083244324,0.0141162872314,0.0,0.0,0.0,0.636450707105,0.771317377884
1565344466345081452,92796,1565344466284994360,map,2.12912559509,0.0140991210938,0.0,0.0,0.0,0.637316733235,0.770601960508
1565344466411412859,92797,1565344466351625193,map,2.13583183289,0.0128002166748,0.0,0.0,0.0,0.638547570675,0.769582354258
1565344466480543119,92798,1565344466419175297,map,2.14411258698,0.0120210647583,0.0,0.0,0.0,0.639260081228,0.76899060368
1565344466544753327,92799,1565344466484965037,map,2.15053844452,0.0113725662231,0.0,0.0,0.0,0.640783081046,0.767721982912
1565344466611874004,92800,1565344466552041235,map,2.15747642517,0.0108890533447,0.0,0.0,0.0,0.641582797221,0.767053788408
1565344466679992234,92801,1565344466619263318,map,2.16498661041,0.00944042205811,0.0,0.0,0.0,0.642524373067,0.766265247819
1565344466748111713,92802,1565344466686856651,map,2.17231845856,0.00876140594482,0.0,0.0,0.0,0.643491944261,0.765452884031
1565344466812648327,92803,1565344466752167537,map,2.17989349365,0.00818634033203,0.0,0.0,0.0,0.644611610975,0.764510216411
1565344466878758067,92804,1565344466818293370,map,2.18529224396,0.00647449493408,0.0,0.0,0.0,0.646022719449,0.763318181335
1565344466945058952,92805,1565344466884962380,map,2.19242095947,0.00558662414551,0.0,0.0,0.0,0.646612762846,0.762818415433
1565344467012010202,92806,1565344466951798630,map,2.19948673248,0.00501537322998,0.0,0.0,0.0,0.647801815322,0.761808905215
1565344467078580046,92807,1565344467018314724,map,2.2050075531,0.00460243225098,0.0,0.0,0.0,0.648698841833,0.761045210618
1565344467145310983,92808,1565344467085045714,map,2.21174144745,0.00472259521484,0.0,0.0,0.0,0.649687861481,0.760201080402
1565344467211101660,92809,1565344467151512901,map,2.21761035919,0.00389099121094,0.0,0.0,0.0,0.650857442221,0.759199967008
1565344467278109525,92810,1565344467218396078,map,2.22402000427,0.00407886505127,0.0,0.0,0.0,0.65168633907,0.758488573065
1565344467345561504,92811,1565344467284976912,map,2.22989940643,0.00310325622559,0.0,0.0,0.0,0.651802700503,0.758388580885
1565344467411458952,92812,1565344467351559412,map,2.23298358917,0.00252246856689,0.0,0.0,0.0,0.651883294631,0.758319306217
1565344467478215046,92813,1565344467418526234,map,2.23658275604,0.00301647186279,0.0,0.0,0.0,0.652445937374,0.757835271549
1565344467544691035,92814,1565344467485064776,map,2.24029254913,0.00168895721436,0.0,0.0,0.0,0.651667938635,0.758504382159
1565344467611245462,92815,1565344467551596807,map,2.24063110352,0.00129222869873,0.0,0.0,0.0,0.651144970992,0.758953375874
1565344467677868171,92816,1565344467618341859,map,2.23880004883,0.00169944763184,0.0,0.0,0.0,0.650646724573,0.759380563224
1565344467744803223,92817,1565344467685114672,map,2.2357339859,-0.000173568725586,0.0,0.0,0.0,0.649767334328,0.760133153625
1565344467813563275,92818,1565344467752499880,map,2.22981071472,-0.00098991394043,0.0,0.0,0.0,0.649239663072,0.760583894054
1565344467878978171,92819,1565344467818473109,map,2.22468852997,-0.00113391876221,0.0,0.0,0.0,0.648380299635,0.761316614192
1565344467945349212,92820,1565344467885006182,map,2.21647930145,-0.000565528869629,0.0,0.0,0.0,0.646022855941,0.763318065817
1565344468013734004,92821,1565344467952727120,map,2.20893859863,-0.000674247741699,0.0,0.0,0.0,0.64531810068,0.763913966972
1565344468080434733,92822,1565344468018801703,map,2.20072746277,-0.000741004943848,0.0,0.0,0.0,0.644089292823,0.764950313988
1565344468146514108,92823,1565344468085398734,map,2.19121646881,-0.000482559204102,0.0,0.0,0.0,0.643258179709,0.765649341564
1565344468211440045,92824,1565344468151751859,map,2.18374919891,0.000190734863281,0.0,0.0,0.0,0.641641545498,0.767004646068
1565344468277807493,92825,1565344468218118786,map,2.17575073242,0.00153160095215,0.0,0.0,0.0,0.640198680253,0.768209378882
1565344468344934785,92826,1565344468284809307,map,2.16795063019,0.0027027130127,0.0,0.0,0.0,0.639073191381,0.769145926374
1565344468411043795,92827,1565344468351510036,map,2.16170501709,0.00339698791504,0.0,0.0,0.0,0.637216321662,0.77068499363
1565344468478688535,92828,1565344468418345192,map,2.15541553497,0.00395679473877,0.0,0.0,0.0,0.635811402769,0.771844453312
1565344468545552389,92829,1565344468484843369,map,2.15018558502,0.00429534912109,0.0,0.0,0.0,0.634568707461,0.772866453866
1565344468612141868,92830,1565344468551575921,map,2.1456451416,0.00580024719238,0.0,0.0,0.0,0.632971476426,0.774175115869
1565344468679651868,92831,1565344468618172953,map,2.14118480682,0.00604438781738,0.0,0.0,0.0,0.631679198294,0.77522989522
1565344468745006972,92832,1565344468684814984,map,2.1367855072,0.00701141357422,0.0,0.0,0.0,0.630326675364,0.776330008646
1565344468812400201,92833,1565344468752005088,map,2.13289642334,0.00702857971191,0.0,0.0,0.0,0.629090669923,0.777331929754
1565344468878030826,92834,1565344468818217848,map,2.12954807281,0.00723552703857,0.0,0.0,0.0,0.627777078496,0.778393178102
1565344468945488379,92835,1565344468885084828,map,2.12559223175,0.0076961517334,0.0,0.0,0.0,0.626670739628,0.779284148494
1565344469011292389,92836,1565344468951617223,map,2.12261962891,0.00900745391846,0.0,0.0,0.0,0.625447572006,0.780266194751
1565344469079662962,92837,1565344469018204463,map,2.11901950836,0.00874137878418,0.0,0.0,0.0,0.62438173541,0.781119356108
1565344469146015722,92838,1565344469084843838,map,2.11651325226,0.0105037689209,0.0,0.0,0.0,0.622852730068,0.782339105917
1565344469211467076,92839,1565344469151739567,map,2.11312675476,0.0113544464111,0.0,0.0,0.0,0.621779584408,0.783192280614
1565344469279366816,92840,1565344469218244567,map,2.1109752655,0.0115833282471,0.0,0.0,0.0,0.620505981963,0.784201712793
1565344469344964055,92841,1565344469284859046,map,2.10789012909,0.0131587982178,0.0,0.0,0.0,0.619239118293,0.785202467122
1565344469412421191,92842,1565344469352053525,map,2.10573577881,0.0140810012817,0.0,0.0,0.0,0.618270460736,0.785965417421
1565344469479263170,92843,1565344469418785713,map,2.1044626236,0.0140819549561,0.0,0.0,0.0,0.617058774382,0.786917066124
1565344469546588430,92844,1565344469485387588,map,2.10227203369,0.0149974822998,0.0,0.0,0.0,0.616283153335,0.787524650354
1565344469612158587,92845,1565344469551568734,map,2.10059642792,0.0164966583252,0.0,0.0,0.0,0.61521869331,0.788356492586
1565344469678149420,92846,1565344469618340452,map,2.09912204742,0.016695022583,0.0,0.0,0.0,0.614122017097,0.789211092241
1565344469745070514,92847,1565344469684987327,map,2.09786987305,0.0174160003662,0.0,0.0,0.0,0.613033289471,0.790057077685
1565344469812780305,92848,1565344469752010192,map,2.09620761871,0.0181446075439,0.0,0.0,0.0,0.611934109558,0.79090874667
1565344469878950201,92849,1565344469818220088,map,2.09422111511,0.0200061798096,0.0,0.0,0.0,0.61075691417,0.791818155762
1565344469945254264,92850,1565344469885073108,map,2.09079837799,0.021258354187,0.0,0.0,0.0,0.609119986342,0.793078080796
1565344470011822753,92851,1565344469951522640,map,2.08759784698,0.0232877731323,0.0,0.0,0.0,0.607982537363,0.79395039786
1565344470079590618,92852,1565344470018211338,map,2.08257007599,0.0250959396362,0.0,0.0,0.0,0.606610206673,0.794999407018
1565344470144691347,92853,1565344470084834879,map,2.07688903809,0.0268602371216,0.0,0.0,0.0,0.605299170028,0.795998062035
1565344470212403899,92854,1565344470151577275,map,2.06879138947,0.0292148590088,0.0,0.0,0.0,0.604065058947,0.796935006484
1565344470278205513,92855,1565344470218188577,map,2.05989551544,0.0308055877686,0.0,0.0,0.0,0.602555487539,0.798076991547
1565344470344941451,92856,1565344470284858004,map,2.05013751984,0.0333805084229,0.0,0.0,0.0,0.600729926026,0.799452034819
1565344470412114680,92857,1565344470351827692,map,2.03955554962,0.0355014801025,0.0,0.0,0.0,0.598707843763,0.800967488614
1565344470478233847,92858,1565344470418166754,map,2.02720737457,0.0380344390869,0.0,0.0,0.0,0.59681925373,0.80237570899
1565344470544876763,92859,1565344470485038264,map,2.01521778107,0.0408802032471,0.0,0.0,0.0,0.594467663264,0.804119516821
1565344470611803795,92860,1565344470551641650,map,2.00257396698,0.0437030792236,0.0,0.0,0.0,0.592080764671,0.805878631127
1565344470678541503,92861,1565344470618526546,map,1.98974609375,0.0470752716064,0.0,0.0,0.0,0.589652941268,0.807656739496
1565344470745268378,92862,1565344470685088473,map,1.97712039948,0.0501613616943,0.0,0.0,0.0,0.587329241959,0.809348108999
1565344470812464367,92863,1565344470752473629,map,1.9656496048,0.0529842376709,0.0,0.0,0.0,0.585116075942,0.810949553101
1565344470879177857,92864,1565344470818862848,map,1.95381736755,0.055814743042,0.0,0.0,0.0,0.582770725548,0.812636623248
1565344470945646971,92865,1565344470885685191,map,1.94296550751,0.0585403442383,0.0,0.0,0.0,0.580607363277,0.81418369531
1565344471011753742,92866,1565344470951575087,map,1.93285369873,0.0616626739502,0.0,0.0,0.0,0.578612777319,0.815602387149
1565344471078205982,92867,1565344471018399566,map,1.92341327667,0.0641889572144,0.0,0.0,0.0,0.576985305685,0.816754526785
1565344471145457440,92868,1565344471085488421,map,1.9154253006,0.0668592453003,0.0,0.0,0.0,0.575612964598,0.817722272527
1565344471212291086,92869,1565344471151581337,map,1.90703868866,0.0701675415039,0.0,0.0,0.0,0.573976976705,0.818871436925
1565344471278304940,92870,1565344471218192483,map,1.89964389801,0.0724229812622,0.0,0.0,0.0,0.572612421897,0.819826209809
1565344471345406034,92871,1565344471285408993,map,1.89273071289,0.0755367279053,0.0,0.0,0.0,0.571335362894,0.820716700882
1565344471412553169,92872,1565344471351827900,map,1.88573932648,0.0777416229248,0.0,0.0,0.0,0.570110590589,0.821567960973
1565344471478257492,92873,1565344471418264775,map,1.87811565399,0.0786542892456,0.0,0.0,0.0,0.569474798951,0.822008791535
1565344471545826607,92874,1565344471485444045,map,1.87122821808,0.0813064575195,0.0,0.0,0.0,0.568696396707,0.822547511316
1565344471612675096,92875,1565344471551652952,map,1.86404132843,0.0838117599487,0.0,0.0,0.0,0.568256978817,0.822851144513
1565344471678554315,92876,1565344471618437014,map,1.85731983185,0.0865097045898,0.0,0.0,0.0,0.567762200724,0.823192616238
1565344471745352909,92877,1565344471685378316,map,1.85081005096,0.0885562896729,0.0,0.0,0.0,0.56722618047,0.823562056065
1565344471811398221,92878,1565344471751701754,map,1.84433269501,0.0912065505981,0.0,0.0,0.0,0.56697177876,0.823737216648
1565344471878281607,92879,1565344471818435243,map,1.83639335632,0.0936326980591,0.0,0.0,0.0,0.566011762803,0.824397164216
1565344471945512179,92880,1565344471885002326,map,1.82888793945,0.0964508056641,0.0,0.0,0.0,0.565115104,0.825012072173
1565344472011765721,92881,1565344471951625451,map,1.82056999207,0.0992107391357,0.0,0.0,0.0,0.564580900819,0.825377735604
1565344472078480825,92882,1565344472018276753,map,1.81124401093,0.102439880371,0.0,0.0,0.0,0.563957028397,0.825804135447
1565344472145312856,92883,1565344472085153733,map,1.80116081238,0.105712890625,0.0,0.0,0.0,0.563379716316,0.826198096853
1565344472211773325,92884,1565344472152178264,map,1.78959369659,0.109593391418,0.0,0.0,0.0,0.562652983506,0.826693183806
1565344472278936086,92885,1565344472218882430,map,1.77635192871,0.113090515137,0.0,0.0,0.0,0.561785241166,0.827283109224
1565344472346842283,92886,1565344472285556545,map,1.7621717453,0.117014884949,0.0,0.0,0.0,0.560720224566,0.828005331965
1565344472411489367,92887,1565344472351914722,map,1.74667072296,0.121086120605,0.0,0.0,0.0,0.559657045658,0.828724315587
1565344472478349731,92888,1565344472418210607,map,1.73126220703,0.125269889832,0.0,0.0,0.0,0.558475819241,0.829520801019
1565344472545018846,92889,1565344472485023576,map,1.71537876129,0.130136489868,0.0,0.0,0.0,0.557504518977,0.830173904264
1565344472611445825,92890,1565344472551617691,map,1.69896221161,0.135080337524,0.0,0.0,0.0,0.556453466311,0.830878775653
1565344472684467596,92891,1565344472618210920,map,1.68269824982,0.14089679718,0.0,0.0,0.0,0.555247758707,0.83168499232
1565344472745374940,92892,1565344472685121857,map,1.66614246368,0.146283149719,0.0,0.0,0.0,0.554013889318,0.832507423656
1565344472812183690,92893,1565344472752067222,map,1.65013599396,0.1519947052,0.0,0.0,0.0,0.552875158281,0.833264099404
1565344472879637908,92894,1565344472818443628,map,1.63241291046,0.157018661499,0.0,0.0,0.0,0.55143415631,0.834218419393
1565344472945529523,92895,1565344472884910868,map,1.61519145966,0.162768363953,0.0,0.0,0.0,0.550087578899,0.835106972514
1565344473011727960,92896,1565344472951708941,map,1.59789562225,0.169131278992,0.0,0.0,0.0,0.548459250271,0.836177284308
1565344473078292335,92897,1565344473018395972,map,1.58019542694,0.174659729004,0.0,0.0,0.0,0.547208350134,0.836996428632
1565344473145398221,92898,1565344473085272274,map,1.56214618683,0.180448532104,0.0,0.0,0.0,0.546224313527,0.837638943288
1565344473213379106,92899,1565344473151790868,map,1.54289054871,0.187019348145,0.0,0.0,0.0,0.544903711286,0.838498625775
1565344473278353950,92900,1565344473218348055,map,1.52455711365,0.19332408905,0.0,0.0,0.0,0.543536228354,0.839385708996
1565344473344817752,92901,1565344473285042222,map,1.50550270081,0.20031452179,0.0,0.0,0.0,0.542627992808,0.839973131368
1565344473412036241,92902,1565344473351733107,map,1.48579406738,0.207578659058,0.0,0.0,0.0,0.54159025562,0.840642608376
1565344473479098429,92903,1565344473418366701,map,1.46656799316,0.215782165527,0.0,0.0,0.0,0.540603843287,0.841277293539
1565344473545714991,92904,1565344473485106232,map,1.44634723663,0.222745895386,0.0,0.0,0.0,0.540094481456,0.841604391089
1565344473612409314,92905,1565344473552391545,map,1.42572498322,0.230138778687,0.0,0.0,0.0,0.5393928573,0.84205424142
1565344473678493325,92906,1565344473619228367,map,1.40598297119,0.237686157227,0.0,0.0,0.0,0.539009748799,0.842299525525
1565344473746489627,92907,1565344473685599826,map,1.38665294647,0.244310379028,0.0,0.0,0.0,0.538765378562,0.842455854548
1565344473812922179,92908,1565344473752965555,map,1.36991882324,0.251791000366,0.0,0.0,0.0,0.538615831944,0.842551473549
1565344473878969002,92909,1565344473818667742,map,1.35152626038,0.258931159973,0.0,0.0,0.0,0.537923618999,0.842993582492
1565344473945453168,92910,1565344473885209357,map,1.33620643616,0.265752792358,0.0,0.0,0.0,0.537716185856,0.84312591199
1565344474011870095,92911,1565344473951851753,map,1.32056903839,0.271894454956,0.0,0.0,0.0,0.537873572703,0.843025515502
1565344474080707699,92912,1565344474018455867,map,1.30661487579,0.277669906616,0.0,0.0,0.0,0.538014913431,0.842935319539
1565344474145699835,92913,1565344474085129409,map,1.29321098328,0.284429550171,0.0,0.0,0.0,0.538061387259,0.842905655184
1565344474211412595,92914,1565344474151761076,map,1.28021430969,0.289880752563,0.0,0.0,0.0,0.538185326216,0.842826527018
1565344474278052804,92915,1565344474218359305,map,1.26838111877,0.296060562134,0.0,0.0,0.0,0.538141670084,0.84285440197
1565344474345630408,92916,1565344474286042690,map,1.25655651093,0.301828384399,0.0,0.0,0.0,0.538436835779,0.842665873212
1565344474412143064,92917,1565344474351758888,map,1.24410247803,0.306875228882,0.0,0.0,0.0,0.538405694795,0.842685770505
1565344474478111970,92918,1565344474418280867,map,1.23330879211,0.312434196472,0.0,0.0,0.0,0.536605453461,0.843833269856
1565344474545312751,92919,1565344474485060086,map,1.22033882141,0.317338943481,0.0,0.0,0.0,0.533543109876,0.845772871346
1565344474611535147,92920,1565344474551877534,map,1.20775413513,0.323179244995,0.0,0.0,0.0,0.528941874422,0.848658054509
1565344474677989001,92921,1565344474618223055,map,1.19599628448,0.328442573547,0.0,0.0,0.0,0.523246034544,0.852181663341
1565344474744999366,92922,1565344474684967273,map,1.185546875,0.334350585938,0.0,0.0,0.0,0.516407353556,0.856343065128
1565344474811359210,92923,1565344474751564357,map,1.17620849609,0.337850570679,0.0,0.0,0.0,0.509290920106,0.860594421721
1565344474877757855,92924,1565344474818250034,map,1.16587543488,0.34326171875,0.0,0.0,0.0,0.499639306365,0.866233550225
1565344474945032543,92925,1565344474884910294,map,1.1564655304,0.347524642944,0.0,0.0,0.0,0.489645840404,0.871921413302
1565344475012196605,92926,1565344474952158575,map,1.14844989777,0.352427482605,0.0,0.0,0.0,0.478118877412,0.878295132095
1565344475079687334,92927,1565344475018950711,map,1.13996601105,0.356335639954,0.0,0.0,0.0,0.465582684517,0.885004386361
1565344475146512855,92928,1565344475085390971,map,1.13291454315,0.361025810242,0.0,0.0,0.0,0.451914507274,0.892061252446
1565344475211766293,92929,1565344475151614513,map,1.12477684021,0.364591598511,0.0,0.0,0.0,0.437539537535,0.899199173206
1565344475278645616,92930,1565344475218191127,map,1.11690711975,0.368349075317,0.0,0.0,0.0,0.421953972528,0.906617253899
1565344475344911397,92931,1565344475285123523,map,1.10896873474,0.370427131653,0.0,0.0,0.0,0.405583836033,0.914057849345
1565344475411411345,92932,1565344475351696388,map,1.10130119324,0.375096321106,0.0,0.0,0.0,0.387667174608,0.921799415129
1565344475477821814,92933,1565344475418192429,map,1.09313678741,0.378463745117,0.0,0.0,0.0,0.369375030173,0.929280413591
1565344475544492959,92934,1565344475484892429,map,1.08720111847,0.382794380188,0.0,0.0,0.0,0.349651922779,0.936879678986
1565344475611098220,92935,1565344475551599565,map,1.07944202423,0.385129928589,0.0,0.0,0.0,0.330003250919,0.943979795538
1565344475678316084,92936,1565344475618411648,map,1.0721206665,0.38800239563,0.0,0.0,0.0,0.309787056107,0.950805963312
1565344475745041657,92937,1565344475684879252,map,1.06526374817,0.391674995422,0.0,0.0,0.0,0.288722589227,0.957412798364
1565344475813372334,92938,1565344475753053627,map,1.06028461456,0.395650863647,0.0,0.0,0.0,0.266358004353,0.963874168923
1565344475877883376,92939,1565344475818259773,map,1.05363178253,0.398262023926,0.0,0.0,0.0,0.244453627093,0.96966098416
1565344475945380043,92940,1565344475884861492,map,1.04829883575,0.39995098114,0.0,0.0,0.0,0.222159910831,0.975010243033
1565344476011616188,92941,1565344475951673731,map,1.04198455811,0.401502609253,0.0,0.0,0.0,0.199024274059,0.97999456036
1565344476079072334,92942,1565344476018464408,map,1.03606414795,0.403750419617,0.0,0.0,0.0,0.175885450172,0.984410640138
1565344476146195876,92943,1565344476085612637,map,1.02989959717,0.405947685242,0.0,0.0,0.0,0.152416239793,0.988316391571
1565344476212142490,92944,1565344476151693575,map,1.02429199219,0.408152580261,0.0,0.0,0.0,0.128398413208,0.991722666619
1565344476277731969,92945,1565344476218226648,map,1.01799583435,0.41029548645,0.0,0.0,0.0,0.104272203367,0.99454879599
1565344476345097647,92946,1565344476285028887,map,1.01273155212,0.41300201416,0.0,0.0,0.0,0.0799304963038,0.996800439286
1565344476414749626,92947,1565344476352040502,map,1.00857067108,0.415165901184,0.0,0.0,0.0,0.0552877658659,0.998470461729
1565344476480409521,92948,1565344476418759304,map,1.00101280212,0.417190551758,0.0,0.0,0.0,0.0308258903915,0.999524769319
1565344476545829105,92949,1565344476485624564,map,0.995356559753,0.419961929321,0.0,0.0,0.0,0.00551399402113,0.999984797819
1565344476611195615,92950,1565344476551621752,map,0.988939285278,0.422726631165,0.0,0.0,0.0,-0.0196905839534,0.999806121657
1565344476678149886,92951,1565344476618421543,map,0.982336044312,0.42539691925,0.0,0.0,0.0,-0.0451751074417,0.998979083699
1565344476744978948,92952,1565344476684933991,map,0.975868225098,0.426963806152,0.0,0.0,0.0,-0.0703995646525,0.997518872652
1565344476812078063,92953,1565344476752262116,map,0.971399307251,0.429216384888,0.0,0.0,0.0,-0.0959476444702,0.995386382025
1565344476877748011,92954,1565344476818294825,map,0.96698474884,0.431529045105,0.0,0.0,0.0,-0.121593822428,0.992579942547
1565344476944397490,92955,1565344476884865502,map,0.962399482727,0.433614730835,0.0,0.0,0.0,-0.14743615333,0.98907157511
1565344477012555042,92956,1565344476951583522,map,0.9573802948,0.435400009155,0.0,0.0,0.0,-0.173139228164,0.984897358952
1565344477078422125,92957,1565344477018315554,map,0.953265190125,0.438052177429,0.0,0.0,0.0,-0.199283325332,0.97994191473
1565344477144565407,92958,1565344477084834252,map,0.949605941772,0.440454483032,0.0,0.0,0.0,-0.225005236292,0.97435755431
1565344477211806032,92959,1565344477151579772,map,0.944534301758,0.442407608032,0.0,0.0,0.0,-0.250563877213,0.968100068916
1565344477278117854,92960,1565344477218218574,map,0.941091537476,0.444442749023,0.0,0.0,0.0,-0.276438022178,0.9610317476
1565344477344797698,92961,1565344477284840345,map,0.936973571777,0.44725227356,0.0,0.0,0.0,-0.301533447218,0.953455599495
1565344477411284469,92962,1565344477351662533,map,0.932476997375,0.449421882629,0.0,0.0,0.0,-0.324436209934,0.94590757777
1565344477478328167,92963,1565344477418377272,map,0.929188728333,0.451978683472,0.0,0.0,0.0,-0.345736596301,0.938331607684
1565344477546430979,92964,1565344477485831543,map,0.925722122192,0.454702377319,0.0,0.0,0.0,-0.365698671403,0.930733303226
1565344477611481136,92965,1565344477551691647,map,0.92144203186,0.456954956055,0.0,0.0,0.0,-0.384909093705,0.922954489443
1565344477677790198,92966,1565344477618390762,map,0.917078018188,0.45930480957,0.0,0.0,0.0,-0.402797705867,0.915289029841
1565344477744456708,92967,1565344477685016126,map,0.912658691406,0.461891174316,0.0,0.0,0.0,-0.41971224607,0.907657220816
1565344477817428167,92968,1565344477753178001,map,0.908693313599,0.464437484741,0.0,0.0,0.0,-0.435783689613,0.900051429568
1565344477879653115,92969,1565344477819021699,map,0.905522346497,0.46804523468,0.0,0.0,0.0,-0.450793332896,0.892628349884
1565344477945059417,92970,1565344477885678887,map,0.901478767395,0.469800949097,0.0,0.0,0.0,-0.464815308259,0.885407662722
1565344478012161240,92971,1565344477951818991,map,0.897112846375,0.47264289856,0.0,0.0,0.0,-0.478427323057,0.878127152839
1565344478078937385,92972,1565344478018312897,map,0.892456054688,0.474184989929,0.0,0.0,0.0,-0.491460525015,0.87089985208
1565344478144584625,92973,1565344478084905918,map,0.889187812805,0.476407051086,0.0,0.0,0.0,-0.503601831865,0.863935874323
1565344478211223167,92974,1565344478151588053,map,0.885553359985,0.478675842285,0.0,0.0,0.0,-0.515651220074,0.856798587322
1565344478279343740,92975,1565344478218792741,map,0.88087272644,0.480875015259,0.0,0.0,0.0,-0.526778151211,0.850002811411
1565344478344933948,92976,1565344478285030866,map,0.876564025879,0.483880996704,0.0,0.0,0.0,-0.537396982782,0.843329403553
1565344478412651031,92977,1565344478351684459,map,0.872975349426,0.486086845398,0.0,0.0,0.0,-0.547499019597,0.836806323793
1565344478477825302,92978,1565344478418251491,map,0.86846446991,0.488467216492,0.0,0.0,0.0,-0.55713349512,0.830422945622
1565344478545761031,92979,1565344478485015918,map,0.863779067993,0.490237236023,0.0,0.0,0.0,-0.566188400559,0.824275861028
1565344478611881135,92980,1565344478551596386,map,0.861264228821,0.493124008179,0.0,0.0,0.0,-0.575338135724,0.817915661656
1565344478677706031,92981,1565344478618185553,map,0.855676651001,0.494798660278,0.0,0.0,0.0,-0.583280409393,0.812270868626
1565344478746731187,92982,1565344478684910605,map,0.852066040039,0.497711181641,0.0,0.0,0.0,-0.59137169637,0.806399105116
1565344478811562802,92983,1565344478751527740,map,0.847764968872,0.500325202942,0.0,0.0,0.0,-0.598904902066,0.800820153518
1565344478877930093,92984,1565344478818261178,map,0.84413433075,0.502332687378,0.0,0.0,0.0,-0.606132165346,0.795363940679
1565344478944306239,92985,1565344478884836386,map,0.839590072632,0.505068778992,0.0,0.0,0.0,-0.61326377417,0.789878182564
1565344479013324000,92986,1565344478951829928,map,0.835443496704,0.507718086243,0.0,0.0,0.0,-0.620165080229,0.784471333615
1565344479077905354,92987,1565344479018207220,map,0.83075428009,0.509504318237,0.0,0.0,0.0,-0.626443159485,0.779467105101
1565344479145263427,92988,1565344479084864772,map,0.827844619751,0.513081550598,0.0,0.0,0.0,-0.632939497794,0.77420126074
1565344479212474520,92989,1565344479152176438,map,0.822492599487,0.514854431152,0.0,0.0,0.0,-0.638688841617,0.769465115254
1565344479278802697,92990,1565344479218996803,map,0.819134712219,0.517366409302,0.0,0.0,0.0,-0.644336199567,0.764742350029
1565344479345953166,92991,1565344479285475449,map,0.815994262695,0.520741462708,0.0,0.0,0.0,-0.650016943423,0.759919715012
1565344479412940927,92992,1565344479351659251,map,0.811128616333,0.522569656372,0.0,0.0,0.0,-0.654863562296,0.755747123566
1565344479478235822,92993,1565344479418260501,map,0.80740070343,0.526021003723,0.0,0.0,0.0,-0.660035596352,0.751234325326
1565344479545166864,92994,1565344479484899407,map,0.803260803223,0.528378486633,0.0,0.0,0.0,-0.664914084423,0.746919848669
1565344479611619572,92995,1565344479551613626,map,0.798974990845,0.531190872192,0.0,0.0,0.0,-0.669675844152,0.742653528747
1565344479678233895,92996,1565344479618356386,map,0.795437812805,0.534779548645,0.0,0.0,0.0,-0.674191737652,0.738556362698
1565344479744970197,92997,1565344479685032323,map,0.79000377655,0.53776550293,0.0,0.0,0.0,-0.67833053138,0.734756891903
1565344479814818426,92998,1565344479751771751,map,0.785318374634,0.540179252625,0.0,0.0,0.0,-0.682269267818,0.731100982212
1565344479878034937,92999,1565344479818201646,map,0.780840873718,0.54213142395,0.0,0.0,0.0,-0.6861279443,0.727480889131
1565344479944347333,93000,1565344479884861803,map,0.777137756348,0.54662322998,0.0,0.0,0.0,-0.690320940943,0.723503281606
1565344480011312906,93001,1565344479951710240,map,0.772233963013,0.547925949097,0.0,0.0,0.0,-0.693820876316,0.720147617915
1565344480077872124,93002,1565344480018252167,map,0.76776599884,0.55048084259,0.0,0.0,0.0,-0.697398655682,0.716683413407
1565344480144510405,93003,1565344480084822115,map,0.764753341675,0.553758621216,0.0,0.0,0.0,-0.701047894409,0.713114191237
1565344480211513791,93004,1565344480151554459,map,0.759640693665,0.555383682251,0.0,0.0,0.0,-0.704145292418,0.710055918337
1565344480278312905,93005,1565344480218842948,map,0.756550788879,0.558633804321,0.0,0.0,0.0,-0.707500338603,0.706713004605
1565344480344327228,93006,1565344480284820865,map,0.75256061554,0.56192779541,0.0,0.0,0.0,-0.710943643945,0.703248985164
1565344480411255145,93007,1565344480351518573,map,0.748777389526,0.565243721008,0.0,0.0,0.0,-0.7141263628,0.700016812622
1565344480477921082,93008,1565344480418419198,map,0.744715690613,0.569499015808,0.0,0.0,0.0,-0.717469126136,0.696590305016
1565344480544462489,93009,1565344480484877427,map,0.739295959473,0.571003913879,0.0,0.0,0.0,-0.72021430909,0.693751647913
1565344480612064676,93010,1565344480552089979,map,0.736582756042,0.57576751709,0.0,0.0,0.0,-0.72375705346,0.690054872866
1565344480678531603,93011,1565344480618777948,map,0.732192993164,0.578674316406,0.0,0.0,0.0,-0.726316780538,0.687360119813
1565344480745099728,93012,1565344480685602896,map,0.726552009583,0.579313278198,0.0,0.0,0.0,-0.728591691714,0.684948280358
1565344480812183426,93013,1565344480751554615,map,0.72327709198,0.582239151001,0.0,0.0,0.0,-0.7311071933,0.682262612126
1565344480877776499,93014,1565344480818147844,map,0.720964431763,0.582483291626,0.0,0.0,0.0,-0.733326762272,0.679876356212
1565344480944570926,93015,1565344480884914302,map,0.719757080078,0.584195137024,0.0,0.0,0.0,-0.735581829864,0.677435880046
1565344481011462853,93016,1565344480951606021,map,0.719777107239,0.585172653198,0.0,0.0,0.0,-0.737530340045,0.675313999198
1565344481077954468,93017,1565344481018119615,map,0.721203804016,0.586520195007,0.0,0.0,0.0,-0.739407241842,0.673258442733
1565344481144947124,93018,1565344481084928104,map,0.724492073059,0.587623596191,0.0,0.0,0.0,-0.741262891937,0.671214812885
1565344481212825249,93019,1565344481151684198,map,0.729866027832,0.591099739075,0.0,0.0,0.0,-0.743099651613,0.669180773612
1565344481278140770,93020,1565344481218170396,map,0.735241889954,0.592280387878,0.0,0.0,0.0,-0.744339315205,0.667801605149
1565344481344562072,93021,1565344481284937115,map,0.742391586304,0.593640327454,0.0,0.0,0.0,-0.74576244666,0.666211958128
1565344481412433478,93022,1565344481351588469,map,0.749265670776,0.59445476532,0.0,0.0,0.0,-0.746623197796,0.665247172495
1565344481478203790,93023,1565344481418308312,map,0.757533073425,0.594408988953,0.0,0.0,0.0,-0.747524194115,0.664234581464
1565344481544713686,93024,1565344481484858937,map,0.766624450684,0.595397949219,0.0,0.0,0.0,-0.748353763957,0.663299814542
1565344481612361447,93025,1565344481551637739,map,0.774732589722,0.592016220093,0.0,0.0,0.0,-0.748750252789,0.662852215014
1565344481679185353,93026,1565344481618176385,map,0.783282279968,0.590543746948,0.0,0.0,0.0,-0.749017431285,0.662550290643
1565344481744901603,93027,1565344481685000135,map,0.79393196106,0.590196609497,0.0,0.0,0.0,-0.749519068944,0.661982753015
1565344481811588217,93028,1565344481751531646,map,0.802236557007,0.586357116699,0.0,0.0,0.0,-0.7491008305,0.662455995327
1565344481879477592,93029,1565344481818228052,map,0.813824653625,0.585647583008,0.0,0.0,0.0,-0.749071452585,0.662489214193
1565344481944715978,93030,1565344481884783468,map,0.824892044067,0.584429740906,0.0,0.0,0.0,-0.748730181838,0.662874886238
1565344482012113842,93031,1565344481952081021,map,0.836454391479,0.583463668823,0.0,0.0,0.0,-0.748757680447,0.662843824721
1565344482079864311,93032,1565344482018786385,map,0.848936080933,0.583000183105,0.0,0.0,0.0,-0.748301732608,0.663358513156
1565344482145531186,93033,1565344482085495500,map,0.861882209778,0.58241558075,0.0,0.0,0.0,-0.747840682569,0.663878236949
1565344482211609676,93034,1565344482151774979,map,0.876502990723,0.580859184265,0.0,0.0,0.0,-0.747429008557,0.664341687062
1565344482277956082,93035,1565344482218181489,map,0.890025138855,0.578950881958,0.0,0.0,0.0,-0.746969019331,0.66485884529
1565344482344261290,93036,1565344482284750708,map,0.903625488281,0.575161933899,0.0,0.0,0.0,-0.74631034172,0.665598132391
1565344482411341498,93037,1565344482351561906,map,0.917207717896,0.571637153625,0.0,0.0,0.0,-0.745581662355,0.666414274126
1565344482479665665,93038,1565344482419172427,map,0.932276725769,0.569628715515,0.0,0.0,0.0,-0.745136616729,0.666911855052
1565344482545918894,93039,1565344482484788260,map,0.947973251343,0.56777381897,0.0,0.0,0.0,-0.744864657668,0.667215588665
1565344482611862123,93040,1565344482551980447,map,0.963731765747,0.56537437439,0.0,0.0,0.0,-0.744610876651,0.667498795784
1565344482678294207,93041,1565344482618221593,map,0.978845596313,0.563774108887,0.0,0.0,0.0,-0.744204603067,0.66795172638
1565344482744509467,93042,1565344482684788312,map,0.995458602905,0.562635421753,0.0,0.0,0.0,-0.744221642799,0.667932740917
1565344482812477436,93043,1565344482752197479,map,1.01098442078,0.560589790344,0.0,0.0,0.0,-0.743742275375,0.668466474717
1565344482877766811,93044,1565344482818214822,map,1.02908802032,0.558084487915,0.0,0.0,0.0,-0.743882190177,0.668310771377
1565344482944591811,93045,1565344482885010291,map,1.04606437683,0.556037902832,0.0,0.0,0.0,-0.743946718479,0.668238939351
1565344483012535561,93046,1565344482951439458,map,1.06412696838,0.554720878601,0.0,0.0,0.0,-0.744250784397,0.667900269445
1565344483077787956,93047,1565344483018138624,map,1.08222389221,0.551946640015,0.0,0.0,0.0,-0.744505036456,0.667616844224
1565344483144419102,93048,1565344483084736541,map,1.10054302216,0.550129890442,0.0,0.0,0.0,-0.744586686256,0.667525779764
1565344483211245925,93049,1565344483151608364,map,1.11913585663,0.547490119934,0.0,0.0,0.0,-0.744806750983,0.667280228757
1565344483277867436,93050,1565344483218057895,map,1.13938331604,0.544897079468,0.0,0.0,0.0,-0.745106405171,0.666945608707
1565344483346216967,93051,1565344483284700708,map,1.15769958496,0.542356491089,0.0,0.0,0.0,-0.745244570801,0.666791218967
1565344483411619258,93052,1565344483352000291,map,1.17690086365,0.539187431335,0.0,0.0,0.0,-0.745644577708,0.66634387799
1565344483478182175,93053,1565344483418662374,map,1.1966753006,0.536158561707,0.0,0.0,0.0,-0.745826931113,0.666139766736
1565344483545213425,93054,1565344483485291801,map,1.21655464172,0.533363342285,0.0,0.0,0.0,-0.745919039638,0.666036625349
1565344483611199154,93055,1565344483551591697,map,1.2366104126,0.530879020691,0.0,0.0,0.0,-0.746040347029,0.665900743808
1565344483678091498,93056,1565344483618382947,map,1.25710773468,0.528614997864,0.0,0.0,0.0,-0.746090355305,0.665844712918
1565344483744483217,93057,1565344483684767270,map,1.27686595917,0.527297973633,0.0,0.0,0.0,-0.746062414692,0.665876019529
1565344483815384779,93058,1565344483751538259,map,1.29635620117,0.523547172546,0.0,0.0,0.0,-0.745847259738,0.666117005594
1565344483880965352,93059,1565344483818229926,map,1.31809520721,0.523264884949,0.0,0.0,0.0,-0.746290346322,0.665620551806
1565344483945694935,93060,1565344483884930239,map,1.33757972717,0.521270751953,0.0,0.0,0.0,-0.74611623095,0.665815717682
1565344484012053164,93061,1565344483951671384,map,1.35617637634,0.519021987915,0.0,0.0,0.0,-0.74582915459,0.666137277266
1565344484078510196,93062,1565344484018099197,map,1.37358283997,0.51678276062,0.0,0.0,0.0,-0.745237575842,0.666799036857
1565344484146377800,93063,1565344484085410811,map,1.39060497284,0.515263557434,0.0,0.0,0.0,-0.744509015749,0.667612406616
1565344484212445716,93064,1565344484151622947,map,1.40642547607,0.513125419617,0.0,0.0,0.0,-0.743935725258,0.66825117784
1565344484278313060,93065,1565344484218193415,map,1.42171478271,0.511178970337,0.0,0.0,0.0,-0.743580009896,0.668646968798
1565344484345347696,93066,1565344484284719405,map,1.43553733826,0.509819030762,0.0,0.0,0.0,-0.742864276603,0.669442056154
1565344484412378425,93067,1565344484351652686,map,1.44885444641,0.508054733276,0.0,0.0,0.0,-0.742399001325,0.669958000797
1565344484479070508,93068,1565344484418242582,map,1.46138763428,0.506709098816,0.0,0.0,0.0,-0.741647322548,0.670790018528
1565344484546447123,93069,1565344484484824249,map,1.4744052887,0.504412651062,0.0,0.0,0.0,-0.741281295118,0.671194488586
1565344484611257070,93070,1565344484551784301,map,1.48677349091,0.502591133118,0.0,0.0,0.0,-0.740963401913,0.671545409504
1565344484677909258,93071,1565344484618275030,map,1.49897193909,0.502014160156,0.0,0.0,0.0,-0.740529191932,0.67202419294
1565344484744633164,93072,1565344484684782217,map,1.5115404129,0.501237869263,0.0,0.0,0.0,-0.740491057653,0.672066212167
1565344484812053893,93073,1565344484752402686,map,1.52331733704,0.501167297363,0.0,0.0,0.0,-0.740201287472,0.672385346378
1565344484879768893,93074,1565344484818643884,map,1.53562450409,0.500758171082,0.0,0.0,0.0,-0.740140366954,0.67245240516
1565344484944816758,93075,1565344484885211280,map,1.54779338837,0.499639511108,0.0,0.0,0.0,-0.740090022784,0.672507812724
1565344485011037591,93076,1565344484951414874,map,1.55905437469,0.499006271362,0.0,0.0,0.0,-0.740086816009,0.672511341741
1565344485077795768,93077,1565344485018101019,map,1.56975269318,0.498066902161,0.0,0.0,0.0,-0.739932870994,0.672680716553
1565344485144835664,93078,1565344485084901332,map,1.58008098602,0.496673583984,0.0,0.0,0.0,-0.740085212614,0.672513106244
1565344485210880664,93079,1565344485151427269,map,1.59045410156,0.495820999146,0.0,0.0,0.0,-0.740039995169,0.672562863642
1565344485277862018,93080,1565344485218084926,map,1.59982013702,0.495719909668,0.0,0.0,0.0,-0.740030053296,0.672573802804
1565344485344102435,93081,1565344485284691696,map,1.60893344879,0.493947982788,0.0,0.0,0.0,-0.740002632132,0.672603972957
1565344485411188581,93082,1565344485351599717,map,1.61844158173,0.491641044617,0.0,0.0,0.0,-0.740132991953,0.672460522427
1565344485477734935,93083,1565344485418223623,map,1.62728214264,0.491757392883,0.0,0.0,0.0,-0.740104453066,0.672491931961
1565344485544501289,93084,1565344485484731644,map,1.63599205017,0.491032600403,0.0,0.0,0.0,-0.740180286612,0.672408464634
1565344485611070091,93085,1565344485551542946,map,1.64457702637,0.48956489563,0.0,0.0,0.0,-0.740364300126,0.672205848754
1565344485677522174,93086,1565344485618031332,map,1.65448284149,0.490272521973,0.0,0.0,0.0,-0.740583505128,0.671964338289
1565344485744163789,93087,1565344485684640498,map,1.66361808777,0.489802360535,0.0,0.0,0.0,-0.740892789791,0.671623312606
1565344485811667487,93088,1565344485751991123,map,1.67178058624,0.490658760071,0.0,0.0,0.0,-0.741222242937,0.671259701289
1565344485878053164,93089,1565344485818440186,map,1.6807050705,0.490018844604,0.0,0.0,0.0,-0.741794119425,0.670627679407
1565344485944185976,93090,1565344485884749248,map,1.68904590607,0.489278793335,0.0,0.0,0.0,-0.741886848589,0.670525095645
1565344486010942643,93091,1565344485951473102,map,1.69759941101,0.489416122437,0.0,0.0,0.0,-0.742319769838,0.670045788963
1565344486077922070,93092,1565344486018059300,map,1.70502185822,0.488390922546,0.0,0.0,0.0,-0.74246768151,0.669881886539
1565344486144979257,93093,1565344486085136279,map,1.71305179596,0.487215042114,0.0,0.0,0.0,-0.742702412968,0.669621628811
1565344486213963059,93094,1565344486151942165,map,1.72044372559,0.486885070801,0.0,0.0,0.0,-0.742868905201,0.669436919871
1565344486278694882,93095,1565344486218702373,map,1.7272567749,0.486053466797,0.0,0.0,0.0,-0.742900187205,0.669402204845
1565344486345218007,93096,1565344486285759092,map,1.73478507996,0.485137939453,0.0,0.0,0.0,-0.743169368801,0.669103347231
1565344486412469361,93097,1565344486351584925,map,1.74157810211,0.485761642456,0.0,0.0,0.0,-0.743290915858,0.668968320926
1565344486477482330,93098,1565344486418049613,map,1.74910545349,0.486396789551,0.0,0.0,0.0,-0.743440662544,0.668801899875
1565344486544721913,93099,1565344486484792217,map,1.75733280182,0.485298156738,0.0,0.0,0.0,-0.743136664947,0.669139669435
1565344486610790351,93100,1565344486551452477,map,1.76547336578,0.485486030579,0.0,0.0,0.0,-0.742536353892,0.66980576524
1565344486677651393,93101,1565344486618241487,map,1.77598667145,0.484553337097,0.0,0.0,0.0,-0.742183166999,0.670197095356
1565344486744284882,93102,1565344486684746487,map,1.78647899628,0.483471870422,0.0,0.0,0.0,-0.741780688508,0.670642535302
1565344486810841549,93103,1565344486751424456,map,1.79882621765,0.48237323761,0.0,0.0,0.0,-0.7414011422,0.671062103195
1565344486877800195,93104,1565344486818300706,map,1.81336975098,0.481134414673,0.0,0.0,0.0,-0.741062181088,0.671436403363
1565344486944687330,93105,1565344486884782842,map,1.82863330841,0.479875564575,0.0,0.0,0.0,-0.74073488363,0.671797463656
1565344487012971132,93106,1565344486952224977,map,1.8439874649,0.478765487671,0.0,0.0,0.0,-0.740446671477,0.672115114172
1565344487077736965,93107,1565344487018078310,map,1.86103630066,0.477833747864,0.0,0.0,0.0,-0.740417185735,0.672147596194
1565344487144896913,93108,1565344487084958050,map,1.87819766998,0.477132797241,0.0,0.0,0.0,-0.740161850146,0.672428758746
1565344487211315819,93109,1565344487151448102,map,1.89607048035,0.476140975952,0.0,0.0,0.0,-0.740356126487,0.672214851051
1565344487279034674,93110,1565344487218750237,map,1.91408348083,0.475526809692,0.0,0.0,0.0,-0.740307242634,0.672268686243
1565344487344563007,93111,1565344487284797841,map,1.93222808838,0.475469589233,0.0,0.0,0.0,-0.739978096363,0.672630966357
1565344487411719205,93112,1565344487351402268,map,1.95106983185,0.474136352539,0.0,0.0,0.0,-0.740203852414,0.67238252273
1565344487479030507,93113,1565344487418048362,map,1.96977710724,0.472338676453,0.0,0.0,0.0,-0.739779208056,0.672849703372
1565344487546000403,93114,1565344487484804925,map,1.98811340332,0.471448898315,0.0,0.0,0.0,-0.739330991373,0.673342175417
1565344487613231444,93115,1565344487552121800,map,2.0072221756,0.470426559448,0.0,0.0,0.0,-0.738933372257,0.673778503193
1565344487678557017,93116,1565344487618841591,map,2.02764701843,0.468106269836,0.0,0.0,0.0,-0.739036334709,0.673665566865
1565344487747530819,93117,1565344487685350393,map,2.04806232452,0.467310905457,0.0,0.0,0.0,-0.739359245284,0.673311151262
1565344487814370194,93118,1565344487751781122,map,2.06652069092,0.466364860535,0.0,0.0,0.0,-0.739689847666,0.672947939488
1565344487878465819,93119,1565344487818449768,map,2.08622550964,0.467000007629,0.0,0.0,0.0,-0.740129304419,0.67246458103
1565344487947361653,93120,1565344487884793935,map,2.10505199432,0.466786384583,0.0,0.0,0.0,-0.740484648297,0.672073274009
1565344488016340298,93121,1565344487951475966,map,2.12310504913,0.466636657715,0.0,0.0,0.0,-0.74084715175,0.671673654198
1565344488080044621,93122,1565344488018346331,map,2.13973522186,0.466631889343,0.0,0.0,0.0,-0.74096212104,0.671546822778
1565344488144486027,93123,1565344488084887112,map,2.15540122986,0.465126037598,0.0,0.0,0.0,-0.741146378873,0.671343462829
1565344488211270611,93124,1565344488151583831,map,2.17002105713,0.464820861816,0.0,0.0,0.0,-0.741339701523,0.671129977684
1565344488277977434,93125,1565344488218312268,map,2.18424320221,0.463499069214,0.0,0.0,0.0,-0.741311699153,0.671160908203
1565344488346689309,93126,1565344488285011383,map,2.1974105835,0.462860107422,0.0,0.0,0.0,-0.741183191732,0.671302820115
1565344488412518631,93127,1565344488352158831,map,2.21050739288,0.461572647095,0.0,0.0,0.0,-0.74096756473,0.671540816346
1565344488478065142,93128,1565344488418089091,map,2.22355365753,0.460390090942,0.0,0.0,0.0,-0.740670492291,0.671868455763
1565344488546057538,93129,1565344488485473831,map,2.23652935028,0.460629463196,0.0,0.0,0.0,-0.740828895576,0.671693789966
1565344488612813892,93130,1565344488552208935,map,2.24934959412,0.45970916748,0.0,0.0,0.0,-0.740509163721,0.672046262131
1565344488678402798,93131,1565344488618292476,map,2.26320743561,0.458996772766,0.0,0.0,0.0,-0.740777166777,0.671750838616
1565344488745263319,93132,1565344488684841591,map,2.27646350861,0.459516525269,0.0,0.0,0.0,-0.740788537881,0.671738298852
1565344488811426079,93133,1565344488751626591,map,2.28919696808,0.459764480591,0.0,0.0,0.0,-0.740832739027,0.671689550899
1565344488879320975,93134,1565344488818252841,map,2.30240726471,0.459231376648,0.0,0.0,0.0,-0.741124290087,0.671367847489
1565344488944330923,93135,1565344488884775080,map,2.31580162048,0.457934379578,0.0,0.0,0.0,-0.741281775194,0.67119395838
1565344489011698006,93136,1565344488952027476,map,2.32989215851,0.457028388977,0.0,0.0,0.0,-0.741551837541,0.670895574766
1565344489080251808,93137,1565344489019765862,map,2.34482860565,0.455671310425,0.0,0.0,0.0,-0.741439379484,0.671019855556
1565344489145761704,93138,1565344489085668987,map,2.36028575897,0.454908370972,0.0,0.0,0.0,-0.741724563243,0.670704608813
1565344489211426704,93139,1565344489151553205,map,2.3748292923,0.454449653625,0.0,0.0,0.0,-0.741717047499,0.670712920294
1565344489278207225,93140,1565344489218263778,map,2.39042186737,0.454027175903,0.0,0.0,0.0,-0.741951271018,0.670453810068
1565344489344970037,93141,1565344489285188934,map,2.40541362762,0.453893661499,0.0,0.0,0.0,-0.741952230109,0.670452748698
1565344489411097902,93142,1565344489351531122,map,2.42179107666,0.453526496887,0.0,0.0,0.0,-0.742364498566,0.669996232279
1565344489477719621,93143,1565344489418150601,map,2.43585300446,0.453651428223,0.0,0.0,0.0,-0.742317054059,0.670048797666
1565344489545822173,93144,1565344489484992111,map,2.4503068924,0.452404975891,0.0,0.0,0.0,-0.742570048415,0.669768410121
1565344489612845662,93145,1565344489551609872,map,2.46235179901,0.452107429504,0.0,0.0,0.0,-0.742453147517,0.669897995028
1565344489678587798,93146,1565344489618415809,map,2.47415924072,0.452211380005,0.0,0.0,0.0,-0.742360025842,0.670001188082
1565344489745540558,93147,1565344489685378361,map,2.48560905457,0.451103210449,0.0,0.0,0.0,-0.742332869308,0.670031276244
1565344489816512225,93148,1565344489752194299,map,2.49586296082,0.451070785522,0.0,0.0,0.0,-0.742049250313,0.670345366293
1565344489878172433,93149,1565344489818270913,map,2.50659656525,0.450614929199,0.0,0.0,0.0,-0.74192585455,0.670481935886
1565344489944466964,93150,1565344489884921330,map,2.51688861847,0.450187683105,0.0,0.0,0.0,-0.741796038103,0.670625557114
1565344490013570818,93151,1565344489951585236,map,2.52694702148,0.450442314148,0.0,0.0,0.0,-0.741423860877,0.67103700235
1565344490078542693,93152,1565344490018416851,map,2.53882884979,0.449786186218,0.0,0.0,0.0,-0.741784206158,0.670638644499
1565344490144929620,93153,1565344490084847736,map,2.54941082001,0.451115608215,0.0,0.0,0.0,-0.741578069425,0.670866579096
1565344490212128318,93154,1565344490151742267,map,2.5610408783,0.451026916504,0.0,0.0,0.0,-0.741581268357,0.670863042969
1565344490277756756,93155,1565344490218236017,map,2.57258415222,0.450930595398,0.0,0.0,0.0,-0.741334421174,0.671135810386
1565344490344580766,93156,1565344490284995705,map,2.58341789246,0.4515209198,0.0,0.0,0.0,-0.740220043356,0.672364698221
1565344490412933787,93157,1565344490352763361,map,2.59439945221,0.451547622681,0.0,0.0,0.0,-0.739326014697,0.673347639777
1565344490478226964,93158,1565344490418753153,map,2.60421276093,0.45161151886,0.0,0.0,0.0,-0.738683524238,0.674052409698
1565344490545158006,93159,1565344490485617476,map,2.61373138428,0.451742172241,0.0,0.0,0.0,-0.738191887115,0.674590792849
1565344490611264047,93160,1565344490551588413,map,2.62290287018,0.4516954422,0.0,0.0,0.0,-0.737665410501,0.675166455143
1565344490677592120,93161,1565344490618175080,map,2.631980896,0.451917648315,0.0,0.0,0.0,-0.736799579306,0.676111218613
1565344490744441235,93162,1565344490684984611,map,2.64060974121,0.452600479126,0.0,0.0,0.0,-0.734821608849,0.678260424297
1565344490811512068,93163,1565344490751833569,map,2.64849090576,0.452737808228,0.0,0.0,0.0,-0.732753820001,0.680493820158
1565344490877808006,93164,1565344490818210653,map,2.6584482193,0.451852798462,0.0,0.0,0.0,-0.731588334343,0.681746660463
1565344490944367953,93165,1565344490884905496,map,2.66686820984,0.45253276825,0.0,0.0,0.0,-0.730021951642,0.683423697366
1565344491011949933,93166,1565344490951607528,map,2.67674827576,0.451698303223,0.0,0.0,0.0,-0.728794483828,0.684732502765
