%time,field.linear.x,field.linear.y,field.linear.z,field.angular.x,field.angular.y,field.angular.z
1565344458364284997,1550.0,1550.0,1550.0,1550.0,0.0,0.0
1565344458414280362,1550.0,1550.0,1550.0,1550.0,0.0,0.0
1565344458464225258,1550.0,1550.0,1550.0,1550.0,0.0,0.0
1565344458514266299,1550.0,1550.0,1550.0,1550.0,0.0,0.0
1565344458564356820,1550.0,1550.0,1550.0,1550.0,0.0,0.0
1565344458614310726,1550.0,1550.0,1550.0,1550.0,0.0,0.0
1565344458664275518,1550.0,1550.0,1550.0,1550.0,0.0,0.0
1565344458715228434,1550.0,1550.0,1550.0,1550.0,0.0,0.0
1565344458765229945,1550.0,1550.0,1550.0,1550.0,0.0,0.0
1565344458815183955,1550.0,1550.0,1550.0,1550.0,0.0,0.0
1565344458865240466,1550.0,1550.0,1550.0,1550.0,0.0,0.0
1565344458915196976,1550.0,1550.0,1550.0,1550.0,0.0,0.0
1565344458965270882,1550.0,1550.0,1550.0,1550.0,0.0,0.0
1565344459015423382,1550.0,1550.0,1550.0,1550.0,0.0,0.0
1565344459065699841,1550.0,1550.0,1550.0,1550.0,0.0,0.0
1565344459115196924,1550.0,1550.0,1550.0,1550.0,0.0,0.0
1565344459165670674,1550.0,1550.0,1550.0,1550.0,0.0,0.0
1565344459215257549,1550.0,1550.0,1550.0,1550.0,0.0,0.0
1565344459265238695,1550.0,1550.0,1550.0,1550.0,0.0,0.0
1565344459315236768,1550.0,1550.0,1550.0,1550.0,0.0,0.0
1565344459365216976,1550.0,1550.0,1550.0,1550.0,0.0,0.0
1565344459415684945,1550.0,1550.0,1550.0,1550.0,0.0,0.0
1565344459465336872,1550.0,1550.0,1550.0,1550.0,0.0,0.0
1565344459515245518,1550.0,1550.0,1550.0,1550.0,0.0,0.0
1565344459565219892,1550.0,1550.0,1550.0,1550.0,0.0,0.0
1565344459615351767,1550.0,1550.0,1550.0,1550.0,0.0,0.0
1565344459665628017,1550.0,1550.0,1550.0,1550.0,0.0,0.0
1565344459715259007,1550.0,1550.0,1550.0,1550.0,0.0,0.0
1565344459765247132,1550.0,1550.0,1550.0,1550.0,0.0,0.0
1565344459815221767,1550.0,1550.0,1550.0,1550.0,0.0,0.0
1565344459865428382,1550.0,1550.0,1550.0,1550.0,0.0,0.0
1565344459915703226,1550.0,1576.20624304,1550.0,1576.20624304,0.0,0.0
1565344459965303382,1550.0,1576.20624304,1550.0,1576.20624304,0.0,0.0
1565344460015560153,1550.0,1576.20624304,1550.0,1576.20624304,0.0,0.0
1565344460065250621,1550.0,1581.63211346,1550.0,1581.63211346,0.0,0.0
1565344460115273538,1550.0,1581.63211346,1550.0,1581.63211346,0.0,0.0
1565344460165450569,1550.0,1647.83157706,1550.0,1647.83157706,0.0,0.0
1565344460215214267,1550.0,1647.83157706,1550.0,1647.83157706,0.0,0.0
1565344460265241351,1550.0,1650.0,1556.67439774,1656.67439774,0.0,0.0
1565344460315228955,1550.0,1650.0,1556.67439774,1656.67439774,0.0,0.0
1565344460365259892,1550.0,1650.0,1556.67439774,1656.67439774,0.0,0.0
1565344460416092757,1550.0,1650.0,1556.67439774,1656.67439774,0.0,0.0
1565344460465269840,1550.0,1650.0,1556.67439774,1656.67439774,0.0,0.0
1565344460515227392,1550.0,1650.0,1556.67439774,1656.67439774,0.0,0.0
1565344460565209892,1550.0,1650.0,1556.67439774,1656.67439774,0.0,0.0
1565344460615417080,1550.0,1650.0,1556.67439774,1656.67439774,0.0,0.0
1565344460665908590,1550.0,1650.0,1556.67439774,1656.67439774,0.0,0.0
1565344460716028225,1550.0,1650.0,1556.67439774,1656.67439774,0.0,0.0
1565344460765291767,1550.0,1650.0,1556.67439774,1656.67439774,0.0,0.0
1565344460815599736,1550.0,1650.0,1556.67439774,1656.67439774,0.0,0.0
1565344460865691819,1550.0,1650.0,1556.67439774,1656.67439774,0.0,0.0
1565344460916040100,1550.0,1650.0,1556.67439774,1656.67439774,0.0,0.0
1565344460966286298,1550.0,1650.0,1556.67439774,1656.67439774,0.0,0.0
1565344461015600309,1550.0,1650.0,1556.67439774,1656.67439774,0.0,0.0
1565344461065169579,1550.0,1650.0,1556.67439774,1656.67439774,0.0,0.0
1565344461115220361,1550.0,1650.0,1556.67439774,1656.67439774,0.0,0.0
1565344461165220673,1550.0,1650.0,1556.67439774,1656.67439774,0.0,0.0
1565344461215683277,1550.0,1650.0,1556.67439774,1656.67439774,0.0,0.0
1565344461265355100,1550.0,1650.0,1557.76021481,1657.76021481,0.0,0.0
1565344461315394111,1550.0,1650.0,1557.76021481,1657.76021481,0.0,0.0
1565344461365168486,1550.0,1650.0,1557.76021481,1657.76021481,0.0,0.0
1565344461415740725,1550.0,1650.0,1557.76021481,1657.76021481,0.0,0.0
1565344461465275777,1550.0,1650.0,1556.67439774,1656.67439774,0.0,0.0
1565344461514909944,1550.0,1650.0,1556.67439774,1656.67439774,0.0,0.0
1565344461565254683,1550.0,1650.0,1556.67439774,1656.67439774,0.0,0.0
1565344461615594840,1550.0,1650.0,1556.67439774,1656.67439774,0.0,0.0
1565344461665210360,1550.0,1650.0,1556.67439774,1656.67439774,0.0,0.0
1565344461715241454,1550.0,1650.0,1556.67439774,1656.67439774,0.0,0.0
1565344461765311194,1550.0,1650.0,1556.67439774,1656.67439774,0.0,0.0
1565344461816141142,1550.0,1650.0,1557.76021481,1657.76021481,0.0,0.0
1565344461865817444,1550.0,1650.0,1557.76021481,1657.76021481,0.0,0.0
1565344461915695725,1550.0,1650.0,1557.76021481,1657.76021481,0.0,0.0
1565344461964890621,1550.0,1650.0,1557.76021481,1657.76021481,0.0,0.0
1565344462015470048,1550.0,1650.0,1556.67439774,1656.67439774,0.0,0.0
1565344462065202027,1550.0,1650.0,1556.67439774,1656.67439774,0.0,0.0
1565344462115132652,1550.0,1650.0,1556.67439774,1656.67439774,0.0,0.0
1565344462165206714,1550.0,1650.0,1556.67439774,1656.67439774,0.0,0.0
1565344462215526923,1550.0,1650.0,1556.67439774,1656.67439774,0.0,0.0
1565344462265057860,1550.0,1650.0,1555.5917941,1655.5917941,0.0,0.0
1565344462315442287,1550.0,1650.0,1555.5917941,1655.5917941,0.0,0.0
1565344462365197704,1550.0,1650.0,1555.5917941,1655.5917941,0.0,0.0
1565344462416283068,1550.0,1650.0,1555.5917941,1655.5917941,0.0,0.0
1565344462465402131,1550.0,1650.0,1555.5917941,1655.5917941,0.0,0.0
1565344462515118902,1550.0,1650.0,1555.5917941,1655.5917941,0.0,0.0
1565344462565098954,1550.0,1650.0,1555.5917941,1655.5917941,0.0,0.0
1565344462614702912,1550.0,1650.0,1555.5917941,1655.5917941,0.0,0.0
1565344462664777495,1550.0,1650.0,1555.5917941,1655.5917941,0.0,0.0
1565344462715731089,1550.0,1650.0,1555.5917941,1655.5917941,0.0,0.0
1565344462765938537,1550.0,1650.0,1555.5917941,1655.5917941,0.0,0.0
1565344462815719318,1550.0,1650.0,1555.5917941,1655.5917941,0.0,0.0
1565344462865203277,1550.0,1650.0,1555.5917941,1655.5917941,0.0,0.0
1565344462915223641,1550.0,1650.0,1555.5917941,1655.5917941,0.0,0.0
1565344462965534475,1550.0,1650.0,1555.5917941,1655.5917941,0.0,0.0
1565344463015036037,1550.0,1650.0,1555.5917941,1655.5917941,0.0,0.0
1565344463065247391,1550.0,1650.0,1555.5917941,1655.5917941,0.0,0.0
1565344463115020464,1550.0,1650.0,1554.50597778,1654.50597778,0.0,0.0
1565344463164841870,1550.0,1650.0,1554.50597778,1654.50597778,0.0,0.0
1565344463215641297,1550.0,1650.0,1553.42016108,1653.42016108,0.0,0.0
1565344463265078849,1550.0,1650.0,1553.42016108,1653.42016108,0.0,0.0
1565344463315578849,1550.0,1650.0,1553.42016108,1653.42016108,0.0,0.0
1565344463365249943,1550.0,1550.0,1550.0,1550.0,0.0,0.0
1565344463415344474,1550.0,1550.0,1550.0,1550.0,0.0,0.0
1565344463465169526,1550.0,1550.0,1550.0,1550.0,0.0,0.0
1565344463515086662,1550.0,1550.0,1550.0,1550.0,0.0,0.0
1565344463565271193,1550.0,1550.0,1550.0,1550.0,0.0,0.0
1565344463615323849,1550.0,1550.0,1550.0,1550.0,0.0,0.0
1565344463665291714,1550.0,1550.0,1550.0,1550.0,0.0,0.0
1565344463715439110,1550.0,1550.0,1550.0,1550.0,0.0,0.0
1565344463765130985,1550.0,1550.0,1550.0,1550.0,0.0,0.0
1565344463816357339,1550.0,1550.0,1550.0,1550.0,0.0,0.0
1565344463864757703,1550.0,1550.0,1550.0,1550.0,0.0,0.0
1565344463915325516,1550.0,1550.0,1550.0,1550.0,0.0,0.0
1565344463964992443,1550.0,1550.0,1550.0,1550.0,0.0,0.0
1565344464015513224,1550.0,1550.0,1550.0,1550.0,0.0,0.0
1565344464064829318,1550.0,1550.0,1550.0,1550.0,0.0,0.0
1565344464115211193,1550.0,1550.0,1550.0,1550.0,0.0,0.0
1565344464165170099,1550.0,1550.0,1550.0,1550.0,0.0,0.0
1565344464215404057,1550.0,1550.0,1550.0,1550.0,0.0,0.0
1565344464265530412,1550.0,1550.0,1550.0,1550.0,0.0,0.0
1565344464315113953,1550.0,1550.0,1550.0,1550.0,0.0,0.0
1565344464364667651,1550.0,1550.0,1550.0,1550.0,0.0,0.0
1565344464415702182,1550.0,1550.0,1550.0,1550.0,0.0,0.0
1565344464466139214,1550.0,1550.0,1550.0,1550.0,0.0,0.0
1565344464516116193,1550.0,1550.0,1550.0,1550.0,0.0,0.0
1565344464565400203,1550.0,1550.0,1550.0,1550.0,0.0,0.0
1565344464616080047,1550.0,1550.0,1550.0,1550.0,0.0,0.0
1565344464665425099,1550.0,1550.0,1550.0,1550.0,0.0,0.0
1565344464715608953,1550.0,1550.0,1550.0,1550.0,0.0,0.0
1565344464766264370,1550.0,1550.0,1550.0,1550.0,0.0,0.0
1565344464816211713,1550.0,1550.0,1550.0,1550.0,0.0,0.0
1565344464865508953,1550.0,1550.0,1550.0,1550.0,0.0,0.0
1565344464915104734,1550.0,1550.0,1550.0,1550.0,0.0,0.0
1565344464965457859,1550.0,1550.0,1550.0,1550.0,0.0,0.0
1565344465015025307,1550.0,1550.0,1550.0,1550.0,0.0,0.0
1565344465065153745,1550.0,1550.0,1550.0,1550.0,0.0,0.0
1565344465115626609,1550.0,1550.0,1550.0,1550.0,0.0,0.0
1565344465165545047,1550.0,1550.0,1550.0,1550.0,0.0,0.0
1565344465215709995,1550.0,1550.0,1550.0,1550.0,0.0,0.0
1565344465265165880,1550.0,1550.0,1550.0,1550.0,0.0,0.0
1565344465314933692,1550.0,1550.0,1550.0,1550.0,0.0,0.0
1565344465365106922,1550.0,1550.0,1550.0,1550.0,0.0,0.0
1565344465415459369,1550.0,1550.0,1550.0,1550.0,0.0,0.0
1565344465465401974,1550.0,1550.0,1550.0,1550.0,0.0,0.0
1565344465515175411,1550.0,1550.0,1550.0,1550.0,0.0,0.0
1565344465565528901,1550.0,1550.0,1550.0,1550.0,0.0,0.0
1565344465615976713,1550.0,1550.0,1550.0,1550.0,0.0,0.0
1565344465665053328,1550.0,1550.0,1550.0,1550.0,0.0,0.0
1565344465715047807,1550.0,1550.0,1550.0,1550.0,0.0,0.0
1565344465765199682,1550.0,1550.0,1550.0,1550.0,0.0,0.0
1565344465816262390,1550.0,1550.0,1550.0,1550.0,0.0,0.0
1565344465867506869,1550.0,1550.0,1550.0,1550.0,0.0,0.0
1565344465915089734,1550.0,1550.0,1550.0,1550.0,0.0,0.0
1565344465965140671,1550.0,1550.0,1550.0,1550.0,0.0,0.0
1565344466015096348,1550.0,1550.0,1550.0,1550.0,0.0,0.0
1565344466064939890,1550.0,1550.0,1550.0,1550.0,0.0,0.0
1565344466115089421,1550.0,1550.0,1550.0,1550.0,0.0,0.0
1565344466164991192,1550.0,1550.0,1550.0,1550.0,0.0,0.0
1565344466214919942,1550.0,1550.0,1550.0,1550.0,0.0,0.0
1565344466264714630,1550.0,1550.0,1550.0,1550.0,0.0,0.0
1565344466314974161,1550.0,1550.0,1550.0,1550.0,0.0,0.0
1565344466365177650,1550.0,1550.0,1550.0,1550.0,0.0,0.0
1565344466415102702,1550.0,1550.0,1550.0,1550.0,0.0,0.0
1565344466465191921,1550.0,1550.0,1550.0,1550.0,0.0,0.0
1565344466514981452,1550.0,1550.0,1550.0,1550.0,0.0,0.0
1565344466564900515,1550.0,1550.0,1550.0,1550.0,0.0,0.0
1565344466615222702,1550.0,1550.0,1550.0,1550.0,0.0,0.0
1565344466665636973,1550.0,1550.0,1550.0,1550.0,0.0,0.0
1565344466714920515,1550.0,1550.0,1550.0,1550.0,0.0,0.0
1565344466764867546,1550.0,1550.0,1550.0,1550.0,0.0,0.0
1565344466815257338,1550.0,1550.0,1550.0,1550.0,0.0,0.0
1565344466864945619,1550.0,1550.0,1550.0,1550.0,0.0,0.0
1565344466914962963,1550.0,1550.0,1550.0,1550.0,0.0,0.0
1565344466964975983,1550.0,1550.0,1550.0,1550.0,0.0,0.0
1565344467015139890,1550.0,1550.0,1550.0,1550.0,0.0,0.0
1565344467065152285,1550.0,1550.0,1550.0,1550.0,0.0,0.0
1565344467115225619,1666.44032151,1566.44032151,1650.0,1550.0,0.0,0.0
1565344467165139213,1666.44032151,1566.44032151,1650.0,1550.0,0.0,0.0
1565344467214893379,1666.44032151,1566.44032151,1650.0,1550.0,0.0,0.0
1565344467265500567,1670.78037411,1570.78037411,1650.0,1550.0,0.0,0.0
1565344467315030515,1670.78037411,1570.78037411,1650.0,1550.0,0.0,0.0
1565344467365696504,1670.78037411,1570.78037411,1650.0,1550.0,0.0,0.0
1565344467415023379,1670.78037411,1570.78037411,1650.0,1550.0,0.0,0.0
1565344467464880150,1670.78037411,1570.78037411,1650.0,1550.0,0.0,0.0
1565344467514840514,1670.78037411,1570.78037411,1650.0,1550.0,0.0,0.0
1565344467565417285,1670.78037411,1570.78037411,1650.0,1550.0,0.0,0.0
1565344467615323848,1670.78037411,1570.78037411,1650.0,1550.0,0.0,0.0
1565344467665265306,1668.60874146,1568.60874146,1650.0,1550.0,0.0,0.0
1565344467714692181,1668.60874146,1568.60874146,1650.0,1550.0,0.0,0.0
1565344467765497025,1668.60874146,1568.60874146,1650.0,1550.0,0.0,0.0
1565344467815842441,1668.60874146,1568.60874146,1650.0,1550.0,0.0,0.0
1565344467865603379,1668.60874146,1568.60874146,1650.0,1550.0,0.0,0.0
1565344467915643535,1668.60874146,1568.60874146,1650.0,1550.0,0.0,0.0
1565344467965062389,1668.60874146,1568.60874146,1650.0,1550.0,0.0,0.0
1565344468015991504,1668.60874146,1568.60874146,1650.0,1550.0,0.0,0.0
1565344468065333639,1550.0,1550.0,1550.0,1550.0,0.0,0.0
1565344468114979837,1550.0,1550.0,1550.0,1550.0,0.0,0.0
1565344468165040358,1550.0,1550.0,1550.0,1550.0,0.0,0.0
1565344468215420202,1550.0,1550.0,1550.0,1550.0,0.0,0.0
1565344468266526608,1550.0,1550.0,1550.0,1550.0,0.0,0.0
1565344468315089941,1550.0,1550.0,1550.0,1550.0,0.0,0.0
1565344468365117337,1550.0,1550.0,1550.0,1550.0,0.0,0.0
1565344468415149681,1550.0,1550.0,1550.0,1550.0,0.0,0.0
1565344468464649368,1550.0,1550.0,1550.0,1550.0,0.0,0.0
1565344468515115879,1550.0,1550.0,1550.0,1550.0,0.0,0.0
1565344468565071295,1550.0,1550.0,1550.0,1550.0,0.0,0.0
1565344468615218535,1550.0,1550.0,1550.0,1550.0,0.0,0.0
1565344468665042910,1550.0,1550.0,1550.0,1550.0,0.0,0.0
1565344468715595202,1550.0,1550.0,1550.0,1550.0,0.0,0.0
1565344468765231399,1550.0,1550.0,1550.0,1550.0,0.0,0.0
1565344468814905670,1550.0,1550.0,1550.0,1550.0,0.0,0.0
1565344468865280983,1550.0,1550.0,1550.0,1550.0,0.0,0.0
1565344468915098691,1550.0,1550.0,1550.0,1550.0,0.0,0.0
1565344468965058431,1550.0,1550.0,1550.0,1550.0,0.0,0.0
1565344469015215878,1550.0,1550.0,1550.0,1550.0,0.0,0.0
1565344469065151764,1550.0,1550.0,1550.0,1550.0,0.0,0.0
1565344469115091608,1550.0,1550.0,1550.0,1550.0,0.0,0.0
1565344469165053951,1550.0,1550.0,1550.0,1550.0,0.0,0.0
1565344469214911139,1550.0,1550.0,1550.0,1550.0,0.0,0.0
1565344469265087233,1550.0,1550.0,1550.0,1550.0,0.0,0.0
1565344469315117180,1550.0,1550.0,1550.0,1550.0,0.0,0.0
1565344469365131399,1550.0,1550.0,1550.0,1550.0,0.0,0.0
1565344469415835774,1550.0,1550.0,1550.0,1550.0,0.0,0.0
1565344469465531503,1550.0,1550.0,1550.0,1550.0,0.0,0.0
1565344469515031712,1550.0,1550.0,1550.0,1550.0,0.0,0.0
1565344469565050357,1550.0,1550.0,1550.0,1550.0,0.0,0.0
1565344469615291555,1601.32988542,1556.67118579,1594.65869963,1550.0,0.0,0.0
1565344469665255305,1601.32988542,1556.67118579,1594.65869963,1550.0,0.0,0.0
1565344469715055618,1649.08010662,1569.69455779,1629.38554883,1550.0,0.0,0.0
1565344469765234941,1649.08010662,1569.69455779,1629.38554883,1550.0,0.0,0.0
1565344469815274420,1651.25174224,1569.69455779,1631.55718446,1550.0,0.0,0.0
1565344469865247701,1651.25174224,1569.69455779,1631.55718446,1550.0,0.0,0.0
1565344469915109784,1666.4435342,1570.78037411,1645.66316009,1550.0,0.0,0.0
1565344469964718274,1666.4435342,1570.78037411,1645.66316009,1550.0,0.0,0.0
1565344470015604524,1672.95200676,1572.95200676,1650.0,1550.0,0.0,0.0
1565344470065110357,1672.95200676,1572.95200676,1650.0,1550.0,0.0,0.0
1565344470115082597,1671.86619043,1571.86619043,1650.0,1550.0,0.0,0.0
1565344470165101816,1671.86619043,1571.86619043,1650.0,1550.0,0.0,0.0
1565344470215543586,1671.86619043,1571.86619043,1650.0,1550.0,0.0,0.0
1565344470265041191,1671.86619043,1571.86619043,1650.0,1550.0,0.0,0.0
1565344470314611503,1671.86619043,1571.86619043,1650.0,1550.0,0.0,0.0
1565344470365783222,1671.86619043,1571.86619043,1650.0,1550.0,0.0,0.0
1565344470415612232,1671.86619043,1571.86619043,1650.0,1550.0,0.0,0.0
1565344470464960045,1671.86619043,1571.86619043,1650.0,1550.0,0.0,0.0
1565344470515091972,1671.86619043,1571.86619043,1650.0,1550.0,0.0,0.0
1565344470564910201,1550.0,1550.0,1550.0,1550.0,0.0,0.0
1565344470615059784,1550.0,1550.0,1550.0,1550.0,0.0,0.0
1565344470664680982,1550.0,1550.0,1550.0,1550.0,0.0,0.0
1565344470714913586,1550.0,1550.0,1550.0,1550.0,0.0,0.0
1565344470764862649,1550.0,1550.0,1550.0,1550.0,0.0,0.0
1565344470814988274,1550.0,1550.0,1550.0,1550.0,0.0,0.0
1565344470864859680,1550.0,1550.0,1550.0,1550.0,0.0,0.0
1565344470915031451,1550.0,1550.0,1550.0,1550.0,0.0,0.0
1565344470964825878,1550.0,1550.0,1550.0,1550.0,0.0,0.0
1565344471014642753,1550.0,1550.0,1550.0,1550.0,0.0,0.0
1565344471065337805,1550.0,1550.0,1550.0,1550.0,0.0,0.0
1565344471114834055,1550.0,1550.0,1550.0,1550.0,0.0,0.0
1565344471164823846,1550.0,1550.0,1550.0,1550.0,0.0,0.0
1565344471214884211,1550.0,1550.0,1550.0,1550.0,0.0,0.0
1565344471264981815,1550.0,1550.0,1550.0,1550.0,0.0,0.0
1565344471314562596,1550.0,1550.0,1550.0,1550.0,0.0,0.0
1565344471364898898,1550.0,1550.0,1550.0,1550.0,0.0,0.0
1565344471415813690,1550.0,1550.0,1550.0,1550.0,0.0,0.0
1565344471464829784,1550.0,1550.0,1550.0,1550.0,0.0,0.0
1565344471514873117,1550.0,1550.0,1550.0,1550.0,0.0,0.0
1565344471564693846,1550.0,1550.0,1550.0,1550.0,0.0,0.0
1565344471614836502,1666.44032151,1566.44032151,1650.0,1550.0,0.0,0.0
1565344471664916346,1666.44032151,1566.44032151,1650.0,1550.0,0.0,0.0
1565344471715046815,1667.52613783,1567.52613783,1650.0,1550.0,0.0,0.0
1565344471765042336,1667.52613783,1567.52613783,1650.0,1550.0,0.0,0.0
1565344471815164627,1667.52613783,1567.52613783,1650.0,1550.0,0.0,0.0
1565344471865066607,1667.52613783,1567.52613783,1650.0,1550.0,0.0,0.0
1565344471915031190,1667.52613783,1567.52613783,1650.0,1550.0,0.0,0.0
1565344471965025357,1667.52613783,1567.52613783,1650.0,1550.0,0.0,0.0
1565344472015043221,1667.52613783,1567.52613783,1650.0,1550.0,0.0,0.0
1565344472064932336,1667.52613783,1567.52613783,1650.0,1550.0,0.0,0.0
1565344472114991450,1667.52613783,1567.52613783,1650.0,1550.0,0.0,0.0
1565344472165082440,1667.52613783,1567.52613783,1650.0,1550.0,0.0,0.0
1565344472214595877,1667.52613783,1567.52613783,1650.0,1550.0,0.0,0.0
1565344472264958898,1667.52613783,1567.52613783,1650.0,1550.0,0.0,0.0
1565344472315031190,1667.52613783,1567.52613783,1650.0,1550.0,0.0,0.0
1565344472365042440,1667.52613783,1567.52613783,1650.0,1550.0,0.0,0.0
1565344472415111763,1667.52613783,1567.52613783,1650.0,1550.0,0.0,0.0
1565344472465057335,1667.52613783,1567.52613783,1650.0,1550.0,0.0,0.0
1565344472515149575,1667.52613783,1567.52613783,1650.0,1550.0,0.0,0.0
1565344472564624419,1667.52613783,1567.52613783,1650.0,1550.0,0.0,0.0
1565344472615210148,1668.60874146,1568.60874146,1650.0,1550.0,0.0,0.0
1565344472664889835,1668.60874146,1568.60874146,1650.0,1550.0,0.0,0.0
1565344472715019575,1667.52613783,1567.52613783,1650.0,1550.0,0.0,0.0
1565344472764942075,1667.52613783,1567.52613783,1650.0,1550.0,0.0,0.0
1565344472814849783,1667.52613783,1567.52613783,1650.0,1550.0,0.0,0.0
1565344472865558221,1667.52613783,1567.52613783,1650.0,1550.0,0.0,0.0
1565344472915487075,1667.52613783,1567.52613783,1650.0,1550.0,0.0,0.0
1565344472965112179,1667.52613783,1567.52613783,1650.0,1550.0,0.0,0.0
1565344473014953221,1667.52613783,1567.52613783,1650.0,1550.0,0.0,0.0
1565344473065008637,1668.60874146,1568.60874146,1650.0,1550.0,0.0,0.0
1565344473114975304,1668.60874146,1568.60874146,1650.0,1550.0,0.0,0.0
1565344473164920148,1667.52613783,1567.52613783,1650.0,1550.0,0.0,0.0
1565344473215472283,1667.52613783,1567.52613783,1650.0,1550.0,0.0,0.0
1565344473264924106,1667.52613783,1567.52613783,1650.0,1550.0,0.0,0.0
1565344473314912387,1667.52613783,1567.52613783,1650.0,1550.0,0.0,0.0
1565344473365016866,1667.52613783,1567.52613783,1650.0,1550.0,0.0,0.0
1565344473415571398,1667.52613783,1567.52613783,1650.0,1550.0,0.0,0.0
1565344473465450408,1550.0,1550.0,1550.0,1550.0,0.0,0.0
1565344473514990043,1550.0,1550.0,1550.0,1550.0,0.0,0.0
1565344473564970720,1550.0,1550.0,1550.0,1550.0,0.0,0.0
1565344473615111866,1550.0,1550.0,1550.0,1550.0,0.0,0.0
1565344473664865460,1550.0,1550.0,1550.0,1550.0,0.0,0.0
1565344473714975252,1550.0,1550.0,1550.0,1550.0,0.0,0.0
1565344473764881397,1550.0,1550.0,1550.0,1550.0,0.0,0.0
1565344473814948741,1550.0,1550.0,1550.0,1550.0,0.0,0.0
1565344473864967387,1550.0,1550.0,1550.0,1550.0,0.0,0.0
1565344473914957127,1550.0,1550.0,1550.0,1550.0,0.0,0.0
1565344473964944887,1550.0,1550.0,1550.0,1550.0,0.0,0.0
1565344474014948116,1550.0,1550.0,1550.0,1550.0,0.0,0.0
1565344474065017491,1550.0,1550.0,1550.0,1550.0,0.0,0.0
1565344474114889991,1550.0,1550.0,1550.0,1550.0,0.0,0.0
1565344474165057283,1550.0,1550.0,1550.0,1550.0,0.0,0.0
1565344474214945772,1550.0,1550.0,1550.0,1550.0,0.0,0.0
1565344474265024835,1600.0,1550.0,1550.0,1600.0,0.0,0.0
1565344474315109522,1600.0,1550.0,1550.0,1600.0,0.0,0.0
1565344474365230512,1600.0,1550.0,1550.0,1600.0,0.0,0.0
1565344474415270981,1600.0,1550.0,1550.0,1600.0,0.0,0.0
1565344474464949939,1600.0,1550.0,1550.0,1600.0,0.0,0.0
1565344474515458116,1600.0,1550.0,1550.0,1600.0,0.0,0.0
1565344474564731918,1600.0,1550.0,1550.0,1600.0,0.0,0.0
1565344474614879210,1600.0,1550.0,1550.0,1600.0,0.0,0.0
1565344474665151449,1600.0,1550.0,1550.0,1600.0,0.0,0.0
1565344474715152908,1600.0,1550.0,1550.0,1600.0,0.0,0.0
1565344474765280251,1600.0,1550.0,1550.0,1600.0,0.0,0.0
1565344474815436918,1600.0,1550.0,1550.0,1600.0,0.0,0.0
1565344474865331553,1600.0,1550.0,1550.0,1600.0,0.0,0.0
1565344474915011814,1600.0,1550.0,1550.0,1600.0,0.0,0.0
1565344474964906241,1600.0,1550.0,1550.0,1600.0,0.0,0.0
1565344475015518637,1600.0,1550.0,1550.0,1600.0,0.0,0.0
1565344475065201657,1600.0,1550.0,1550.0,1600.0,0.0,0.0
1565344475114964262,1600.0,1550.0,1550.0,1600.0,0.0,0.0
1565344475165088637,1600.0,1550.0,1550.0,1600.0,0.0,0.0
1565344475214982334,1600.0,1550.0,1550.0,1600.0,0.0,0.0
1565344475264924105,1600.0,1550.0,1550.0,1600.0,0.0,0.0
1565344475315096605,1600.0,1550.0,1550.0,1600.0,0.0,0.0
1565344475364920824,1600.0,1550.0,1550.0,1600.0,0.0,0.0
1565344475414667126,1600.0,1550.0,1550.0,1600.0,0.0,0.0
1565344475464977699,1600.0,1550.0,1550.0,1600.0,0.0,0.0
1565344475514968428,1600.0,1550.0,1550.0,1600.0,0.0,0.0
1565344475564941605,1600.0,1550.0,1550.0,1600.0,0.0,0.0
1565344475615808688,1600.0,1550.0,1550.0,1600.0,0.0,0.0
1565344475664856866,1600.0,1550.0,1550.0,1600.0,0.0,0.0
1565344475715041136,1600.0,1550.0,1550.0,1600.0,0.0,0.0
1565344475764973011,1600.0,1550.0,1550.0,1600.0,0.0,0.0
1565344475815064678,1600.0,1550.0,1550.0,1600.0,0.0,0.0
1565344475864963793,1600.0,1550.0,1550.0,1600.0,0.0,0.0
1565344475914952490,1600.0,1550.0,1550.0,1600.0,0.0,0.0
1565344475964904574,1600.0,1550.0,1550.0,1600.0,0.0,0.0
1565344476014929053,1600.0,1550.0,1550.0,1600.0,0.0,0.0
1565344476064879782,1600.0,1550.0,1550.0,1600.0,0.0,0.0
1565344476115012178,1600.0,1550.0,1550.0,1600.0,0.0,0.0
1565344476165223324,1600.0,1550.0,1550.0,1600.0,0.0,0.0
1565344476214834678,1600.0,1550.0,1550.0,1600.0,0.0,0.0
1565344476265681344,1600.0,1550.0,1550.0,1600.0,0.0,0.0
1565344476315029730,1600.0,1550.0,1550.0,1600.0,0.0,0.0
1565344476364817334,1600.0,1550.0,1550.0,1600.0,0.0,0.0
1565344476414902751,1600.0,1550.0,1550.0,1600.0,0.0,0.0
1565344476465728844,1600.0,1550.0,1550.0,1600.0,0.0,0.0
1565344476516689782,1600.0,1550.0,1550.0,1600.0,0.0,0.0
1565344476564944886,1600.0,1550.0,1550.0,1600.0,0.0,0.0
1565344476615689053,1600.0,1550.0,1550.0,1600.0,0.0,0.0
1565344476665096709,1600.0,1550.0,1550.0,1600.0,0.0,0.0
1565344476715100303,1600.0,1550.0,1550.0,1600.0,0.0,0.0
1565344476765277386,1600.0,1550.0,1550.0,1600.0,0.0,0.0
1565344476815178063,1600.0,1550.0,1550.0,1600.0,0.0,0.0
1565344476864872490,1600.0,1550.0,1550.0,1600.0,0.0,0.0
1565344476915209678,1600.0,1550.0,1550.0,1600.0,0.0,0.0
1565344476965250563,1600.0,1550.0,1550.0,1600.0,0.0,0.0
1565344477015412542,1600.0,1550.0,1550.0,1600.0,0.0,0.0
1565344477065317125,1600.0,1550.0,1550.0,1600.0,0.0,0.0
1565344477115087386,1600.0,1550.0,1550.0,1600.0,0.0,0.0
1565344477165029157,1600.0,1550.0,1550.0,1600.0,0.0,0.0
1565344477216352230,1550.0,1550.0,1550.0,1550.0,0.0,0.0
1565344477265566657,1550.0,1550.0,1550.0,1550.0,0.0,0.0
1565344477315169157,1550.0,1550.0,1550.0,1550.0,0.0,0.0
1565344477365178271,1550.0,1550.0,1550.0,1550.0,0.0,0.0
1565344477415099729,1550.0,1550.0,1550.0,1550.0,0.0,0.0
1565344477465009990,1550.0,1550.0,1550.0,1550.0,0.0,0.0
1565344477514957698,1550.0,1550.0,1550.0,1550.0,0.0,0.0
1565344477566218531,1550.0,1550.0,1550.0,1550.0,0.0,0.0
1565344477615947959,1550.0,1550.0,1550.0,1550.0,0.0,0.0
1565344477666887698,1550.0,1550.0,1550.0,1550.0,0.0,0.0
1565344477714959573,1550.0,1550.0,1550.0,1550.0,0.0,0.0
1565344477764594990,1550.0,1550.0,1550.0,1550.0,0.0,0.0
1565344477815678479,1550.0,1550.0,1550.0,1550.0,0.0,0.0
1565344477864579833,1550.0,1550.0,1550.0,1550.0,0.0,0.0
1565344477915274885,1550.0,1550.0,1550.0,1550.0,0.0,0.0
1565344477964886292,1550.0,1550.0,1550.0,1550.0,0.0,0.0
1565344478014912281,1550.0,1550.0,1550.0,1550.0,0.0,0.0
1565344478064856448,1550.0,1550.0,1550.0,1550.0,0.0,0.0
1565344478115047073,1550.0,1550.0,1550.0,1550.0,0.0,0.0
1565344478164839521,1550.0,1550.0,1550.0,1550.0,0.0,0.0
1565344478215187750,1550.0,1550.0,1550.0,1550.0,0.0,0.0
1565344478264916240,1550.0,1550.0,1550.0,1550.0,0.0,0.0
1565344478314997854,1550.0,1550.0,1550.0,1550.0,0.0,0.0
1565344478365046031,1550.0,1550.0,1550.0,1550.0,0.0,0.0
1565344478415383062,1550.0,1550.0,1550.0,1550.0,0.0,0.0
1565344478465034469,1550.0,1550.0,1550.0,1550.0,0.0,0.0
1565344478515326760,1550.0,1550.0,1550.0,1550.0,0.0,0.0
1565344478565008896,1550.0,1550.0,1550.0,1550.0,0.0,0.0
1565344478615080719,1550.0,1550.0,1550.0,1550.0,0.0,0.0
1565344478665190198,1550.0,1550.0,1550.0,1550.0,0.0,0.0
1565344478715134104,1550.0,1550.0,1550.0,1550.0,0.0,0.0
1565344478764701239,1550.0,1550.0,1550.0,1550.0,0.0,0.0
1565344478815501604,1550.0,1550.0,1550.0,1550.0,0.0,0.0
1565344478864590510,1550.0,1550.0,1550.0,1550.0,0.0,0.0
1565344478915009989,1550.0,1550.0,1550.0,1550.0,0.0,0.0
1565344478964913375,1550.0,1550.0,1550.0,1550.0,0.0,0.0
1565344479015774208,1550.0,1550.0,1550.0,1550.0,0.0,0.0
1565344479065195770,1550.0,1550.0,1550.0,1550.0,0.0,0.0
1565344479114916135,1550.0,1550.0,1550.0,1550.0,0.0,0.0
1565344479165098791,1550.0,1550.0,1550.0,1550.0,0.0,0.0
1565344479214962698,1550.0,1550.0,1550.0,1550.0,0.0,0.0
1565344479264898062,1550.0,1550.0,1550.0,1550.0,0.0,0.0
1565344479315033322,1550.0,1550.0,1550.0,1550.0,0.0,0.0
1565344479365074260,1550.0,1550.0,1550.0,1550.0,0.0,0.0
1565344479414949416,1550.0,1550.0,1550.0,1550.0,0.0,0.0
1565344479464857072,1550.0,1550.0,1550.0,1550.0,0.0,0.0
1565344479515018739,1550.0,1550.0,1550.0,1550.0,0.0,0.0
1565344479565034937,1550.0,1550.0,1550.0,1550.0,0.0,0.0
1565344479615938166,1550.0,1550.0,1550.0,1550.0,0.0,0.0
1565344479666011604,1550.0,1550.0,1550.0,1550.0,0.0,0.0
1565344479718333426,1550.0,1550.0,1550.0,1550.0,0.0,0.0
1565344479765020718,1550.0,1550.0,1550.0,1550.0,0.0,0.0
1565344479816056551,1550.0,1550.0,1550.0,1550.0,0.0,0.0
1565344479865346551,1550.0,1550.0,1550.0,1550.0,0.0,0.0
1565344479915839520,1550.0,1550.0,1550.0,1550.0,0.0,0.0
1565344479966008322,1550.0,1550.0,1550.0,1550.0,0.0,0.0
1565344480015901708,1550.0,1550.0,1550.0,1550.0,0.0,0.0
1565344480065529103,1550.0,1550.0,1550.0,1550.0,0.0,0.0
1565344480116297905,1550.0,1550.0,1550.0,1550.0,0.0,0.0
1565344480166295249,1550.0,1550.0,1550.0,1550.0,0.0,0.0
1565344480215439572,1550.0,1550.0,1550.0,1550.0,0.0,0.0
1565344480265269051,1550.0,1550.0,1550.0,1550.0,0.0,0.0
1565344480316233843,1550.0,1550.0,1550.0,1550.0,0.0,0.0
1565344480366242957,1550.0,1550.0,1550.0,1550.0,0.0,0.0
1565344480414945405,1550.0,1550.0,1550.0,1550.0,0.0,0.0
1565344480464717593,1550.0,1550.0,1550.0,1550.0,0.0,0.0
1565344480515429468,1581.63532615,1550.0,1581.63532615,1550.0,0.0,0.0
1565344480564737332,1581.63532615,1550.0,1581.63532615,1550.0,0.0,0.0
1565344480614948270,1650.0,1550.0,1650.0,1550.0,0.0,0.0
1565344480664775614,1650.0,1550.0,1650.0,1550.0,0.0,0.0
1565344480715784989,1650.0,1550.0,1650.0,1550.0,0.0,0.0
1565344480764808739,1650.0,1550.0,1650.0,1550.0,0.0,0.0
1565344480815551759,1650.0,1550.0,1650.0,1550.0,0.0,0.0
1565344480864704051,1650.0,1550.0,1650.0,1550.0,0.0,0.0
1565344480914674989,1650.0,1550.0,1650.0,1550.0,0.0,0.0
1565344480964680093,1650.0,1550.0,1650.0,1550.0,0.0,0.0
1565344481014854103,1650.0,1550.0,1650.0,1550.0,0.0,0.0
1565344481065570509,1650.0,1550.0,1653.42016108,1553.42016108,0.0,0.0
1565344481115060613,1650.0,1550.0,1653.42016108,1553.42016108,0.0,0.0
1565344481164716499,1650.0,1550.0,1653.42016108,1553.42016108,0.0,0.0
1565344481215048113,1650.0,1550.0,1655.5917941,1555.5917941,0.0,0.0
1565344481264790145,1650.0,1550.0,1655.5917941,1555.5917941,0.0,0.0
1565344481315403790,1650.0,1550.0,1655.5917941,1555.5917941,0.0,0.0
1565344481365039832,1650.0,1550.0,1655.5917941,1555.5917941,0.0,0.0
1565344481414980301,1650.0,1550.0,1655.5917941,1555.5917941,0.0,0.0
1565344481464693634,1650.0,1550.0,1655.5917941,1555.5917941,0.0,0.0
1565344481514804103,1650.0,1550.0,1655.5917941,1555.5917941,0.0,0.0
1565344481564958842,1650.0,1550.0,1655.5917941,1555.5917941,0.0,0.0
1565344481614858270,1650.0,1550.0,1655.5917941,1555.5917941,0.0,0.0
1565344481664665561,1650.0,1550.0,1655.5917941,1555.5917941,0.0,0.0
1565344481714711394,1650.0,1550.0,1655.5917941,1555.5917941,0.0,0.0
1565344481764728999,1650.0,1550.0,1655.5917941,1555.5917941,0.0,0.0
1565344481816139051,1650.0,1550.0,1655.5917941,1555.5917941,0.0,0.0
1565344481864988269,1650.0,1550.0,1655.5917941,1555.5917941,0.0,0.0
1565344481915190821,1650.0,1550.0,1655.5917941,1555.5917941,0.0,0.0
1565344481964710769,1650.0,1550.0,1656.67439774,1556.67439774,0.0,0.0
1565344482014919259,1650.0,1550.0,1656.67439774,1556.67439774,0.0,0.0
1565344482065274415,1650.0,1550.0,1657.76021481,1557.76021481,0.0,0.0
1565344482114964623,1650.0,1550.0,1657.76021481,1557.76021481,0.0,0.0
1565344482164673321,1650.0,1550.0,1656.67439774,1556.67439774,0.0,0.0
1565344482214941498,1650.0,1550.0,1656.67439774,1556.67439774,0.0,0.0
1565344482266375821,1650.0,1550.0,1656.67439774,1556.67439774,0.0,0.0
1565344482314845873,1650.0,1550.0,1656.67439774,1556.67439774,0.0,0.0
1565344482364763634,1650.0,1550.0,1656.67439774,1556.67439774,0.0,0.0
1565344482415145300,1650.0,1550.0,1656.67439774,1556.67439774,0.0,0.0
1565344482465147957,1650.0,1550.0,1656.67439774,1556.67439774,0.0,0.0
1565344482514698217,1650.0,1550.0,1656.67439774,1556.67439774,0.0,0.0
1565344482564759832,1650.0,1550.0,1656.67439774,1556.67439774,0.0,0.0
1565344482614936967,1650.0,1550.0,1656.67439774,1556.67439774,0.0,0.0
1565344482665033373,1650.0,1550.0,1656.67439774,1556.67439774,0.0,0.0
1565344482714838842,1650.0,1550.0,1656.67439774,1556.67439774,0.0,0.0
1565344482764758269,1650.0,1550.0,1656.67439774,1556.67439774,0.0,0.0
1565344482814916238,1650.0,1550.0,1656.67439774,1556.67439774,0.0,0.0
1565344482864710040,1650.0,1550.0,1657.76021481,1557.76021481,0.0,0.0
1565344482914717175,1650.0,1550.0,1657.76021481,1557.76021481,0.0,0.0
1565344482964664675,1650.0,1550.0,1656.67439774,1556.67439774,0.0,0.0
1565344483015193321,1650.0,1550.0,1656.67439774,1556.67439774,0.0,0.0
1565344483064969050,1650.0,1550.0,1656.67439774,1556.67439774,0.0,0.0
1565344483115886081,1650.0,1550.0,1656.67439774,1556.67439774,0.0,0.0
1565344483165413165,1650.0,1550.0,1656.67439774,1556.67439774,0.0,0.0
1565344483214938790,1650.0,1550.0,1656.67439774,1556.67439774,0.0,0.0
1565344483264941081,1650.0,1550.0,1656.67439774,1556.67439774,0.0,0.0
1565344483315388998,1650.0,1550.0,1656.67439774,1556.67439774,0.0,0.0
1565344483365192488,1650.0,1550.0,1657.76021481,1557.76021481,0.0,0.0
1565344483414795873,1650.0,1550.0,1657.76021481,1557.76021481,0.0,0.0
1565344483465106238,1650.0,1550.0,1657.76021481,1557.76021481,0.0,0.0
1565344483516064623,1650.0,1550.0,1656.67439774,1556.67439774,0.0,0.0
1565344483565194727,1650.0,1550.0,1656.67439774,1556.67439774,0.0,0.0
1565344483615245144,1650.0,1550.0,1656.67439774,1556.67439774,0.0,0.0
1565344483664962592,1550.0,1550.0,1550.0,1550.0,0.0,0.0
1565344483715079623,1550.0,1550.0,1550.0,1550.0,0.0,0.0
1565344483765172123,1550.0,1550.0,1550.0,1550.0,0.0,0.0
1565344483815287279,1550.0,1550.0,1550.0,1550.0,0.0,0.0
1565344483864969050,1550.0,1550.0,1550.0,1550.0,0.0,0.0
1565344483914889779,1550.0,1550.0,1550.0,1550.0,0.0,0.0
1565344483964956185,1550.0,1550.0,1550.0,1550.0,0.0,0.0
1565344484014927644,1550.0,1550.0,1550.0,1550.0,0.0,0.0
1565344484065125091,1550.0,1550.0,1550.0,1550.0,0.0,0.0
1565344484114951446,1550.0,1550.0,1550.0,1550.0,0.0,0.0
1565344484164688581,1550.0,1550.0,1550.0,1550.0,0.0,0.0
1565344484215462435,1550.0,1550.0,1550.0,1550.0,0.0,0.0
1565344484264960300,1550.0,1550.0,1550.0,1550.0,0.0,0.0
1565344484314945143,1550.0,1550.0,1550.0,1550.0,0.0,0.0
1565344484365228425,1550.0,1550.0,1550.0,1550.0,0.0,0.0
1565344484414912904,1550.0,1550.0,1550.0,1550.0,0.0,0.0
1565344484465105925,1550.0,1550.0,1550.0,1550.0,0.0,0.0
1565344484515247748,1550.0,1550.0,1550.0,1550.0,0.0,0.0
1565344484564925195,1550.0,1550.0,1550.0,1550.0,0.0,0.0
1565344484614876133,1550.0,1550.0,1550.0,1550.0,0.0,0.0
1565344484665021550,1550.0,1550.0,1550.0,1550.0,0.0,0.0
1565344484714947643,1550.0,1550.0,1550.0,1550.0,0.0,0.0
1565344484764913425,1550.0,1550.0,1550.0,1550.0,0.0,0.0
1565344484815150404,1550.0,1550.0,1550.0,1550.0,0.0,0.0
1565344484865088997,1550.0,1550.0,1550.0,1550.0,0.0,0.0
1565344484915081706,1550.0,1550.0,1550.0,1550.0,0.0,0.0
1565344484965103060,1550.0,1550.0,1550.0,1550.0,0.0,0.0
1565344485015405039,1550.0,1550.0,1550.0,1550.0,0.0,0.0
1565344485065180195,1550.0,1550.0,1550.0,1550.0,0.0,0.0
1565344485115214674,1550.0,1550.0,1550.0,1550.0,0.0,0.0
1565344485165049414,1550.0,1550.0,1550.0,1550.0,0.0,0.0
1565344485215055664,1550.0,1550.0,1550.0,1550.0,0.0,0.0
1565344485264961341,1550.0,1550.0,1550.0,1550.0,0.0,0.0
1565344485315081758,1550.0,1550.0,1550.0,1550.0,0.0,0.0
1565344485364876341,1550.0,1550.0,1550.0,1550.0,0.0,0.0
1565344485414903789,1550.0,1550.0,1550.0,1550.0,0.0,0.0
1565344485464763528,1550.0,1550.0,1550.0,1550.0,0.0,0.0
1565344485515665039,1550.0,1550.0,1550.0,1550.0,0.0,0.0
1565344485565347695,1550.0,1550.0,1550.0,1550.0,0.0,0.0
1565344485615634518,1550.0,1550.0,1550.0,1550.0,0.0,0.0
1565344485664886653,1550.0,1550.0,1550.0,1550.0,0.0,0.0
1565344485714850872,1550.0,1550.0,1550.0,1550.0,0.0,0.0
1565344485767266080,1550.0,1550.0,1550.0,1550.0,0.0,0.0
1565344485815695872,1550.0,1550.0,1550.0,1550.0,0.0,0.0
1565344485865081601,1550.0,1550.0,1550.0,1550.0,0.0,0.0
1565344485915076445,1550.0,1550.0,1550.0,1550.0,0.0,0.0
1565344485964964778,1550.0,1550.0,1550.0,1550.0,0.0,0.0
1565344486015000612,1550.0,1550.0,1550.0,1550.0,0.0,0.0
1565344486065411809,1550.0,1550.0,1550.0,1550.0,0.0,0.0
1565344486115596184,1550.0,1550.0,1550.0,1550.0,0.0,0.0
1565344486165809882,1550.0,1550.0,1550.0,1550.0,0.0,0.0
1565344486214945039,1550.0,1550.0,1550.0,1550.0,0.0,0.0
1565344486264932643,1650.0,1550.0,1650.0,1550.0,0.0,0.0
1565344486315083424,1650.0,1550.0,1650.0,1550.0,0.0,0.0
1565344486364930559,1650.0,1550.0,1650.0,1550.0,0.0,0.0
1565344486415221914,1650.0,1550.0,1650.0,1550.0,0.0,0.0
1565344486464919570,1650.0,1550.0,1650.0,1550.0,0.0,0.0
1565344486514932591,1650.0,1550.0,1650.0,1550.0,0.0,0.0
1565344486564938528,1650.0,1550.0,1650.0,1550.0,0.0,0.0
1565344486615020507,1650.0,1550.0,1650.0,1550.0,0.0,0.0
1565344486665066445,1650.0,1550.0,1650.0,1550.0,0.0,0.0
1565344486714896653,1650.0,1550.0,1650.0,1550.0,0.0,0.0
1565344486765219570,1650.0,1550.0,1650.0,1550.0,0.0,0.0
1565344486814895247,1650.0,1550.0,1650.0,1550.0,0.0,0.0
1565344486865133684,1650.0,1550.0,1650.0,1550.0,0.0,0.0
1565344486914904309,1650.0,1550.0,1650.0,1550.0,0.0,0.0
1565344486964927382,1650.0,1550.0,1650.0,1550.0,0.0,0.0
1565344487015258580,1650.0,1550.0,1650.0,1550.0,0.0,0.0
1565344487064930767,1650.0,1550.0,1650.0,1550.0,0.0,0.0
1565344487114870247,1650.0,1550.0,1650.0,1550.0,0.0,0.0
1565344487164972017,1650.0,1550.0,1650.0,1550.0,0.0,0.0
1565344487214990142,1650.0,1550.0,1650.0,1550.0,0.0,0.0
1565344487264888892,1650.0,1550.0,1650.0,1550.0,0.0,0.0
1565344487314860142,1650.0,1550.0,1650.0,1550.0,0.0,0.0
1565344487364884049,1650.0,1550.0,1650.0,1550.0,0.0,0.0
1565344487415118892,1650.0,1550.0,1650.0,1550.0,0.0,0.0
1565344487465321965,1650.0,1550.0,1650.0,1550.0,0.0,0.0
1565344487514923371,1650.0,1550.0,1650.0,1550.0,0.0,0.0
1565344487564948996,1550.0,1550.0,1550.0,1550.0,0.0,0.0
1565344487615763059,1550.0,1550.0,1550.0,1550.0,0.0,0.0
1565344487665356705,1550.0,1550.0,1550.0,1550.0,0.0,0.0
1565344487714940507,1550.0,1550.0,1550.0,1550.0,0.0,0.0
1565344487764944569,1550.0,1550.0,1550.0,1550.0,0.0,0.0
1565344487815207173,1550.0,1550.0,1550.0,1550.0,0.0,0.0
1565344487864985975,1550.0,1550.0,1550.0,1550.0,0.0,0.0
1565344487914845819,1550.0,1550.0,1550.0,1550.0,0.0,0.0
1565344487965221027,1550.0,1550.0,1550.0,1550.0,0.0,0.0
1565344488014968840,1550.0,1550.0,1550.0,1550.0,0.0,0.0
1565344488064931132,1550.0,1550.0,1550.0,1550.0,0.0,0.0
1565344488115478996,1550.0,1550.0,1550.0,1550.0,0.0,0.0
1565344488165903580,1550.0,1550.0,1550.0,1550.0,0.0,0.0
1565344488214949152,1550.0,1550.0,1550.0,1550.0,0.0,0.0
1565344488265052850,1550.0,1550.0,1550.0,1550.0,0.0,0.0
1565344488314984309,1550.0,1550.0,1550.0,1550.0,0.0,0.0
1565344488365157694,1550.0,1550.0,1550.0,1550.0,0.0,0.0
1565344488415215819,1550.0,1550.0,1550.0,1550.0,0.0,0.0
1565344488465075559,1550.0,1550.0,1550.0,1550.0,0.0,0.0
1565344488515176288,1550.0,1550.0,1550.0,1550.0,0.0,0.0
1565344488565075194,1550.0,1550.0,1550.0,1550.0,0.0,0.0
1565344488615057746,1631.55718446,1550.0,1631.55718446,1550.0,0.0,0.0
1565344488664591808,1631.55718446,1550.0,1631.55718446,1550.0,0.0,0.0
1565344488715267069,1650.0,1550.0,1650.0,1550.0,0.0,0.0
1565344488764654673,1650.0,1550.0,1650.0,1550.0,0.0,0.0
1565344488815108267,1650.0,1550.0,1650.0,1550.0,0.0,0.0
1565344488865036079,1623.95967841,1550.0,1623.95967841,1550.0,0.0,0.0
1565344488915295558,1623.95967841,1550.0,1623.95967841,1550.0,0.0,0.0
1565344488965284100,1550.0,1550.0,1550.0,1550.0,0.0,0.0
1565344489015099777,1550.0,1550.0,1550.0,1550.0,0.0,0.0
1565344489065023892,1550.0,1550.0,1550.0,1550.0,0.0,0.0
1565344489115098475,1550.0,1550.0,1550.0,1550.0,0.0,0.0
1565344489164988735,1550.0,1550.0,1550.0,1550.0,0.0,0.0
1565344489214927590,1550.0,1550.0,1550.0,1550.0,0.0,0.0
1565344489265191340,1550.0,1550.0,1550.0,1550.0,0.0,0.0
1565344489314916756,1550.0,1550.0,1550.0,1550.0,0.0,0.0
1565344489365162746,1550.0,1550.0,1550.0,1550.0,0.0,0.0
1565344489415023058,1550.0,1550.0,1550.0,1550.0,0.0,0.0
1565344489464927694,1550.0,1550.0,1550.0,1550.0,0.0,0.0
1565344489514903058,1550.0,1550.0,1550.0,1550.0,0.0,0.0
1565344489565087329,1550.0,1550.0,1550.0,1550.0,0.0,0.0
1565344489615308839,1550.0,1550.0,1550.0,1550.0,0.0,0.0
1565344489664999464,1550.0,1550.0,1550.0,1550.0,0.0,0.0
1565344489715526496,1550.0,1550.0,1550.0,1550.0,0.0,0.0
1565344489765071756,1550.0,1550.0,1550.0,1550.0,0.0,0.0
1565344489815212954,1550.0,1550.0,1550.0,1550.0,0.0,0.0
1565344489864980558,1550.0,1550.0,1550.0,1550.0,0.0,0.0
1565344489915337329,1550.0,1550.0,1550.0,1550.0,0.0,0.0
1565344489965025870,1550.0,1550.0,1550.0,1550.0,0.0,0.0
1565344490015059725,1550.0,1550.0,1550.0,1550.0,0.0,0.0
1565344490064975662,1550.0,1550.0,1550.0,1550.0,0.0,0.0
1565344490115007745,1550.0,1585.35272181,1585.35272181,1550.0,0.0,0.0
1565344490164951183,1550.0,1550.0,1550.0,1550.0,0.0,0.0
1565344490215438683,1550.0,1550.0,1550.0,1550.0,0.0,0.0
1565344490265168162,1550.0,1550.0,1550.0,1550.0,0.0,0.0
1565344490315242381,1550.0,1550.0,1550.0,1550.0,0.0,0.0
1565344490365305870,1550.0,1550.0,1550.0,1550.0,0.0,0.0
1565344490415308787,1550.0,1550.0,1550.0,1550.0,0.0,0.0
1565344490465213474,1550.0,1550.0,1550.0,1550.0,0.0,0.0
1565344490515311131,1550.0,1600.0,1600.0,1550.0,0.0,0.0
1565344490565259985,1550.0,1550.0,1550.0,1550.0,0.0,0.0
1565344490615248058,1550.0,1550.0,1550.0,1550.0,0.0,0.0
1565344490665280974,1550.0,1550.0,1550.0,1550.0,0.0,0.0
1565344490715372329,1550.0,1550.0,1550.0,1550.0,0.0,0.0
1565344490765331808,1550.0,1550.0,1550.0,1550.0,0.0,0.0
1565344490815539985,1550.0,1550.0,1550.0,1550.0,0.0,0.0
1565344490865539985,1550.0,1550.0,1550.0,1550.0,0.0,0.0
1565344490915288110,1550.0,1550.0,1550.0,1550.0,0.0,0.0
1565344490965606964,1550.0,1550.0,1550.0,1550.0,0.0,0.0
1565344491015348214,1550.0,1567.52613783,1550.0,1567.52613783,0.0,0.0
1565344491065290401,1550.0,1567.52613783,1550.0,1567.52613783,0.0,0.0
1565344491115331183,1550.0,1574.03461188,1550.0,1574.03461188,0.0,0.0
1565344491165293005,1550.0,1574.03461188,1550.0,1574.03461188,0.0,0.0
1565344491215307797,1550.0,1574.03461188,1550.0,1574.03461188,0.0,0.0
1565344491265247016,1550.0,1594.65548694,1550.0,1594.65548694,0.0,0.0
1565344491315436755,1550.0,1594.65548694,1550.0,1594.65548694,0.0,0.0
1565344491365447120,1550.0,1594.65548694,1550.0,1594.65548694,0.0,0.0
1565344491415553578,1550.0,1609.8472774,1550.0,1609.8472774,0.0,0.0
1565344491465353734,1550.0,1610.93309522,1550.0,1610.93309522,0.0,0.0
1565344491515708526,1550.0,1610.93309522,1550.0,1610.93309522,0.0,0.0
1565344491565374568,1550.0,1610.93309522,1550.0,1610.93309522,0.0,0.0
1565344491615360297,1550.0,1609.8472774,1550.0,1609.8472774,0.0,0.0
1565344491665307224,1550.0,1609.8472774,1550.0,1609.8472774,0.0,0.0
1565344491715411339,1550.0,1609.8472774,1550.0,1609.8472774,0.0,0.0
1565344491765171651,1550.0,1610.93309522,1550.0,1610.93309522,0.0,0.0
1565344491815336443,1550.0,1626.12810135,1550.0,1626.12810135,0.0,0.0
1565344491865379203,1550.0,1626.12810135,1550.0,1626.12810135,0.0,0.0
1565344491915534672,1550.0,1626.12810135,1550.0,1626.12810135,0.0,0.0
1565344491965238266,1550.0,1631.55397177,1550.0,1631.55397177,0.0,0.0
1565344492015592849,1550.0,1631.55397177,1550.0,1631.55397177,0.0,0.0
1565344492065550088,1550.0,1631.55397177,1550.0,1631.55397177,0.0,0.0
1565344492115365036,1550.0,1631.55397177,1550.0,1631.55397177,0.0,0.0
1565344492165362745,1550.0,1631.55397177,1550.0,1631.55397177,0.0,0.0
1565344492215284932,1550.0,1631.55397177,1550.0,1631.55397177,0.0,0.0
1565344492265234359,1550.0,1631.55397177,1550.0,1631.55397177,0.0,0.0
1565344492315346390,1550.0,1645.6599474,1550.0,1645.6599474,0.0,0.0
1565344492365279828,1550.0,1645.6599474,1550.0,1645.6599474,0.0,0.0
1565344492415053786,1550.0,1645.6599474,1550.0,1645.6599474,0.0,0.0
1565344492465236651,1550.0,1645.6599474,1550.0,1645.6599474,0.0,0.0
1565344492515217536,1550.0,1645.6599474,1550.0,1645.6599474,0.0,0.0
1565344492565435297,1550.0,1645.6599474,1550.0,1645.6599474,0.0,0.0
1565344492615211651,1550.0,1646.74576521,1550.0,1646.74576521,0.0,0.0
1565344492665302328,1550.0,1646.74576521,1550.0,1646.74576521,0.0,0.0
1565344492715333005,1550.0,1646.74576521,1550.0,1646.74576521,0.0,0.0
1565344492765354411,1550.0,1646.74576521,1550.0,1646.74576521,0.0,0.0
1565344492815250713,1550.0,1646.74576521,1550.0,1646.74576521,0.0,0.0
1565344492865444984,1550.0,1646.74576521,1550.0,1646.74576521,0.0,0.0
1565344492915254359,1550.0,1646.74576521,1550.0,1646.74576521,0.0,0.0
1565344492965367380,1550.0,1646.74576521,1550.0,1646.74576521,0.0,0.0
1565344493015468838,1550.0,1646.74576521,1550.0,1646.74576521,0.0,0.0
1565344493065393890,1550.0,1646.74576521,1550.0,1646.74576521,0.0,0.0
1565344493115234411,1550.0,1646.74576521,1550.0,1646.74576521,0.0,0.0
1565344493165324411,1550.0,1646.74576521,1550.0,1646.74576521,0.0,0.0
1565344493215282796,1550.0,1646.74576521,1550.0,1646.74576521,0.0,0.0
1565344493265352900,1550.0,1646.74576521,1550.0,1646.74576521,0.0,0.0
1565344493315240557,1550.0,1646.74576521,1550.0,1646.74576521,0.0,0.0
1565344493365243161,1550.0,1650.0,1550.0,1650.0,0.0,0.0
1565344493415226182,1550.0,1650.0,1550.0,1650.0,0.0,0.0
1565344493465199723,1550.0,1650.0,1550.0,1650.0,0.0,0.0
1565344493515235296,1550.0,1650.0,1550.0,1650.0,0.0,0.0
1565344493565242952,1550.0,1650.0,1550.0,1650.0,0.0,0.0
1565344493615209775,1550.0,1650.0,1550.0,1650.0,0.0,0.0
1565344493665228682,1550.0,1650.0,1550.0,1650.0,0.0,0.0
1565344493715224098,1550.0,1650.0,1550.0,1650.0,0.0,0.0
1565344493765268734,1550.0,1650.0,1550.0,1650.0,0.0,0.0
1565344493815249879,1550.0,1650.0,1550.0,1650.0,0.0,0.0
1565344493865520036,1550.0,1650.0,1550.0,1650.0,0.0,0.0
1565344493915330765,1550.0,1650.0,1550.0,1650.0,0.0,0.0
1565344493965220348,1550.0,1650.0,1550.0,1650.0,0.0,0.0
1565344494015570713,1550.0,1650.0,1550.0,1650.0,0.0,0.0
1565344494065190713,1550.0,1650.0,1550.0,1650.0,0.0,0.0
1565344494115225504,1550.0,1650.0,1550.0,1650.0,0.0,0.0
1565344494165299983,1550.0,1650.0,1550.0,1650.0,0.0,0.0
1565344494215395661,1550.0,1650.0,1550.0,1650.0,0.0,0.0
1565344494265225348,1550.0,1550.0,1550.0,1550.0,0.0,0.0
1565344494315298108,1550.0,1550.0,1550.0,1550.0,0.0,0.0
1565344494365334463,1550.0,1550.0,1550.0,1550.0,0.0,0.0
1565344494415324827,1550.0,1550.0,1550.0,1550.0,0.0,0.0
1565344494465594358,1550.0,1550.0,1550.0,1550.0,0.0,0.0
1565344494515293629,1550.0,1550.0,1550.0,1550.0,0.0,0.0
1565344494565787796,1550.0,1550.0,1550.0,1550.0,0.0,0.0
1565344494615224567,1550.0,1550.0,1550.0,1550.0,0.0,0.0
1565344494665448212,1550.0,1550.0,1550.0,1550.0,0.0,0.0
1565344494715359306,1550.0,1550.0,1550.0,1550.0,0.0,0.0
1565344494765242848,1550.0,1550.0,1550.0,1550.0,0.0,0.0
1565344494815254723,1550.0,1550.0,1550.0,1550.0,0.0,0.0
1565344494865332900,1550.0,1550.0,1550.0,1550.0,0.0,0.0
1565344494915327119,1550.0,1550.0,1550.0,1550.0,0.0,0.0
1565344494965323212,1550.0,1550.0,1550.0,1550.0,0.0,0.0
1565344495015323160,1550.0,1550.0,1550.0,1550.0,0.0,0.0
1565344495065313629,1550.0,1550.0,1550.0,1550.0,0.0,0.0
1565344495115629098,1550.0,1550.0,1550.0,1550.0,0.0,0.0
1565344495165516285,1550.0,1550.0,1550.0,1550.0,0.0,0.0
1565344495215833837,1550.0,1550.0,1550.0,1550.0,0.0,0.0
1565344495266470139,1550.0,1550.0,1550.0,1550.0,0.0,0.0
1565344495315305608,1550.0,1550.0,1550.0,1550.0,0.0,0.0
1565344495365562743,1550.0,1550.0,1550.0,1550.0,0.0,0.0
1565344495415067170,1550.0,1550.0,1550.0,1550.0,0.0,0.0
1565344495465446754,1550.0,1550.0,1550.0,1550.0,0.0,0.0
1565344495514842743,1550.0,1550.0,1550.0,1550.0,0.0,0.0
1565344495565427431,1550.0,1550.0,1550.0,1550.0,0.0,0.0
1565344495614824202,1550.0,1550.0,1550.0,1550.0,0.0,0.0
1565344495665215608,1550.0,1550.0,1550.0,1550.0,0.0,0.0
1565344495715508004,1550.0,1550.0,1550.0,1550.0,0.0,0.0
1565344495764829410,1550.0,1550.0,1550.0,1550.0,0.0,0.0
1565344495815138316,1550.0,1550.0,1550.0,1550.0,0.0,0.0
1565344495865185452,1550.0,1550.0,1550.0,1550.0,0.0,0.0
1565344495914852639,1550.0,1578.37787569,1550.0,1578.37787569,0.0,0.0
1565344495964951597,1550.0,1578.37787569,1550.0,1578.37787569,0.0,0.0
1565344496014919983,1550.0,1593.56966913,1550.0,1593.56966913,0.0,0.0
1565344496064950347,1550.0,1593.56966913,1550.0,1593.56966913,0.0,0.0
1565344496116349826,1550.0,1593.56966913,1550.0,1593.56966913,0.0,0.0
1565344496164886129,1550.0,1593.56966913,1550.0,1593.56966913,0.0,0.0
1565344496214960295,1550.0,1593.56966913,1550.0,1593.56966913,0.0,0.0
1565344496264927899,1550.0,1594.65548694,1550.0,1594.65548694,0.0,0.0
1565344496315274618,1550.0,1594.65548694,1550.0,1594.65548694,0.0,0.0
1565344496364976806,1550.0,1608.76467228,1550.0,1608.76467228,0.0,0.0
1565344496414900503,1550.0,1608.76467228,1550.0,1608.76467228,0.0,0.0
1565344496464794514,1550.0,1608.76467228,1550.0,1608.76467228,0.0,0.0
1565344496515533003,1550.0,1609.8472774,1550.0,1609.8472774,0.0,0.0
1565344496564310920,1550.0,1609.8472774,1550.0,1609.8472774,0.0,0.0
1565344496614301128,1550.0,1609.8472774,1550.0,1609.8472774,0.0,0.0
1565344496664088628,1550.0,1609.8472774,1550.0,1609.8472774,0.0,0.0
1565344496714857170,1550.0,1619.61641312,1550.0,1619.61641312,0.0,0.0
1565344496764126285,1550.0,1619.61641312,1550.0,1619.61641312,0.0,0.0
1565344496814041024,1550.0,1630.46815395,1550.0,1630.46815395,0.0,0.0
1565344496864087326,1550.0,1630.46815395,1550.0,1630.46815395,0.0,0.0
1565344496914379410,1550.0,1630.46815395,1550.0,1630.46815395,0.0,0.0
1565344496964114201,1550.0,1647.83157706,1550.0,1647.83157706,0.0,0.0
1565344497014151597,1550.0,1647.83157706,1550.0,1647.83157706,0.0,0.0
1565344497064090555,1550.0,1650.0,1550.0,1650.0,0.0,0.0
1565344497114073889,1550.0,1650.0,1550.0,1650.0,0.0,0.0
1565344497164059461,1550.0,1650.0,1550.0,1650.0,0.0,0.0
1565344497214079982,1550.0,1650.0,1550.0,1650.0,0.0,0.0
1565344497264717326,1550.0,1650.0,1550.0,1650.0,0.0,0.0
1565344497315176232,1550.0,1650.0,1550.0,1650.0,0.0,0.0
1565344497365187066,1550.0,1650.0,1550.0,1650.0,0.0,0.0
1565344497415329982,1550.0,1650.0,1550.0,1650.0,0.0,0.0
1565344497465167638,1550.0,1650.0,1550.0,1650.0,0.0,0.0
1565344497514839878,1550.0,1650.0,1550.0,1650.0,0.0,0.0
1565344497565611909,1550.0,1650.0,1550.0,1650.0,0.0,0.0
1565344497615828420,1550.0,1650.0,1550.0,1650.0,0.0,0.0
1565344497666596545,1550.0,1650.0,1550.0,1650.0,0.0,0.0
1565344497715456076,1550.0,1650.0,1550.0,1650.0,0.0,0.0
1565344497765461128,1550.0,1650.0,1550.0,1650.0,0.0,0.0
1565344497815300867,1550.0,1650.0,1550.0,1650.0,0.0,0.0
1565344497864780711,1550.0,1650.0,1550.0,1650.0,0.0,0.0
1565344497914852951,1550.0,1650.0,1550.0,1650.0,0.0,0.0
1565344497964854253,1550.0,1650.0,1550.0,1650.0,0.0,0.0
1565344498015853576,1550.0,1650.0,1550.0,1650.0,0.0,0.0
1565344498065099201,1550.0,1650.0,1550.0,1650.0,0.0,0.0
1565344498115476961,1550.0,1650.0,1550.0,1650.0,0.0,0.0
1565344498164556388,1550.0,1650.0,1550.0,1650.0,0.0,0.0
1565344498214927638,1550.0,1650.0,1550.0,1650.0,0.0,0.0
1565344498265391753,1550.0,1650.0,1550.0,1650.0,0.0,0.0
1565344498318649201,1550.0,1650.0,1550.0,1650.0,0.0,0.0
1565344498365441388,1550.0,1650.0,1550.0,1650.0,0.0,0.0
1565344498415420763,1550.0,1650.0,1550.0,1650.0,0.0,0.0
1565344498465591909,1550.0,1650.0,1550.0,1650.0,0.0,0.0
1565344498516208628,1550.0,1650.0,1550.0,1650.0,0.0,0.0
1565344498565680763,1550.0,1650.0,1550.0,1650.0,0.0,0.0
1565344498616296492,1550.0,1650.0,1550.0,1650.0,0.0,0.0
1565344498666735815,1550.0,1650.0,1550.0,1650.0,0.0,0.0
1565344498715181440,1550.0,1650.0,1550.0,1650.0,0.0,0.0
1565344498765537794,1550.0,1650.0,1550.0,1650.0,0.0,0.0
1565344498815759773,1550.0,1650.0,1550.0,1650.0,0.0,0.0
1565344498865149669,1550.0,1650.0,1550.0,1650.0,0.0,0.0
1565344498914910242,1550.0,1650.0,1550.0,1650.0,0.0,0.0
1565344498964852325,1550.0,1650.0,1550.0,1650.0,0.0,0.0
1565344499015199044,1550.0,1650.0,1550.0,1650.0,0.0,0.0
1565344499065763107,1550.0,1650.0,1550.0,1650.0,0.0,0.0
1565344499116322117,1550.0,1550.0,1550.0,1550.0,0.0,0.0
1565344499165713367,1550.0,1550.0,1550.0,1550.0,0.0,0.0
1565344499218147169,1550.0,1550.0,1550.0,1550.0,0.0,0.0
1565344499265603002,1550.0,1550.0,1550.0,1550.0,0.0,0.0
1565344499317394409,1550.0,1550.0,1550.0,1550.0,0.0,0.0
1565344499365939565,1550.0,1550.0,1550.0,1550.0,0.0,0.0
1565344499415528940,1550.0,1550.0,1550.0,1550.0,0.0,0.0
1565344499465660398,1550.0,1550.0,1550.0,1550.0,0.0,0.0
1565344499515996752,1550.0,1550.0,1550.0,1550.0,0.0,0.0
1565344499565574148,1550.0,1550.0,1550.0,1550.0,0.0,0.0
1565344499615529825,1550.0,1550.0,1550.0,1550.0,0.0,0.0
1565344499665343211,1550.0,1550.0,1550.0,1550.0,0.0,0.0
1565344499715556961,1550.0,1550.0,1550.0,1550.0,0.0,0.0
1565344499765568367,1550.0,1550.0,1550.0,1550.0,0.0,0.0
1565344499815747429,1550.0,1550.0,1550.0,1550.0,0.0,0.0
1565344499865446023,1550.0,1550.0,1550.0,1550.0,0.0,0.0
1565344499915315033,1550.0,1550.0,1550.0,1550.0,0.0,0.0
1565344499965253471,1550.0,1550.0,1550.0,1550.0,0.0,0.0
1565344500015688106,1550.0,1550.0,1550.0,1550.0,0.0,0.0
1565344500065226908,1550.0,1550.0,1550.0,1550.0,0.0,0.0
1565344500115580450,1550.0,1550.0,1550.0,1550.0,0.0,0.0
1565344500165327846,1550.0,1550.0,1550.0,1550.0,0.0,0.0
1565344500215688887,1550.0,1550.0,1550.0,1550.0,0.0,0.0
1565344500265246544,1550.0,1550.0,1550.0,1550.0,0.0,0.0
1565344500315323158,1550.0,1550.0,1550.0,1550.0,0.0,0.0
1565344500365294669,1550.0,1550.0,1550.0,1550.0,0.0,0.0
1565344500415259617,1550.0,1550.0,1550.0,1550.0,0.0,0.0
1565344500465582585,1550.0,1581.63211346,1550.0,1581.63211346,0.0,0.0
1565344500515257585,1550.0,1581.63211346,1550.0,1581.63211346,0.0,0.0
1565344500565287273,1550.0,1613.10473084,1550.0,1613.10473084,0.0,0.0
1565344500615311179,1550.0,1613.10473084,1550.0,1613.10473084,0.0,0.0
1565344500665554877,1550.0,1615.27314782,1550.0,1615.27314782,0.0,0.0
1565344500715478731,1550.0,1615.27314782,1550.0,1615.27314782,0.0,0.0
1565344500766293054,1550.0,1615.27314782,1550.0,1615.27314782,0.0,0.0
1565344500815281439,1550.0,1614.1905427,1550.0,1614.1905427,0.0,0.0
1565344500865210658,1550.0,1614.1905427,1550.0,1614.1905427,0.0,0.0
1565344500915253366,1550.0,1615.27314782,1550.0,1615.27314782,0.0,0.0
1565344500965292533,1550.0,1615.27314782,1550.0,1615.27314782,0.0,0.0
1565344501015541127,1550.0,1615.27314782,1550.0,1615.27314782,0.0,0.0
1565344501065536908,1550.0,1615.27314782,1550.0,1615.27314782,0.0,0.0
1565344501115332325,1550.0,1615.27314782,1550.0,1615.27314782,0.0,0.0
1565344501165318262,1550.0,1615.27314782,1550.0,1615.27314782,0.0,0.0
1565344501215475658,1550.0,1615.27314782,1550.0,1615.27314782,0.0,0.0
1565344501265311335,1550.0,1615.27314782,1550.0,1615.27314782,0.0,0.0
1565344501315339720,1550.0,1615.27314782,1550.0,1615.27314782,0.0,0.0
1565344501365304929,1550.0,1615.27314782,1550.0,1615.27314782,0.0,0.0
1565344501415266127,1550.0,1615.27314782,1550.0,1615.27314782,0.0,0.0
1565344501465184147,1550.0,1615.27314782,1550.0,1615.27314782,0.0,0.0
1565344501515221543,1550.0,1615.27314782,1550.0,1615.27314782,0.0,0.0
1565344501565298106,1550.0,1617.44478345,1550.0,1617.44478345,0.0,0.0
1565344501615313314,1550.0,1617.44478345,1550.0,1617.44478345,0.0,0.0
1565344501665223106,1550.0,1618.5305953,1550.0,1618.5305953,0.0,0.0
1565344501715311856,1550.0,1618.5305953,1550.0,1618.5305953,0.0,0.0
1565344501765573574,1550.0,1618.5305953,1550.0,1618.5305953,0.0,0.0
1565344501815445970,1550.0,1615.27314782,1550.0,1615.27314782,0.0,0.0
1565344501865213470,1550.0,1615.27314782,1550.0,1615.27314782,0.0,0.0
1565344501915332064,1550.0,1550.0,1550.0,1550.0,0.0,0.0
1565344501965230970,1550.0,1550.0,1550.0,1550.0,0.0,0.0
1565344502015433522,1550.0,1550.0,1550.0,1550.0,0.0,0.0
1565344502065328105,1550.0,1550.0,1550.0,1550.0,0.0,0.0
1565344502115596751,1550.0,1550.0,1550.0,1550.0,0.0,0.0
1565344502165572637,1550.0,1550.0,1550.0,1550.0,0.0,0.0
1565344502215331960,1550.0,1550.0,1550.0,1550.0,0.0,0.0
1565344502265238939,1550.0,1550.0,1550.0,1550.0,0.0,0.0
1565344502315305241,1550.0,1550.0,1550.0,1550.0,0.0,0.0
1565344502365305605,1550.0,1550.0,1550.0,1550.0,0.0,0.0
1565344502415321751,1550.0,1550.0,1550.0,1550.0,0.0,0.0
1565344502465264303,1550.0,1550.0,1550.0,1550.0,0.0,0.0
1565344502515315241,1550.0,1550.0,1550.0,1550.0,0.0,0.0
1565344502565300032,1550.0,1550.0,1550.0,1550.0,0.0,0.0
1565344502615517116,1550.0,1550.0,1550.0,1550.0,0.0,0.0
1565344502665289928,1550.0,1550.0,1550.0,1550.0,0.0,0.0
1565344502715373001,1550.0,1550.0,1550.0,1550.0,0.0,0.0
1565344502765377064,1550.0,1550.0,1550.0,1550.0,0.0,0.0
1565344502815464147,1550.0,1550.0,1550.0,1550.0,0.0,0.0
1565344502865340397,1550.0,1550.0,1550.0,1550.0,0.0,0.0
1565344502915348574,1550.0,1550.0,1550.0,1550.0,0.0,0.0
1565344502965574563,1550.0,1550.0,1550.0,1550.0,0.0,0.0
1565344503015540761,1550.0,1550.0,1550.0,1550.0,0.0,0.0
1565344503065540813,1550.0,1550.0,1550.0,1550.0,0.0,0.0
1565344503115358522,1550.0,1550.0,1550.0,1550.0,0.0,0.0
1565344503165323470,1550.0,1550.0,1550.0,1550.0,0.0,0.0
1565344503215351282,1550.0,1550.0,1550.0,1550.0,0.0,0.0
1565344503265281490,1550.0,1550.0,1550.0,1550.0,0.0,0.0
1565344503315313782,1550.0,1550.0,1550.0,1550.0,0.0,0.0
1565344503365214980,1550.0,1550.0,1550.0,1550.0,0.0,0.0
1565344503415517740,1550.0,1550.0,1550.0,1550.0,0.0,0.0
1565344503465239459,1550.0,1550.0,1550.0,1550.0,0.0,0.0
1565344503515288209,1646.90847592,1551.24531584,1645.66316009,1550.0,0.0,0.0
1565344503565329094,1646.90847592,1551.24531584,1645.66316009,1550.0,0.0,0.0
1565344503615300240,1652.33755633,1553.41694877,1648.92060757,1550.0,0.0,0.0
1565344503665365553,1652.33755633,1553.41694877,1648.92060757,1550.0,0.0,0.0
1565344503715309667,1652.33755633,1553.41694877,1648.92060757,1550.0,0.0,0.0
1565344503765262428,1657.75700212,1557.75700212,1650.0,1550.0,0.0,0.0
1565344503815260865,1657.75700212,1557.75700212,1650.0,1550.0,0.0,0.0
1565344503865269355,1657.75700212,1557.75700212,1650.0,1550.0,0.0,0.0
1565344503915465396,1657.75700212,1557.75700212,1650.0,1550.0,0.0,0.0
1565344503965228730,1657.75700212,1557.75700212,1650.0,1550.0,0.0,0.0
1565344504015367948,1657.75700212,1557.75700212,1650.0,1550.0,0.0,0.0
1565344504065175605,1657.75700212,1557.75700212,1650.0,1550.0,0.0,0.0
1565344504115627376,1657.75700212,1557.75700212,1650.0,1550.0,0.0,0.0
1565344504165203209,1658.84281844,1558.84281844,1650.0,1550.0,0.0,0.0
1565344504215543261,1658.84281844,1558.84281844,1650.0,1550.0,0.0,0.0
1565344504265233209,1658.84281844,1558.84281844,1650.0,1550.0,0.0,0.0
1565344504315334303,1658.84281844,1558.84281844,1650.0,1550.0,0.0,0.0
1565344504365201542,1658.84281844,1558.84281844,1650.0,1550.0,0.0,0.0
1565344504415245761,1658.84281844,1558.84281844,1650.0,1550.0,0.0,0.0
1565344504465540552,1658.84281844,1558.84281844,1650.0,1550.0,0.0,0.0
1565344504515244823,1658.84281844,1558.84281844,1650.0,1550.0,0.0,0.0
1565344504565321334,1658.84281844,1558.84281844,1650.0,1550.0,0.0,0.0
1565344504615531282,1658.84281844,1558.84281844,1650.0,1550.0,0.0,0.0
1565344504665229927,1658.84281844,1558.84281844,1650.0,1550.0,0.0,0.0
1565344504715218990,1658.84281844,1558.84281844,1650.0,1550.0,0.0,0.0
1565344504765223782,1658.84281844,1558.84281844,1650.0,1550.0,0.0,0.0
1565344504815327167,1658.84281844,1558.84281844,1650.0,1550.0,0.0,0.0
1565344504865420292,1658.84281844,1558.84281844,1650.0,1550.0,0.0,0.0
1565344504915499615,1658.84281844,1558.84281844,1650.0,1550.0,0.0,0.0
1565344504965235084,1658.84281844,1558.84281844,1650.0,1550.0,0.0,0.0
1565344505015226854,1658.84281844,1558.84281844,1650.0,1550.0,0.0,0.0
1565344505065568677,1658.84281844,1558.84281844,1650.0,1550.0,0.0,0.0
1565344505115267271,1658.84281844,1558.84281844,1650.0,1550.0,0.0,0.0
1565344505165269511,1658.84281844,1558.84281844,1650.0,1550.0,0.0,0.0
1565344505215282844,1669.23300549,1558.84281844,1650.0,1560.39018705,0.0,0.0
1565344505265254563,1669.23300549,1558.84281844,1650.0,1560.39018705,0.0,0.0
1565344505315411698,1682.25637823,1558.84281844,1650.0,1573.41355979,0.0,0.0
1565344505365223677,1682.25637823,1558.84281844,1650.0,1573.41355979,0.0,0.0
1565344505415447167,1696.36396021,1558.84281844,1650.0,1587.52114177,0.0,0.0
1565344505465343260,1696.36396021,1558.84281844,1650.0,1587.52114177,0.0,0.0
1565344505515375083,1696.36396021,1558.84281844,1650.0,1587.52114177,0.0,0.0
1565344505565323365,1696.36396021,1558.84281844,1650.0,1587.52114177,0.0,0.0
1565344505615396073,1658.84281844,1558.84281844,1650.0,1550.0,0.0,0.0
1565344505665314823,1658.84281844,1558.84281844,1650.0,1550.0,0.0,0.0
1565344505715678885,1658.84281844,1558.84281844,1650.0,1550.0,0.0,0.0
1565344505765785344,1657.76342601,1558.84281844,1648.92060757,1550.0,0.0,0.0
1565344505815879510,1657.76342601,1558.84281844,1648.92060757,1550.0,0.0,0.0
1565344505865280708,1657.76342601,1558.84281844,1648.92060757,1550.0,0.0,0.0
1565344505915667323,1657.76342601,1558.84281844,1648.92060757,1550.0,0.0,0.0
1565344505964659354,1657.76342601,1558.84281844,1648.92060757,1550.0,0.0,0.0
1565344506016511489,1657.76342601,1558.84281844,1648.92060757,1550.0,0.0,0.0
1565344506064987062,1657.76342601,1558.84281844,1648.92060757,1550.0,0.0,0.0
1565344506114966698,1657.76342601,1558.84281844,1648.92060757,1550.0,0.0,0.0
1565344506164941646,1658.84924233,1559.92863476,1648.92060757,1550.0,0.0,0.0
1565344506215069823,1658.84924233,1559.92863476,1648.92060757,1550.0,0.0,0.0
1565344506265032166,1657.76342601,1558.84281844,1648.92060757,1550.0,0.0,0.0
1565344506314955500,1657.76342601,1558.84281844,1648.92060757,1550.0,0.0,0.0
1565344506364892843,1657.76342601,1558.84281844,1648.92060757,1550.0,0.0,0.0
1565344506415466333,1657.76342601,1558.84281844,1648.92060757,1550.0,0.0,0.0
1565344506464916333,1657.76342601,1558.84281844,1648.92060757,1550.0,0.0,0.0
1565344506514923781,1657.76342601,1558.84281844,1648.92060757,1550.0,0.0,0.0
1565344506564686489,1657.76342601,1558.84281844,1648.92060757,1550.0,0.0,0.0
1565344506615111593,1657.76342601,1558.84281844,1648.92060757,1550.0,0.0,0.0
1565344506664910291,1659.93505865,1561.01445109,1648.92060757,1550.0,0.0,0.0
1565344506714945604,1659.93505865,1561.01445109,1648.92060757,1550.0,0.0,0.0
1565344506765385031,1661.02087498,1562.10026741,1648.92060757,1550.0,0.0,0.0
1565344506815053468,1661.02087498,1562.10026741,1648.92060757,1550.0,0.0,0.0
1565344506864887479,1659.93505865,1561.01445109,1648.92060757,1550.0,0.0,0.0
1565344506915070708,1659.93505865,1561.01445109,1648.92060757,1550.0,0.0,0.0
